time	leftRight	frontBack	up	angular	State	Battery_level	Magnetometer_x	Magnetometer_y	Magnetometer_z	Pressure	Temperature	Wind_speed	Wind_angle	Wind_compensation:pitch	Wind_compensation:roll	Pitch_y	Roll_x	Yaw_z	Altitude	Velocity_x	Velocity_y	Velocity_z	Acceleration_x	Acceleration_y	Acceleration_z	Motor_1_power	Motor_2_power	Motor_3_power	Motor_4_power	time_board	_merge
1970-01-01 00:00:00.000	0.0	-0.25	0.0	0.0	7	83	-76	6	-90	98469	531	0.00537707656621933	-47.9677963256836	0.0	0.0	-1.0	-14.0	-99321.0	721	-25.68644905090332	14.866025924682615	0.0	2004.0	2096.0	2556.0	178	177	176	183	1521058856811	both
1970-01-01 00:00:00.065	0.0	-0.25	0.0	0.0	7	83	-80	0	-94	98475	531	0.005500736646354199	-47.05525207519531	0.0	0.0	78.0	-140.0	-99409.0	722	-22.3361759185791	13.956254005432127	0.0	1996.0	2052.0	2552.0	176	170	185	185	1521090921661	both
1970-01-01 00:00:00.095	0.0	-0.25	0.0	0.0	7	83	-72	2	-100	98489	530	0.005983766168355942	-44.97467422485352	0.0	0.0	-159.0	-346.0	-99391.0	724	-15.992612838745115	24.53118896484375	0.0	1988.0	2076.0	2552.0	179	165	187	182	1521104952087	both
1970-01-01 00:00:00.189	0.0	-0.25	0.0	0.0	7	83	-71	-1	-89	98478	531	0.006394505500793457	-44.26980209350586	0.0	0.0	-2278.0	-905.0	-99446.0	726	-4.626230239868164	20.935237884521484	0.0	2032.0	2044.0	2564.0	179	172	180	184	1521686046813	both
1970-01-01 00:00:00.220	0.0	-0.25	0.0	0.0	7	83	-77	-3	-95	98486	531	0.006463313475251198	-45.45178604125977	0.0	0.0	-3169.0	-970.0	-99406.0	726	9.697206497192383	15.24989128112793	0.0	2100.0	2044.0	2556.0	181	173	181	181	1521701076873	both
1970-01-01 00:00:00.285	0.0	-0.25	0.0	0.0	7	83	-79	-3	-91	98469	531	0.006759619805961847	-41.82766723632813	0.0	0.0	-4850.0	-972.0	-99384.0	727	31.540361404418945	8.557819366455076	0.0	2060.0	2028.0	2560.0	182	174	180	182	1521733142181	both
1970-01-01 00:00:00.316	0.0	-0.25	0.0	0.0	7	83	-75	-11	-95	98495	531	0.006950801704078914	-41.62017059326172	0.0	0.0	-5472.0	-977.0	-99395.0	728	51.22620391845703	7.361525058746338	0.0	2120.0	2052.0	2548.0	181	176	179	183	1521748172485	both
1970-01-01 00:00:00.380	0.0	-0.25	0.0	0.0	7	83	-82	-18	-92	98478	531	0.0072533716447651395	-41.00912094116211	0.0	0.0	-6589.0	-942.0	-99422.0	729	99.80426788330078	1.30102801322937	0.0	2096.0	2044.0	2552.0	180	176	180	184	1521779237426	both
1970-01-01 00:00:00.445	0.0	-0.25	0.0	0.0	7	83	-72	-16	-92	98472	531	0.007717486936599015	-37.59817123413086	0.0	0.0	-7178.0	-932.0	-99411.0	730	150.1459503173828	0.5578958988189697	0.0	2056.0	2036.0	2556.0	180	173	183	182	1521811302642	both
1970-01-01 00:00:00.475	0.0	-0.25	0.0	0.0	7	83	-72	-24	-92	98498	531	0.007932827807962894	-38.04644012451172	0.0	0.0	-7353.0	-900.0	-99456.0	730	178.51443481445312	-0.8334827423095703	0.0	2096.0	2060.0	2552.0	179	177	180	187	1521826332794	both
1970-01-01 00:00:00.540	0.0	-0.25	0.0	0.0	7	83	-78	-16	-88	98475	530	0.008143494836986065	-39.99837493896485	0.0	0.0	-7511.0	-880.0	-99530.0	731	265.98617553710943	-11.315088272094727	0.0	2072.0	2056.0	2552.0	177	175	182	186	1521858397735	both
1970-01-01 00:00:00.636	0.0	-0.25	0.0	0.0	7	83	-77	-15	-91	98489	531	0.00921019446104765	-40.40832901000977	0.0	0.0	-7354.0	-859.0	-99532.0	735	361.6659851074219	-9.907031059265137	0.0	2076.0	2036.0	2552.0	175	171	182	187	1521904493469	both
1970-01-01 00:00:00.700	0.0	-0.25	0.0	0.0	7	83	-74	-18	-92	98466	530	0.009259765967726707	-40.5053939819336	0.0	0.0	-7216.0	-883.0	-99561.0	735	397.3047180175781	-12.399019241333008	0.0	2096.0	2064.0	2568.0	174	171	183	188	1521922528411	both
1970-01-01 00:00:00.731	0.0	-0.25	0.0	0.0	7	83	-75	-17	-91	98498	530	0.00984326284378767	-44.75195693969727	0.0	0.0	-7074.0	-1012.0	-99580.0	731	471.2780151367188	-19.19647789001465	0.0	2004.0	1992.0	2564.0	179	173	186	192	1521951588348	both
1970-01-01 00:00:00.762	0.0	-0.25	0.0	0.0	7	83	-75	-15	-87	98495	530	0.009897163137793541	-44.60987854003906	0.0	0.0	-6961.0	-1066.0	-99604.0	731	494.7029724121094	-23.414337158203125	0.0	1968.0	1972.0	2580.0	177	173	184	194	1521966618865	both
1970-01-01 00:00:00.791	0.0	-0.25	0.0	0.0	7	83	-75	-19	-95	98483	530	0.010010238736867905	-47.25871276855469	0.0	0.0	-6858.0	-1088.0	-99594.0	731	534.99853515625	-34.58951568603516	0.0	1968.0	2000.0	2584.0	178	171	188	190	1521980648803	both
1970-01-01 00:00:00.887	0.0	-0.25	0.0	0.0	7	83	-72	-14	-88	98495	530	0.011077139526605606	-50.81881713867188	0.0	0.0	-6693.0	-1378.0	-99640.0	734	637.1296997070312	-40.87453842163086	0.0	2016.0	2036.0	2560.0	176	171	183	192	1522027743957	both
1970-01-01 00:00:00.952	0.0	-0.25	0.0	0.0	7	83	-79	-25	-93	98486	531	0.011769955977797508	-53.7180061340332	0.0	0.0	-6603.0	-1527.0	-99594.0	735	710.8823852539062	-51.8451042175293	0.0	2052.0	2068.0	2560.0	176	168	183	192	1522059809051	both
1970-01-01 00:00:00.982	0.0	-0.25	0.0	0.0	7	83	-72	-26	-90	98478	531	0.011715725064277649	-56.40869522094727	0.0	0.0	-6554.0	-1610.0	-99624.0	735	739.3159790039062	-61.74835205078125	0.0	2072.0	2096.0	2556.0	174	171	181	193	1522073839141	both
1970-01-01 00:00:01.013	0.0	-0.25	0.0	0.0	7	83	-74	-26	-94	98469	530	0.011999438516795635	-59.59085464477539	0.0	0.0	-6484.0	-1612.0	-99634.0	737	775.0518798828125	-72.92655181884766	0.0	2056.0	2068.0	2564.0	173	167	185	189	1522088869262	both
1970-01-01 00:00:01.073	0.0	-0.25	0.0	0.0	7	83	-70	-16	-94	98513	530	0.012670249678194523	-58.1410026550293	0.0	0.0	-6334.0	-1622.0	-99606.0	733	813.7254638671875	-70.6908950805664	0.0	2048.0	1988.0	2576.0	176	169	186	195	1522117929687	both
1970-01-01 00:00:01.103	0.0	-0.25	0.0	0.0	7	83	-68	-20	-90	98478	530	0.01233505830168724	-59.16822814941406	0.0	0.0	-6244.0	-1648.0	-99613.0	733	825.6553344726562	-74.49994659423828	0.0	2036.0	2028.0	2588.0	176	170	186	195	1522132959777	both
1970-01-01 00:00:01.138	0.0	-0.25	0.0	0.0	7	83	-70	-18	-86	98463	530	0.012477794662117958	-61.4461784362793	0.0	0.0	-6151.0	-1657.0	-99488.0	735	845.2718505859375	-87.87096405029297	0.0	2080.0	1996.0	2564.0	183	159	193	184	1522149994934	both
1970-01-01 00:00:01.239	0.0	-0.25	0.0	0.0	7	83	-77	-21	-87	98478	530	0.013514970429241656	-73.1937484741211	0.0	0.0	-5987.0	-1763.0	-99448.0	734	951.5516967773438	-128.384521484375	0.0	2032.0	2040.0	2580.0	177	167	188	192	1522734095397	both
1970-01-01 00:00:01.273	0.0	-0.25	0.0	0.0	7	83	-66	-16	-94	98480	530	0.01413710694760084	-75.5105972290039	0.0	0.0	-5942.0	-1689.0	-99453.0	734	988.5369262695312	-145.83279418945312	0.0	2036.0	2056.0	2588.0	176	166	189	191	1522751130004	both
1970-01-01 00:00:01.303	0.0	-0.25	0.0	0.0	7	83	-69	-23	-95	98444	530	0.01355825737118721	-79.6249771118164	0.0	0.0	-5859.0	-1599.0	-99450.0	735	992.4443359375	-165.18067932128906	0.0	2088.0	2044.0	2576.0	173	167	188	192	1522766160583	both
1970-01-01 00:00:01.334	0.0	-0.25	0.0	0.0	7	83	-66	-22	-92	98469	530	0.013292048126459122	-80.83322143554688	0.0	0.0	-5797.0	-1506.0	-99456.0	738	1002.7621459960938	-183.6745147705078	0.0	2056.0	2040.0	2584.0	171	165	184	191	1522780190429	both
1970-01-01 00:00:01.429	0.0	-0.25	0.0	0.0	3	83	-70	-18	-92	98478	530	0.015119954943656918	-87.88569641113281	0.0	0.0	-5195.0	-1193.0	-99428.0	739	1074.9844970703123	-199.40267944335938	0.0	1996.0	2028.0	2588.0	167	160	189	191	1522827285583	both
1970-01-01 00:00:01.495	0.0	-0.25	0.0	0.0	3	83	-71	-21	-95	98475	530	0.014110053889453413	-91.80178833007812	0.0	0.0	-5304.0	-1135.0	-99426.0	738	1049.975341796875	-211.4183807373047	0.0	2008.0	2020.0	2564.0	172	164	186	189	1522859350891	both
1970-01-01 00:00:01.589	0.0	-0.25	0.0	0.0	3	83	-70	-28	-92	98489	530	0.014127110131084919	-94.71283721923828	0.0	0.0	-5974.0	-980.0	-99497.0	738	1058.412841796875	-222.16429138183597	0.0	2072.0	2052.0	2552.0	170	167	185	190	1522905445922	both
1970-01-01 00:00:01.620	0.0	-0.25	0.0	0.0	3	83	-71	-23	-93	98486	530	0.01562511920928955	-91.2119369506836	0.0	0.0	-6190.0	-907.0	-99547.0	739	1079.48876953125	-219.1042938232422	0.0	2120.0	2060.0	2548.0	168	171	182	192	1522920475982	both
1970-01-01 00:00:01.684	0.0	-0.25	0.0	0.0	3	83	-75	-23	-89	98453	530	0.014830074273049831	-89.90486145019531	0.0	0.0	-6588.0	-813.0	-99589.0	735	1101.4073486328123	-198.5414581298828	0.0	2052.0	2052.0	2548.0	172	169	186	192	1522952541351	both
1970-01-01 00:00:01.714	0.0	-0.25	0.0	0.0	3	83	-71	-27	-87	98483	530	0.014762818813323975	-89.51045227050781	0.0	0.0	-6638.0	-747.0	-99638.0	734	1114.349609375	-196.23306274414062	0.0	2024.0	2024.0	2560.0	168	171	186	194	1522966571289	both
1970-01-01 00:00:01.745	0.0	-0.25	0.0	0.0	3	83	-69	-25	-87	98456	530	0.014940341003239157	-88.88577270507812	0.0	0.0	-6759.0	-727.0	-99678.0	733	1128.921630859375	-193.48004150390625	0.0	1992.0	2032.0	2564.0	170	172	183	195	1522981601470	both
1970-01-01 00:00:02.772	0.0	-0.25	0.0	0.0	3	83	-69	-1	-83	98478	530	0.030431909486651417	-63.90058898925781	0.0	0.0	2416.0	191.0	-99553.0	694	172.81764221191406	-0.5979787707328796	0.0	2016.0	1976.0	2592.0	183	173	194	191	1524019629455	both
1970-01-01 00:00:02.803	0.0	-0.25	0.0	0.0	3	83	-77	1	-89	98483	530	0.03118185698986053	-64.64879608154297	0.0	0.0	1518.0	131.0	-99485.0	689	149.5054931640625	1.3300325870513916	0.0	2008.0	2024.0	2596.0	183	173	193	195	1524034659881	both
1970-01-01 00:00:02.833	0.0	-0.25	0.0	0.0	3	83	-67	5	-93	98489	530	0.029909620061516762	-60.65414428710938	0.0	0.0	468.0	-9.0	-99483.0	687	114.76144409179688	5.121786594390869	0.0	2024.0	2072.0	2592.0	180	176	189	197	1524048689910	both
1970-01-01 00:00:02.899	0.0	-0.25	0.0	0.0	3	83	-74	-10	-88	98475	530	0.029896875843405724	-60.46359634399414	0.0	0.0	-2326.0	-118.0	-99407.0	679	90.65848541259766	-10.549267768859863	0.0	2056.0	2056.0	2584.0	191	174	195	185	1524080754943	both
1970-01-01 00:00:02.928	0.0	-0.25	0.0	0.0	3	83	-70	-16	-90	98475	530	0.030585825443267826	-59.33441543579102	0.0	0.0	-3680.0	-138.0	-99341.0	676	95.72652435302734	-9.880041122436523	0.0	2040.0	2108.0	2592.0	192	177	193	185	1524095785339	both
1970-01-01 00:00:02.959	0.0	-0.25	0.0	0.0	3	83	-75	-17	-91	98492	530	0.031462062150239944	-60.541015625	0.0	0.0	-4967.0	-188.0	-99310.0	675	117.81654357910156	-11.414902687072756	0.0	2012.0	2108.0	2580.0	193	176	192	185	1524110815155	both
1970-01-01 00:00:02.994	0.0	-0.25	0.0	0.0	3	83	-70	-16	-88	98478	530	0.0300635788589716	-58.92597579956055	0.0	0.0	-6279.0	-188.0	-99284.0	674	142.6815643310547	-23.54382133483887	0.0	2076.0	2076.0	2596.0	190	179	189	187	1524127850250	both
1970-01-01 00:00:03.023	0.0	-0.25	0.0	0.0	3	83	-73	-17	-91	98489	530	0.03056405298411846	-57.49657440185547	0.0	0.0	-7295.0	-174.0	-99382.0	671	152.38540649414062	-23.2395076751709	0.0	2040.0	2100.0	2596.0	185	187	183	193	1524141880310	both
1970-01-01 00:00:03.184	0.0	-0.25	0.0	0.0	3	83	-70	-22	-82	98489	530	0.033010829240083694	-57.4771842956543	0.0	0.0	-10427.0	-100.0	-99341.0	677	372.9978942871094	-25.47702980041504	0.0	2124.0	2040.0	2580.0	185	180	187	190	1524755040740	both
1970-01-01 00:00:03.250	0.0	-0.25	0.0	0.0	3	83	-73	-27	-87	98478	530	0.03468913212418556	-57.85363006591797	0.0	0.0	-10686.0	-31.0	-99371.0	678	471.87725830078125	-17.384933471679688	0.0	2092.0	2000.0	2576.0	184	181	187	191	1524787106018	both
1970-01-01 00:00:03.284	0.0	-0.25	0.0	0.0	3	83	-68	-26	-88	98495	530	0.03540155291557312	-59.1797103881836	0.0	0.0	-10707.0	-51.0	-99375.0	679	527.78466796875	-17.280105590820312	0.0	1988.0	2004.0	2588.0	184	178	189	192	1524804141174	both
1970-01-01 00:00:03.349	0.0	-0.25	0.0	0.0	3	83	-71	-31	-85	98480	530	0.03481674939393997	-58.51649856567383	0.0	0.0	-10454.0	-174.0	-99387.0	683	602.8831176757812	-16.921104431152347	0.0	1988.0	2052.0	2600.0	182	175	190	193	1524836206207	both
1970-01-01 00:00:03.379	0.0	-0.25	0.0	0.0	3	83	-77	-29	-87	98501	530	0.03527090698480606	-58.89051818847656	0.0	0.0	-10274.0	-187.0	-99398.0	687	632.234130859375	-14.89914321899414	0.0	2008.0	2024.0	2592.0	181	174	189	192	1524851236328	both
1970-01-01 00:00:03.445	0.0	-0.25	0.0	0.0	3	83	-68	-30	-86	98501	530	0.035923004150390625	-59.783103942871094	0.0	0.0	-9948.0	-268.0	-99370.0	692	714.4966430664062	-17.99380874633789	0.0	2012.0	2060.0	2588.0	180	171	190	192	1524883301727	both
1970-01-01 00:00:03.479	0.0	-0.25	0.0	0.0	3	83	-71	-31	-87	98475	530	0.03633049502968788	-59.90095901489258	0.0	0.0	-9788.0	-352.0	-99381.0	695	757.5747680664062	-17.234125137329098	0.0	1960.0	2056.0	2568.0	179	170	189	193	1524900336517	both
1970-01-01 00:00:03.510	0.0	-0.25	0.0	0.0	3	83	-72	-26	-86	98483	530	0.03577543422579765	-59.7413558959961	0.0	0.0	-9556.0	-361.0	-99413.0	698	777.0474243164062	-19.43272590637207	0.0	1996.0	2064.0	2576.0	174	171	189	196	1524915366729	both
1970-01-01 00:00:03.540	0.0	-0.25	0.0	0.0	3	83	-70	-32	-88	98486	530	0.03573143482208252	-58.8965835571289	0.0	0.0	-9380.0	-344.0	-99431.0	702	800.0123291015625	-18.59171485900879	0.0	2052.0	2076.0	2576.0	175	171	188	194	1524929396728	both
1970-01-01 00:00:03.574	0.0	-0.25	0.0	0.0	3	83	-69	-31	-83	98460	530	0.035663750022649765	-58.50697708129883	0.0	0.0	-9266.0	-317.0	-99421.0	703	819.98828125	-17.635190963745114	0.0	2100.0	2080.0	2564.0	177	170	189	193	1524944426971	both
1970-01-01 00:00:03.670	0.0	-0.25	0.0	0.0	3	83	-75	-29	-93	98478	530	0.03694724291563034	-59.85598754882813	0.0	0.0	-8682.0	-280.0	-99330.0	711	932.0220947265624	-16.01668930053711	0.0	2044.0	2064.0	2560.0	175	166	192	193	1524993527221	both
1970-01-01 00:00:03.736	0.0	-0.25	0.0	0.0	3	83	-76	-32	-90	98501	530	0.038288354873657234	-65.013916015625	0.0	0.0	-8407.0	-67.0	-99295.0	716	1022.2071533203124	-41.66558837890625	0.0	2080.0	2092.0	2572.0	174	166	196	190	1525025592437	both
1970-01-01 00:00:03.771	0.0	-0.25	0.0	0.0	3	83	-70	-32	-88	98486	530	0.03861238062381744	-64.98909759521484	0.0	0.0	-8398.0	73.0	-99276.0	718	1074.272216796875	-44.123634338378906	0.0	2024.0	2076.0	2560.0	175	166	194	190	1525042627655	both
1970-01-01 00:00:03.871	0.0	-0.25	0.0	0.0	3	83	-77	-29	-85	98492	530	0.03972737491130829	-66.10505676269531	0.0	0.0	-8850.0	413.0	-99417.0	726	1169.0189208984375	-40.728477478027344	0.0	2016.0	2040.0	2584.0	173	171	189	192	1525091727661	both
1970-01-01 00:00:03.901	0.0	-0.25	0.0	0.0	3	83	-73	-29	-87	98492	530	0.04026895388960838	-65.08871459960939	0.0	0.0	-8967.0	352.0	-99436.0	727	1182.5955810546875	-28.85871315002441	0.0	2056.0	2084.0	2580.0	174	171	188	193	1525106757781	both
1970-01-01 00:00:03.931	0.0	-0.25	0.0	0.0	3	83	-78	-30	-88	98475	530	0.04083624482154846	-65.49551391601561	0.0	0.0	-9107.0	265.0	-99470.0	731	1201.623046875	-22.70871353149414	0.0	2056.0	2080.0	2568.0	171	172	185	194	1525120788085	both
1970-01-01 00:00:03.961	0.0	-0.25	0.0	0.0	3	83	-78	-30	-88	98475	530	0.0407399982213974	-63.63283920288086	0.0	0.0	-9201.0	168.0	-99510.0	733	1216.09716796875	-16.864110946655273	0.0	2012.0	2028.0	2572.0	172	171	187	194	1525135818023	both
1970-01-01 00:00:04.061	0.0	-0.25	0.0	0.0	3	83	-74	-34	-88	98478	530	0.04129582270979881	-63.2744026184082	0.0	0.0	-9378.0	-303.0	-99687.0	743	1253.148681640625	-13.018437385559082	0.0	2056.0	2080.0	2556.0	166	175	176	201	1525184918243	both
1970-01-01 00:00:05.949	0.0	0.25	0.0	0.0	4	83	-80	-4	-82	98472	530	0.03498201444745064	-43.599308013916016	0.0	0.0	-2045.0	1842.0	-99183.0	781	-45.45237350463867	61.10319900512695	0.0	2096.0	2052.0	2580.0	176	175	181	173	1527176804016	both
1970-01-01 00:00:05.982	0.0	0.25	0.0	0.0	3	83	-74	-6	-84	98480	530	0.034781742841005325	-43.0120964050293	0.0	0.0	-2005.0	1652.0	-99182.0	780	-49.82575988769531	68.78285980224611	0.0	2092.0	2016.0	2564.0	183	178	174	171	1527193839111	both
1970-01-01 00:00:06.083	0.0	0.25	0.0	0.0	3	83	-77	-3	-85	98478	530	0.03804957494139671	-40.36187362670898	0.0	0.0	-305.0	1644.0	-98982.0	778	-48.37063217163086	102.01151275634766	0.0	1992.0	1996.0	2568.0	185	173	181	169	1527242939422	both
1970-01-01 00:00:06.148	0.0	0.25	0.0	0.0	3	83	-72	0	-86	98463	530	0.03853219375014305	-38.97777557373047	0.0	0.0	1994.0	1579.0	-98796.0	784	-67.93521881103516	120.44820404052734	0.0	1972.0	2020.0	2576.0	181	168	184	169	1527810004486	both
1970-01-01 00:00:06.178	0.0	0.25	0.0	0.0	3	83	-77	5	-81	98501	530	0.0396278090775013	-36.50446319580078	0.0	0.0	3078.0	1406.0	-98727.0	783	-93.21297454833984	133.27976989746094	0.0	2056.0	2072.0	2544.0	181	166	185	172	1527824034729	both
1970-01-01 00:00:06.213	0.0	0.25	0.0	0.0	3	83	-75	9	-89	98501	530	0.03880714252591133	-34.66796112060547	0.0	0.0	4205.0	1236.0	-98660.0	787	-128.57504272460938	134.12945556640622	0.0	1968.0	2048.0	2568.0	180	166	183	171	1527842069824	both
1970-01-01 00:00:06.243	0.0	0.25	0.0	0.0	3	83	-75	9	-85	98492	530	0.039394594728946686	-34.110618591308594	0.0	0.0	5096.0	1127.0	-98630.0	786	-160.6770477294922	132.62542724609378	0.0	2064.0	2108.0	2560.0	180	166	183	173	1527856099761	both
1970-01-01 00:00:06.278	0.0	0.25	0.0	0.0	3	83	-75	11	-83	98489	530	0.04098065569996834	-31.71752166748047	0.0	0.0	5944.0	972.0	-98553.0	785	-191.2228546142578	147.64938354492188	0.0	2012.0	2056.0	2568.0	184	165	185	172	1527873134887	both
1970-01-01 00:00:06.308	0.0	0.25	0.0	0.0	3	83	-71	13	-89	98478	530	0.04081440344452858	-31.240234375	0.0	0.0	6555.0	761.0	-98486.0	789	-240.05601501464844	159.0194549560547	0.0	2064.0	2128.0	2560.0	184	163	182	172	1527888164978	both
1970-01-01 00:00:06.339	0.0	0.25	0.0	0.0	3	83	-77	17	-85	98469	530	0.03903928026556969	-33.159225463867195	0.0	0.0	7019.0	458.0	-98440.0	791	-272.90972900390625	147.6387176513672	0.0	2056.0	2132.0	2556.0	184	163	181	172	1527903195220	both
1970-01-01 00:00:06.404	0.0	0.25	0.0	0.0	3	83	-68	16	-86	98478	530	0.04101429507136345	-29.545284271240234	0.0	0.0	7532.0	-169.0	-98368.0	793	-361.8074035644531	147.46128845214844	0.0	2012.0	2092.0	2572.0	189	164	177	171	1527935260192	both
1970-01-01 00:00:06.434	0.0	0.25	0.0	0.0	3	83	-74	12	-86	98495	530	0.04118181765079498	-30.775835037231445	0.0	0.0	7641.0	-422.0	-98328.0	792	-383.8712158203125	141.49620056152344	0.0	1972.0	2048.0	2588.0	191	164	177	171	1527949290344	both
1970-01-01 00:00:06.464	0.0	0.25	0.0	0.0	3	83	-73	17	-79	98492	530	0.0417514406144619	-27.48886299133301	0.0	0.0	7659.0	-634.0	-98281.0	793	-434.6393432617188	148.09271240234375	0.0	2004.0	2040.0	2556.0	193	164	177	170	1527964320526	both
1970-01-01 00:00:06.494	0.0	0.25	0.0	0.0	3	83	-71	19	-89	98486	530	0.040730409324169166	-26.2856559753418	0.0	0.0	7637.0	-812.0	-98208.0	792	-482.4562683105469	145.44261169433594	0.0	2056.0	2080.0	2524.0	196	161	181	166	1527979350677	both
1970-01-01 00:00:06.524	0.0	0.25	0.0	0.0	3	83	-67	17	-87	98475	530	0.043033987283706665	-25.30866622924805	0.0	0.0	7538.0	-1031.0	-98174.0	791	-519.306396484375	154.44210815429688	0.0	2096.0	2100.0	2532.0	197	164	176	169	1527993380859	both
1970-01-01 00:00:06.559	0.0	0.25	0.0	0.0	3	83	-69	17	-85	98504	530	0.0422658771276474	-22.0757999420166	0.0	0.0	7392.0	-1284.0	-98265.0	791	-582.8751220703125	143.03970336914062	0.0	2036.0	2096.0	2516.0	190	172	168	177	1528010415679	both
1970-01-01 00:00:06.589	0.0	0.25	0.0	0.0	3	83	-68	20	-86	98478	530	0.0405743233859539	-21.921640396118164	0.0	0.0	7215.0	-1397.0	-98234.0	789	-613.1612548828125	125.35053253173828	0.0	2068.0	2100.0	2544.0	197	169	172	170	1528025445831	both
1970-01-01 00:00:06.655	0.0	0.25	0.0	0.0	3	83	-65	19	-89	98472	530	0.04472535848617554	-18.72219657897949	0.0	0.0	6942.0	-1561.0	-98270.0	783	-674.5697631835938	156.6654510498047	0.0	2112.0	2036.0	2552.0	199	172	171	173	1528057511138	both
1970-01-01 00:00:06.689	0.0	0.25	0.0	0.0	3	83	-67	15	-81	98498	530	0.045443739742040634	-19.979887008666992	0.0	0.0	6835.0	-1616.0	-98283.0	780	-689.7568359375	147.879638671875	0.0	2096.0	2084.0	2536.0	199	171	175	170	1528074546081	both
1970-01-01 00:00:06.725	0.0	0.25	0.0	0.0	3	83	-67	17	-81	98501	530	0.04612520709633827	-19.53050422668457	0.0	0.0	6726.0	-1579.0	-98266.0	777	-786.0159912109375	141.48147583007812	0.0	2032.0	2128.0	2544.0	200	173	175	170	1528091581207	both
1970-01-01 00:00:06.755	0.0	0.25	0.0	0.0	3	83	-62	18	-88	98469	530	0.04610642045736313	-11.774563789367676	0.0	0.0	6673.0	-1628.0	-98279.0	771	-854.51318359375	127.17858123779295	0.0	2076.0	2124.0	2548.0	202	173	174	173	1528106611358	both
1970-01-01 00:00:06.820	0.0	0.25	0.0	0.0	3	83	-70	14	-86	98483	530	0.043408732861280434	-7.003237724304199	0.0	0.0	6467.0	-1539.0	-98430.0	764	-930.7443237304688	68.16015625	0.0	2136.0	2072.0	2548.0	197	183	168	176	1528138676574	both
1970-01-01 00:00:06.850	0.0	0.25	0.0	0.0	3	83	-70	18	-86	98511	529	0.04381164163351059	-5.415355205535889	0.0	0.0	6451.0	-1511.0	-98454.0	763	-947.8549194335938	62.69572830200195	0.0	2028.0	2028.0	2600.0	196	182	169	176	1528143686492	both
1970-01-01 00:00:06.915	0.0	0.25	0.0	0.0	3	83	-69	17	-87	98511	530	0.04264731332659722	-1.894934892654419	0.0	0.0	6326.0	-1325.0	-98639.0	757	-1049.3123779296877	14.842134475708008	0.0	2168.0	2084.0	2572.0	194	185	166	178	1528184771820	both
1970-01-01 00:00:07.012	0.0	0.25	0.0	0.0	3	83	-72	22	-86	98492	529	0.04366600140929222	2.3239939212799072	0.0	0.0	6498.0	-724.0	-98856.0	746	-1126.1856689453125	-20.12226104736328	0.0	2096.0	2136.0	2592.0	194	188	171	176	1528231867004	both
1970-01-01 00:00:07.041	0.0	0.25	0.0	0.0	3	83	-63	19	-85	98466	529	0.04238518700003624	2.2993180751800537	0.0	0.0	6556.0	-537.0	-98797.0	742	-1143.84033203125	-16.77134895324707	0.0	2048.0	2104.0	2592.0	206	178	181	166	1528246897338	both
1970-01-01 00:00:07.075	0.0	0.25	0.0	0.0	3	83	-73	25	-89	98480	530	0.04365652427077293	2.5930063724517822	0.0	0.0	6653.0	-286.0	-98794.0	739	-1157.690185546875	-18.768115997314453	0.0	2116.0	2036.0	2612.0	199	184	178	170	1528263932250	both
1970-01-01 00:00:07.106	0.0	0.25	0.0	0.0	3	83	-74	12	-84	98498	530	0.04410138726234436	3.1745924949646	0.0	0.0	6757.0	-123.0	-98815.0	737	-1172.841064453125	-19.250242233276367	0.0	2068.0	2028.0	2600.0	200	182	178	170	1528277962524	both
1970-01-01 00:00:08.284	0.0	0.25	0.0	0.0	8	82	-74	-4	-82	98492	529	0.0593765527009964	18.116857528686523	0.0	0.0	643.0	528.0	-99405.0	734	-223.84051513671875	86.19261169433594	0.0	2056.0	2088.0	2584.0	183	175	178	180	1529924140747	both
1970-01-01 00:00:08.450	0.0	0.25	0.0	0.0	3	82	-72	6	-90	98486	529	0.05985447019338608	13.400224685668945	0.0	0.0	3789.0	145.0	-99366.0	733	-204.0384826660156	84.44662475585938	0.0	2100.0	1964.0	2588.0	190	176	178	174	1530005306274	both
1970-01-01 00:00:08.485	0.0	0.25	0.0	0.0	3	82	-75	3	-89	98463	529	0.06177017465233803	10.531988143920898	0.0	0.0	4941.0	109.0	-99354.0	733	-216.49122619628903	93.38104248046876	0.0	2108.0	1968.0	2560.0	188	176	178	179	1530022341430	both
1970-01-01 00:00:08.516	0.0	0.25	0.0	0.0	3	82	-70	8	-90	98472	529	0.06228562444448471	11.853440284729006	0.0	0.0	5953.0	59.0	-99329.0	732	-243.9561309814453	100.11702728271484	0.0	2112.0	1952.0	2596.0	190	175	180	179	1530037371398	both
1970-01-01 00:00:08.550	0.0	0.25	0.0	0.0	3	82	-71	11	-87	98466	529	0.06249629333615302	11.507744789123535	0.0	0.0	6974.0	-58.0	-99327.0	732	-278.7861328125	101.77149963378906	0.0	2080.0	2048.0	2560.0	187	178	175	184	1530054406677	both
1970-01-01 00:00:08.581	0.0	0.25	0.0	0.0	3	82	-72	14	-90	98499	529	0.06270122528076172	11.872153282165527	0.0	0.0	7806.0	-180.0	-99356.0	733	-311.82318115234375	98.12954711914062	0.0	2104.0	2012.0	2592.0	186	178	176	185	1530069436889	both
1970-01-01 00:00:08.611	0.0	0.25	0.0	0.0	3	82	-71	15	-85	98483	529	0.06268958747386932	12.64004898071289	0.0	0.0	8486.0	-187.0	-99368.0	733	-346.6496887207031	89.57816314697266	0.0	2100.0	1988.0	2596.0	185	180	176	184	1530083466796	both
1970-01-01 00:00:08.641	0.0	0.25	0.0	0.0	3	82	-73	13	-87	98460	529	0.06343454122543335	11.287564277648926	0.0	0.0	9033.0	-212.0	-99356.0	734	-367.755859375	94.32037353515624	0.0	2084.0	1996.0	2596.0	188	177	178	181	1530098496856	both
1970-01-01 00:00:08.671	0.0	0.25	0.0	0.0	3	82	-70	16	-88	98472	529	0.06362805515527725	11.455055236816404	0.0	0.0	9529.0	-216.0	-99331.0	737	-406.4953002929688	98.38832092285156	0.0	2060.0	2016.0	2576.0	189	176	180	179	1530113527099	both
1970-01-01 00:00:08.701	0.0	0.25	0.0	0.0	3	82	-71	25	-83	98511	529	0.06533511728048325	13.730077743530273	0.0	0.0	9896.0	-257.0	-99331.0	736	-476.27374267578125	95.7073745727539	0.0	2048.0	2040.0	2576.0	190	178	178	181	1530128557495	both
1970-01-01 00:00:08.799	0.0	0.25	0.0	0.0	3	82	-69	19	-85	98460	529	0.06594957411289215	14.813562393188475	0.0	0.0	10422.0	-381.0	-99376.0	736	-621.171875	76.10051727294922	0.0	2060.0	2036.0	2568.0	192	182	174	182	1530174652465	both
1970-01-01 00:00:08.831	0.0	0.25	0.0	0.0	3	82	-70	20	-84	98472	529	0.06511574238538742	13.983927726745605	0.0	0.0	10423.0	-467.0	-99391.0	735	-654.73486328125	68.85227966308594	0.0	2028.0	2048.0	2580.0	191	183	174	184	1530191687683	both
1970-01-01 00:00:08.912	0.0	0.25	0.0	0.0	3	82	-72	22	-82	98463	529	0.06591729819774628	14.36738109588623	0.0	0.0	10295.0	-477.0	-99390.0	735	-749.6514282226562	65.92575836181639	0.0	2128.0	2044.0	2560.0	194	182	174	180	1530218742919	both
1970-01-01 00:00:08.976	0.0	0.25	0.0	0.0	3	82	-67	23	-87	98489	529	0.0660705417394638	14.826210021972654	0.0	0.0	9930.0	-399.0	-99347.0	731	-855.8377685546875	37.599769592285156	0.0	2016.0	1968.0	2604.0	197	184	174	179	1530262832885	both
1970-01-01 00:00:09.007	0.0	0.25	0.0	0.0	3	82	-69	21	-87	98478	529	0.06603938341140747	14.846709251403807	0.0	0.0	9743.0	-445.0	-99324.0	728	-884.3504028320312	56.30062484741211	0.0	2004.0	1968.0	2592.0	199	185	171	180	1530277863128	both
1970-01-01 00:00:09.067	0.0	0.25	0.0	0.0	3	82	-65	27	-87	98478	529	0.06605507433414459	14.99795627593994	0.0	0.0	9237.0	-549.0	-99404.0	726	-949.1087646484376	29.789825439453125	0.0	2088.0	2028.0	2572.0	196	190	168	181	1530306923278	both
1970-01-01 00:00:09.127	0.0	0.25	0.0	0.0	3	82	-70	24	-84	98489	529	0.06654264777898787	15.20539093017578	0.0	0.0	8905.0	-620.0	-99457.0	722	-999.2546997070312	19.326631546020508	0.0	2140.0	2112.0	2596.0	197	191	168	182	1530336983489	both
1970-01-01 00:00:09.193	0.0	0.25	0.0	0.0	3	82	-69	25	-87	98454	529	0.06678524613380432	14.880562782287598	0.0	0.0	8674.0	-668.0	-99579.0	721	-1056.76513671875	21.906301498413086	0.0	2116.0	2008.0	2604.0	193	195	164	184	1530903048767	both
1970-01-01 00:00:09.258	0.0	0.25	0.0	0.0	3	82	-66	20	-86	98499	529	0.06711211055517198	14.479755401611328	0.0	0.0	8404.0	-573.0	-99550.0	721	-1096.5323486328123	27.63774490356445	0.0	2048.0	2120.0	2596.0	196	193	165	180	1530935113769	both
1970-01-01 00:00:09.353	0.0	0.25	0.0	0.0	3	82	-67	23	-89	98478	529	0.06678682565689087	13.83644962310791	0.0	0.0	8079.0	-63.0	-99624.0	723	-1162.37939453125	11.185317039489746	0.0	2128.0	2120.0	2580.0	193	194	168	175	1530982209167	both
1970-01-01 00:00:09.448	0.0	0.25	0.0	0.0	3	82	-74	22	-86	98466	529	0.07167108356952667	20.647062301635746	0.0	0.0	8456.0	429.0	-99716.0	734	-1327.6416015625	19.557565689086914	0.0	2188.0	1996.0	2568.0	188	190	166	176	1531028304260	both
1970-01-01 00:00:09.478	0.0	0.25	0.0	0.0	3	82	-71	23	-87	98478	529	0.0721152275800705	20.476200103759766	0.0	0.0	8615.0	502.0	-99776.0	737	-1300.5076904296875	17.868024826049805	0.0	2152.0	2004.0	2584.0	187	192	163	177	1531043334350	both
1970-01-01 00:00:11.153	0.0	-0.25	0.0	0.0	3	82	-80	4	-90	98466	529	0.07173588871955873	-24.02306365966797	0.0	0.0	2979.0	681.0	-100096.0	749	-3.865091800689697	-17.714786529541016	0.0	2044.0	2072.0	2572.0	173	177	179	193	1532932009643	both
1970-01-01 00:00:11.218	0.0	-0.25	0.0	0.0	3	82	-81	-3	-91	98475	529	0.07421503216028214	-25.66912078857422	0.0	0.0	1294.0	273.0	-100055.0	745	-7.811169624328612	0.16450783610343933	0.0	2040.0	2044.0	2584.0	184	172	182	183	1532964074554	both
1970-01-01 00:00:11.254	0.0	-0.25	0.0	0.0	3	82	-74	6	-94	98502	529	0.07467442005872726	-26.655902862548828	0.0	0.0	9.0	-101.0	-100168.0	743	1.3357471227645874	5.096376419067383	0.0	2096.0	2008.0	2576.0	178	181	170	192	1532981109649	both
1970-01-01 00:00:11.319	0.0	-0.25	0.0	0.0	3	82	-77	-7	-97	98480	529	0.07525782287120819	-29.398475646972656	0.0	0.0	-2492.0	-243.0	-100217.0	740	40.037357330322266	-5.348387718200684	0.0	2088.0	2000.0	2564.0	182	181	173	185	1533013174865	both
1970-01-01 00:00:11.350	0.0	-0.25	0.0	0.0	3	82	-74	-10	-92	98454	529	0.07615207135677338	-29.91350746154785	0.0	0.0	-3522.0	-240.0	-100219.0	738	60.22729873657226	-4.556525230407715	0.0	2104.0	2028.0	2568.0	185	180	174	184	1533028205169	both
1970-01-01 00:00:11.384	0.0	-0.25	0.0	0.0	3	82	-76	-14	-90	98489	529	0.07742708921432495	-31.192102432250977	0.0	0.0	-4501.0	-264.0	-100183.0	737	100.4908676147461	-4.827661991119385	0.0	2052.0	1964.0	2564.0	184	179	176	185	1533045240112	both
1970-01-01 00:00:11.414	0.0	-0.25	0.0	0.0	3	82	-76	-8	-96	98505	529	0.07717118412256241	-31.25893211364746	0.0	0.0	-5219.0	-208.0	-100176.0	736	126.1716766357422	-4.333762645721436	0.0	2088.0	1992.0	2560.0	182	182	173	186	1533059270172	both
1970-01-01 00:00:11.509	0.0	-0.25	0.0	0.0	3	82	-73	-11	-97	98489	529	0.07933925092220306	-34.301963806152344	0.0	0.0	-6758.0	-100.0	-100151.0	736	251.6470642089844	-2.6024644374847408	0.0	2084.0	1996.0	2556.0	184	177	179	182	1533106365600	both
1970-01-01 00:00:11.540	0.0	-0.25	0.0	0.0	3	82	-80	-14	-96	98475	529	0.0805395096540451	-35.084606170654304	0.0	0.0	-7088.0	-84.0	-100092.0	736	287.0677795410156	2.945927143096924	0.0	2092.0	2056.0	2584.0	185	177	179	182	1533121395751	both
1970-01-01 00:00:11.574	0.0	-0.25	0.0	0.0	3	82	-81	-17	-91	98466	529	0.08121149241924286	-36.15898132324219	0.0	0.0	-7375.0	-146.0	-100097.0	738	337.35565185546875	0.3839657306671143	0.0	2044.0	1964.0	2560.0	181	178	175	186	1533138430572	both
1970-01-01 00:00:11.605	0.0	-0.25	0.0	0.0	3	82	-78	-20	-96	98486	529	0.08171837031841278	-37.16560363769531	0.0	0.0	-7465.0	-95.0	-100111.0	737	387.861572265625	-7.115088939666747	0.0	2072.0	2016.0	2564.0	179	178	176	188	1533153460906	both
1970-01-01 00:00:11.635	0.0	-0.25	0.0	0.0	3	82	-76	-18	-96	98499	529	0.08276903629302979	-38.2084846496582	0.0	0.0	-7526.0	-53.0	-100145.0	736	429.3470153808594	-5.494066715240479	0.0	2076.0	2076.0	2580.0	179	179	175	190	1533167491088	both
1970-01-01 00:00:11.670	0.0	-0.25	0.0	0.0	3	82	-75	-19	-91	98486	529	0.08405235409736632	-39.15818786621094	0.0	0.0	-7495.0	-14.0	-100127.0	736	474.59747314453125	-4.017381668090819	0.0	2032.0	1964.0	2572.0	179	176	179	189	1533185526367	both
1970-01-01 00:00:11.705	0.0	-0.25	0.0	0.0	3	82	-75	-19	-95	98486	529	0.08442433178424835	-39.62480545043945	0.0	0.0	-7414.0	-10.0	-100111.0	736	516.5231323242189	-1.7952001094818115	0.0	2032.0	1964.0	2568.0	180	174	178	190	1533201560882	both
1970-01-01 00:00:11.735	0.0	-0.25	0.0	0.0	3	82	-76	-14	-94	98483	528	0.08438702672719955	-41.19585037231445	0.0	0.0	-7323.0	-53.0	-100126.0	736	555.8090209960939	-8.15274715423584	0.0	2024.0	1948.0	2572.0	176	176	177	193	1533216591217	both
1970-01-01 00:00:11.766	0.0	-0.25	0.0	0.0	3	82	-76	-18	-94	98499	529	0.08353938162326813	-41.519203186035156	0.0	0.0	-7183.0	31.0	-100150.0	738	579.989501953125	-19.67873954772949	0.0	2012.0	1972.0	2580.0	173	176	178	192	1533231621307	both
1970-01-01 00:00:11.795	0.0	-0.25	0.0	0.0	3	82	-77	-19	-93	98490	528	0.08581414073705672	-42.50622177124024	0.0	0.0	-7080.0	125.0	-100102.0	738	617.0723266601562	-13.171499252319336	0.0	2012.0	2032.0	2584.0	177	171	184	186	1533246651458	both
1970-01-01 00:00:11.896	0.0	-0.25	0.0	0.0	3	82	-78	-22	-90	98499	529	0.08884183317422867	-48.15682601928711	0.0	0.0	-6566.0	267.0	-100102.0	736	802.7742309570312	-19.949161529541016	0.0	2052.0	1988.0	2564.0	175	171	186	190	1533295751678	both
1970-01-01 00:00:11.991	0.0	-0.25	0.0	0.0	3	82	-78	-18	-90	98508	528	0.08853660523891449	-50.83824157714844	0.0	0.0	-6237.0	199.0	-100089.0	738	885.092529296875	-57.99193954467773	0.0	2032.0	2040.0	2560.0	170	172	182	196	1533341846984	both
1970-01-01 00:00:12.086	0.0	-0.25	0.0	0.0	3	82	-72	-16	-92	98486	528	0.0887117087841034	-52.04452514648438	0.0	0.0	-6086.0	14.0	-100037.0	732	921.0342407226562	-46.73932647705078	0.0	2024.0	2076.0	2564.0	174	171	184	197	1533387942016	both
1970-01-01 00:00:12.116	0.0	-0.25	0.0	0.0	3	82	-76	-14	-94	98480	529	0.08865980803966522	-52.26700210571289	0.0	0.0	-6103.0	-6.0	-100062.0	730	1001.446533203125	-16.06528091430664	0.0	2040.0	2068.0	2556.0	172	173	184	199	1533402972320	both
1970-01-01 00:00:12.146	0.0	-0.25	0.0	0.0	3	82	-76	-20	-98	98493	528	0.08869031071662903	-52.387489318847656	0.0	0.0	-6085.0	36.0	-100050.0	729	1094.8443603515623	-5.251218318939209	0.0	2020.0	2020.0	2568.0	172	172	186	198	1533953002136	both
1970-01-01 00:00:12.211	0.0	-0.25	0.0	0.0	3	82	-73	-17	-93	98496	528	0.0984896793961525	-56.90737915039063	0.0	0.0	-6100.0	-165.0	-99963.0	727	1166.963623046875	4.627877235412598	0.0	1996.0	2000.0	2592.0	174	170	186	198	1533984067474	both
1970-01-01 00:00:12.241	0.0	-0.25	0.0	0.0	3	82	-72	-20	-92	98490	528	0.1020381599664688	-60.07319641113281	0.0	0.0	-6089.0	-189.0	-99949.0	726	1231.0972900390625	-8.586226463317871	0.0	1968.0	1984.0	2588.0	175	167	190	195	1533999097534	both
1970-01-01 00:00:12.272	0.0	-0.25	0.0	0.0	3	82	-76	-22	-94	98496	528	0.10235009342432022	-60.90832901000977	0.0	0.0	-6083.0	-185.0	-99888.0	725	1230.5980224609375	-17.24492073059082	0.0	1976.0	2012.0	2588.0	178	165	190	195	1534014127777	both
1970-01-01 00:00:12.336	0.0	-0.25	0.0	0.0	3	82	-77	-27	-91	98496	528	0.10291403532028197	-62.1130256652832	0.0	0.0	-6199.0	-240.0	-99844.0	722	1245.128662109375	-56.894287109375	0.0	2016.0	2040.0	2580.0	173	171	187	199	1534046192749	both
1970-01-01 00:00:12.462	0.0	-0.25	0.0	0.0	3	82	-71	-25	-89	98483	528	0.09941679239273073	-64.59856414794922	0.0	0.0	-6551.0	-262.0	-99837.0	721	1269.9425048828125	-68.296142578125	0.0	1960.0	2092.0	2580.0	170	172	185	201	1534107318206	both
1970-01-01 00:00:12.492	0.0	-0.25	0.0	0.0	3	82	-75	-21	-97	98480	528	0.09939447790384293	-64.80158996582031	0.0	0.0	-6676.0	-260.0	-99738.0	722	1262.351318359375	-77.4283447265625	0.0	1968.0	2060.0	2588.0	178	166	190	193	1534122348266	both
1970-01-01 00:00:12.522	0.0	-0.25	0.0	0.0	3	82	-71	-25	-91	98496	528	0.09915318340063096	-64.93941497802734	0.0	0.0	-6762.0	-255.0	-99736.0	723	1264.0491943359375	-88.63956451416016	0.0	2056.0	2024.0	2564.0	175	168	188	195	1534134373748	both
1970-01-01 00:00:13.756	0.0	-0.25	0.0	0.0	3	81	-68	0	-90	98472	528	0.10716499388217926	-69.41220855712889	0.0	0.0	-895.0	235.0	-99853.0	734	251.8040771484375	34.068702697753906	0.0	2056.0	2056.0	2584.0	175	170	187	195	1535275612365	both
1970-01-01 00:00:13.818	0.0	-0.25	0.0	0.0	3	81	-75	-9	-93	98490	528	0.10419181734323503	-69.57460784912111	0.0	0.0	-2582.0	290.0	-99816.0	733	233.5170745849609	25.81283187866211	0.0	2140.0	2028.0	2584.0	177	171	186	191	1535304672302	both
1970-01-01 00:00:13.851	0.0	-0.25	0.0	0.0	3	81	-74	-8	-90	98487	528	0.10355284810066223	-69.63226318359375	0.0	0.0	-3809.0	277.0	-99814.0	731	234.73789978027344	19.241676330566406	0.0	2116.0	2020.0	2568.0	180	173	185	189	1535321707397	both
1970-01-01 00:00:14.042	0.0	-0.25	0.0	0.0	3	81	-72	-22	-94	98460	528	0.09960313886404036	-67.62356567382811	0.0	0.0	-9272.0	422.0	-99670.0	726	358.3459167480469	24.703887939453125	0.0	2052.0	2024.0	2576.0	185	177	186	188	1535414897979	both
1970-01-01 00:00:14.142	0.0	-0.25	0.0	0.0	3	81	-73	-27	-87	98484	528	0.0972803235054016	-67.67824554443361	0.0	0.0	-10128.0	363.0	-99638.0	727	481.01934814453125	19.9637393951416	0.0	2092.0	2056.0	2592.0	182	175	187	190	1535463998229	both
1970-01-01 00:00:14.172	0.0	-0.25	0.0	0.0	3	81	-74	-26	-84	98475	528	0.09756851941347122	-68.07872009277344	0.0	0.0	-10247.0	325.0	-99622.0	730	522.7896118164061	19.238452911376953	0.0	2116.0	2056.0	2604.0	179	174	186	191	1536013028259	both
1970-01-01 00:00:14.202	0.0	-0.25	0.0	0.0	3	81	-67	-23	-85	98457	528	0.09671958535909653	-67.49723052978516	0.0	0.0	-10297.0	340.0	-99609.0	731	554.7351684570311	24.340219497680664	0.0	2104.0	2044.0	2596.0	179	174	186	191	1536028058563	both
1970-01-01 00:00:14.238	0.0	-0.25	0.0	0.0	3	81	-71	-23	-93	98454	528	0.09659435600042343	-67.30923461914061	0.0	0.0	-10304.0	261.0	-99592.0	732	593.111083984375	28.51274108886719	0.0	2128.0	2060.0	2584.0	179	171	187	191	1536045093688	both
1970-01-01 00:00:14.308	0.0	-0.25	0.0	0.0	3	81	-72	-28	-90	98478	528	0.09490003436803818	-67.43394470214844	0.0	0.0	-10216.0	239.0	-99552.0	736	668.7001342773438	21.731088638305664	0.0	1916.0	2024.0	2592.0	179	169	189	190	1536080163940	both
1970-01-01 00:00:14.341	0.0	-0.25	0.0	0.0	3	81	-70	-26	-88	98478	528	0.09408582746982573	-67.16735076904297	0.0	0.0	-10126.0	234.0	-99553.0	737	692.95849609375	24.635234832763672	0.0	1944.0	2032.0	2588.0	176	170	187	192	1536094193817	both
1970-01-01 00:00:14.373	0.0	-0.25	0.0	0.0	3	81	-70	-24	-92	98460	528	0.09354335814714433	-67.23574066162111	0.0	0.0	-10095.0	184.0	-99502.0	738	740.8468627929688	26.01821136474609	0.0	1984.0	2020.0	2600.0	180	168	189	189	1536112229614	both
1970-01-01 00:00:14.403	0.0	-0.25	0.0	0.0	3	81	-70	-28	-88	98469	528	0.09229924529790877	-66.82157135009766	0.0	0.0	-10093.0	140.0	-99468.0	739	771.52001953125	30.11579513549805	0.0	2000.0	2028.0	2600.0	179	169	187	191	1536126259124	both
1970-01-01 00:00:14.438	0.0	-0.25	0.0	0.0	3	81	-71	-31	-87	98472	528	0.09173715114593506	-67.75691986083984	0.0	0.0	-10062.0	19.0	-99442.0	742	807.626953125	18.85210609436035	0.0	2044.0	2020.0	2576.0	177	168	186	192	1536143294311	both
1970-01-01 00:00:14.563	0.0	-0.25	0.0	0.0	3	81	-67	-29	-85	98481	528	0.09395818412303923	-69.44762420654297	0.0	0.0	-9803.0	-261.0	-99519.0	744	1027.81640625	23.501338958740234	0.0	2056.0	2104.0	2560.0	175	170	184	196	1536204419647	both
1970-01-01 00:00:14.628	0.0	-0.25	0.0	0.0	3	81	-66	-28	-92	98490	528	0.0947376787662506	-69.21615600585939	0.0	0.0	-9665.0	-288.0	-99505.0	745	1063.418701171875	40.69363403320313	0.0	1972.0	2088.0	2576.0	178	166	187	194	1536236484588	both
1970-01-01 00:00:14.729	0.0	-0.25	0.0	0.0	3	81	-70	-22	-84	98511	528	0.09497144818305968	-69.55361938476561	0.0	0.0	-9461.0	-339.0	-99648.0	753	1095.950439453125	59.5177001953125	0.0	2032.0	2076.0	2572.0	172	168	184	195	1536285584960	both
1970-01-01 00:00:14.759	0.0	-0.25	0.0	0.0	3	81	-71	-29	-91	98493	528	0.09482679516077043	-69.59446716308594	0.0	0.0	-9394.0	-343.0	-99674.0	755	1116.7181396484377	53.35356903076172	0.0	2004.0	2108.0	2564.0	171	167	185	194	1536300615447	both
1970-01-01 00:00:14.824	0.0	-0.25	0.0	0.0	3	81	-72	-26	-88	98499	528	0.09450139850378036	-69.72150421142578	0.0	0.0	-9194.0	-301.0	-99818.0	758	1169.7457275390625	50.06130599975586	0.0	1972.0	2096.0	2572.0	166	171	182	200	1536332680114	both
1970-01-01 00:00:14.854	0.0	-0.25	0.0	0.0	3	81	-66	-24	-90	98475	528	0.09449780732393263	-69.75849151611328	0.0	0.0	-9210.0	-200.0	-99789.0	758	1208.619140625	26.927703857421875	0.0	1984.0	2064.0	2580.0	171	168	186	194	1536346710327	both
1970-01-01 00:00:14.885	0.0	-0.25	0.0	0.0	3	81	-63	-31	-89	98490	528	0.09456918388605118	-69.64739227294922	0.0	0.0	-9240.0	-86.0	-99805.0	761	1275.265869140625	0.37955209612846375	0.0	2000.0	2024.0	2580.0	170	169	184	194	1536361740600	both
1970-01-01 00:00:16.228	0.0	0.25	0.0	0.0	3	81	-80	-2	-88	98466	528	0.0834965705871582	-68.77595520019531	0.0	0.0	118.0	143.0	-99910.0	734	107.21062469482422	-3.9632413387298575	0.0	2004.0	2048.0	2580.0	176	175	184	193	1538089084503	both
1970-01-01 00:00:16.258	0.0	0.25	0.0	0.0	3	81	-71	5	-91	98475	528	0.08260028809309006	-67.34846496582031	0.0	0.0	100.0	182.0	-99846.0	735	88.44222259521484	3.613511562347412	0.0	2020.0	2100.0	2580.0	186	173	184	181	1538103114471	both
1970-01-01 00:00:16.324	0.0	0.25	0.0	0.0	3	81	-66	2	-86	98478	528	0.08170446753501892	-66.04775238037111	0.0	0.0	540.0	147.0	-99759.0	731	59.88650894165039	8.477494239807129	0.0	1996.0	2096.0	2596.0	185	176	181	184	1538135179840	both
1970-01-01 00:00:16.389	0.0	0.25	0.0	0.0	3	81	-75	7	-89	98493	528	0.08016766607761383	-65.12018585205078	0.0	0.0	1862.0	109.0	-99747.0	730	26.674257278442386	5.422059059143066	0.0	2040.0	2056.0	2596.0	183	175	180	186	1538167244812	both
1970-01-01 00:00:16.424	0.0	0.25	0.0	0.0	3	81	-72	8	-88	98490	528	0.08025316894054413	-63.83745574951172	0.0	0.0	2704.0	164.0	-99623.0	730	8.89648723602295	6.87434196472168	0.0	2132.0	1980.0	2604.0	185	172	184	183	1538184280090	both
1970-01-01 00:00:16.459	0.0	0.25	0.0	0.0	3	81	-69	15	-85	98490	528	0.07919595390558243	-62.63214111328125	0.0	0.0	3538.0	173.0	-99565.0	730	-19.292015075683594	12.758543968200685	0.0	2100.0	1996.0	2568.0	183	173	182	185	1538201315368	both
1970-01-01 00:00:16.489	0.0	0.25	0.0	0.0	3	81	-68	6	-82	98469	528	0.07796257734298706	-62.87428283691406	0.0	0.0	4175.0	181.0	-99551.0	731	-47.975929260253906	4.189329147338866	0.0	2136.0	1988.0	2572.0	181	174	179	186	1538216345336	both
1970-01-01 00:00:16.519	0.0	0.25	0.0	0.0	3	81	-73	7	-87	98463	528	0.07726233452558517	-62.65226745605469	0.0	0.0	4798.0	211.0	-99564.0	732	-71.15644073486328	-2.7736830711364746	0.0	2144.0	2008.0	2580.0	178	176	178	188	1538231375183	both
1970-01-01 00:00:16.549	0.0	0.25	0.0	0.0	3	81	-69	17	-89	98478	528	0.07632312178611755	-61.00336456298828	0.0	0.0	5297.0	243.0	-99537.0	732	-111.95220947265624	2.2586679458618164	0.0	2096.0	2040.0	2584.0	184	174	181	182	1538245405303	both
1970-01-01 00:00:16.579	0.0	0.25	0.0	0.0	3	81	-68	16	-84	98505	528	0.07652905583381653	-60.769691467285156	0.0	0.0	5688.0	239.0	-99481.0	733	-139.33673095703122	6.545339584350586	0.0	2016.0	2064.0	2580.0	186	171	182	180	1538260435272	both
1970-01-01 00:00:16.645	0.0	0.25	0.0	0.0	3	81	-80	18	-88	98493	528	0.0731005147099495	-58.19239807128906	0.0	0.0	6396.0	323.0	-99486.0	735	-241.6656951904297	5.159881114959717	0.0	2096.0	2044.0	2580.0	181	176	179	183	1538292500823	both
1970-01-01 00:00:16.715	0.0	0.25	0.0	0.0	3	81	-69	21	-87	98490	528	0.07309471070766449	-57.27400207519531	0.0	0.0	6668.0	271.0	-99446.0	736	-319.8659362792969	11.572830200195312	0.0	2092.0	2044.0	2548.0	185	176	179	180	1538326571044	both
1970-01-01 00:00:16.840	0.0	0.25	0.0	0.0	3	80	-69	21	-89	98490	528	0.06737916171550751	-51.04059600830078	0.0	0.0	6674.0	218.0	-99337.0	737	-528.3467407226561	17.671459197998047	0.0	2152.0	2088.0	2560.0	191	178	177	175	1538387696136	both
1970-01-01 00:00:16.906	0.0	0.25	0.0	0.0	3	80	-72	18	-86	98466	528	0.06727565079927443	-50.20350646972656	0.0	0.0	6400.0	136.0	-99361.0	735	-591.2763061523438	17.099973678588867	0.0	2104.0	2104.0	2556.0	193	180	175	176	1538419761352	both
1970-01-01 00:00:16.966	0.0	0.25	0.0	0.0	3	80	-71	19	-85	98499	528	0.0646829679608345	-43.62812423706055	0.0	0.0	6252.0	133.0	-99377.0	733	-687.6638793945312	37.38240051269531	0.0	2120.0	2116.0	2588.0	192	183	174	177	1538449821624	both
1970-01-01 00:00:16.996	0.0	0.25	0.0	0.0	3	80	-71	23	-81	98469	528	0.0646606981754303	-42.09190368652344	0.0	0.0	6113.0	58.0	-99268.0	733	-734.6982421875	52.08672332763672	0.0	2072.0	2100.0	2596.0	196	180	175	174	1538463851654	both
1970-01-01 00:00:17.026	0.0	0.25	0.0	0.0	3	80	-71	19	-85	98493	528	0.06530532985925674	-42.10477066040039	0.0	0.0	6057.0	54.0	-99280.0	732	-769.2427978515625	52.44536209106445	0.0	2020.0	2072.0	2596.0	191	186	171	178	1538478881774	both
1970-01-01 00:00:17.061	0.0	0.25	0.0	0.0	3	80	-65	21	-85	98502	528	0.06533588469028473	-39.36765670776367	0.0	0.0	6001.0	-14.0	-99257.0	730	-796.4677734375	62.65956115722656	0.0	2076.0	2092.0	2592.0	193	184	172	178	1538495916809	both
1970-01-01 00:00:17.091	0.0	0.25	0.0	0.0	3	80	-74	18	-82	98478	528	0.06577927619218826	-38.88837432861328	0.0	0.0	5983.0	-14.0	-99274.0	730	-815.677490234375	56.5593147277832	0.0	2024.0	2116.0	2596.0	191	187	171	178	1538510947021	both
1970-01-01 00:00:17.156	0.0	0.25	0.0	0.0	3	80	-71	19	-83	98481	528	0.06680208444595337	-37.43693923950195	0.0	0.0	5893.0	64.0	-99284.0	731	-838.9156494140625	50.99291229248047	0.0	2064.0	2060.0	2584.0	196	183	175	171	1539077012084	both
1970-01-01 00:00:17.187	0.0	0.25	0.0	0.0	3	80	-66	24	-82	98508	528	0.06717034429311752	-37.148109436035156	0.0	0.0	5823.0	160.0	-99258.0	729	-852.3587646484375	54.26333236694336	0.0	2048.0	2080.0	2572.0	196	185	174	171	1539092042175	both
1970-01-01 00:00:17.221	0.0	0.25	0.0	0.0	3	80	-69	19	-83	98484	528	0.06800694763660431	-36.77052688598633	0.0	0.0	5789.0	262.0	-99262.0	730	-880.8269653320312	55.68503189086914	0.0	2068.0	1984.0	2596.0	194	186	174	171	1539109077239	both
1970-01-01 00:00:17.352	0.0	0.25	0.0	0.0	3	80	-67	19	-79	98478	528	0.06139754131436347	-21.416574478149414	0.0	0.0	5809.0	268.0	-99328.0	730	-1129.542724609375	19.553293228149414	0.0	2180.0	2036.0	2556.0	193	188	170	176	1539161183013	both
1970-01-01 00:00:17.382	0.0	0.25	0.0	0.0	3	80	-69	21	-87	98478	528	0.06090489029884338	-22.76494407653809	0.0	0.0	5891.0	236.0	-99363.0	731	-1123.5797119140623	9.664027214050293	0.0	2012.0	2056.0	2568.0	195	186	171	173	1539188237823	both
1970-01-01 00:00:17.413	0.0	0.25	0.0	0.0	3	80	-70	20	-84	98517	528	0.060714621096849435	-22.96552085876465	0.0	0.0	6014.0	223.0	-99364.0	731	-1131.6824951171875	0.7820754051208496	0.0	2052.0	2040.0	2552.0	195	184	173	172	1539202268096	both
1970-01-01 00:00:17.447	0.0	0.25	0.0	0.0	3	80	-69	19	-81	98502	528	0.06113222613930702	-23.972309112548828	0.0	0.0	6170.0	196.0	-99366.0	731	-1130.6295166015625	-7.297454833984375	0.0	2064.0	2064.0	2552.0	192	186	172	175	1539219303100	both
1970-01-01 00:00:17.477	0.0	0.25	0.0	0.0	3	80	-69	19	-83	98478	528	0.058374520391225815	-22.76016998291016	0.0	0.0	6381.0	221.0	-99406.0	731	-1152.5872802734375	-39.467247009277344	0.0	2096.0	2044.0	2552.0	191	187	170	177	1539234333007	both
1970-01-01 00:00:17.538	0.0	0.25	0.0	0.0	3	80	-73	21	-81	98508	528	0.05802953988313675	-24.0941104888916	0.0	0.0	6549.0	189.0	-99421.0	734	-1106.584716796875	-40.373779296875	0.0	2120.0	1996.0	2592.0	194	186	171	172	1539264393554	both
1970-01-01 00:00:17.603	0.0	0.25	0.0	0.0	3	80	-62	20	-86	98490	528	0.05829743668437004	-24.213685989379886	0.0	0.0	6692.0	155.0	-99421.0	736	-1139.2230224609375	20.515384674072266	0.0	2152.0	2040.0	2584.0	194	185	170	173	1539295458618	both
1970-01-01 00:00:17.664	0.0	0.25	0.0	0.0	3	80	-72	24	-78	98454	528	0.05830208584666253	-24.865821838378906	0.0	0.0	6768.0	142.0	-99432.0	737	-1178.1973876953125	34.375839233398445	0.0	2044.0	2004.0	2572.0	195	186	170	172	1539325518585	both
1970-01-01 00:00:17.698	0.0	0.25	0.0	0.0	3	80	-68	24	-88	98457	528	0.05860918015241622	-25.290267944335934	0.0	0.0	6816.0	50.0	-99467.0	738	-1191.0621337890625	33.85898208618164	0.0	2084.0	2096.0	2576.0	192	188	167	175	1539342553955	both
1970-01-01 00:00:18.768	0.0	0.25	0.0	0.0	3	80	-69	-1	-91	98481	528	0.06549635529518127	7.134699821472168	0.0	0.0	-1740.0	-1167.0	-99241.0	782	-441.98333740234375	35.33924102783203	0.0	2064.0	1976.0	2592.0	187	182	160	176	1540399621887	both
1970-01-01 00:00:18.801	0.0	0.25	0.0	0.0	3	80	-65	-5	-89	98466	527	0.06552284955978394	7.5156593322753915	0.0	0.0	-1062.0	-1155.0	-99312.0	783	-436.29766845703125	27.56936836242676	0.0	2104.0	2016.0	2584.0	190	183	158	173	1540416656982	both
1970-01-01 00:00:18.862	0.0	0.25	0.0	0.0	3	80	-63	-1	-91	98466	527	0.0640430822968483	1.9499567747116089	0.0	0.0	695.0	-876.0	-99305.0	782	-356.1615295410156	20.84305000305176	0.0	2056.0	1916.0	2560.0	191	179	168	168	1540446717651	both
1970-01-01 00:00:18.897	0.0	0.25	0.0	0.0	3	80	-69	1	-83	98493	528	0.06468376517295837	2.2424333095550537	0.0	0.0	1991.0	-754.0	-99358.0	781	-354.486328125	18.388383865356445	0.0	2012.0	1988.0	2568.0	188	181	166	174	1540463752410	both
1970-01-01 00:00:18.927	0.0	0.25	0.0	0.0	3	80	-69	13	-87	98476	527	0.06397029012441635	1.986851930618286	0.0	0.0	3189.0	-739.0	-99345.0	780	-350.0240783691406	15.200165748596193	0.0	2052.0	1964.0	2556.0	190	177	169	172	1540478782379	both
1970-01-01 00:00:18.992	0.0	0.25	0.0	0.0	3	80	-73	17	-89	98493	527	0.06443379074335097	1.4234081506729126	0.0	0.0	5748.0	-594.0	-99433.0	777	-380.1940002441406	1.6139397621154783	0.0	2016.0	2044.0	2560.0	188	178	170	179	1540509847503	both
1970-01-01 00:00:19.027	0.0	0.25	0.0	0.0	3	80	-67	13	-87	98490	528	0.06484723836183548	3.487562417984009	0.0	0.0	6983.0	-585.0	-99467.0	777	-431.01177978515625	0.23657628893852234	0.0	2012.0	2028.0	2556.0	188	178	172	178	1540526882568	both
1970-01-01 00:00:19.057	0.0	0.25	0.0	0.0	3	80	-68	18	-92	98466	527	0.06424020975828171	0.7781088948249817	0.0	0.0	7845.0	-580.0	-99473.0	776	-452.697021484375	0.9670141935348512	0.0	2008.0	2048.0	2564.0	190	177	173	178	1540541912841	both
1970-01-01 00:00:19.087	0.0	0.25	0.0	0.0	3	80	-65	21	-85	98508	527	0.06481123715639114	0.2366339862346649	0.0	0.0	8642.0	-602.0	-99463.0	775	-474.1883544921875	1.241203546524048	0.0	2008.0	2076.0	2568.0	190	176	176	178	1540556942749	both
1970-01-01 00:00:19.153	0.0	0.25	0.0	0.0	3	80	-70	28	-86	98490	527	0.06607157737016678	-0.3773469626903534	0.0	0.0	9908.0	-604.0	-99507.0	775	-558.778076171875	8.590598106384277	0.0	2012.0	2036.0	2572.0	188	180	172	181	1541123007904	both
1970-01-01 00:00:19.187	0.0	0.25	0.0	0.0	3	80	-65	25	-91	98466	527	0.06600023061037064	-0.9491143822669984	0.0	0.0	10314.0	-590.0	-99492.0	775	-597.274658203125	3.899364471435547	0.0	2072.0	2032.0	2564.0	190	179	173	179	1541141043090	both
1970-01-01 00:00:19.218	0.0	0.25	0.0	0.0	3	80	-69	25	-85	98487	527	0.06633191555738449	-1.2848879098892212	0.0	0.0	10510.0	-504.0	-99458.0	773	-628.25146484375	-0.8964645862579346	0.0	2044.0	2028.0	2584.0	192	180	174	178	1541155073242	both
1970-01-01 00:00:19.313	0.0	0.25	0.0	0.0	3	80	-69	27	-91	98478	527	0.06863722950220108	-0.05085112154483795	0.0	0.0	10187.0	-550.0	-99564.0	768	-762.8938598632812	7.409516334533691	0.0	2056.0	2064.0	2592.0	198	185	169	175	1541202168426	both
1970-01-01 00:00:19.343	0.0	0.25	0.0	0.0	3	80	-70	22	-86	98490	527	0.06960316002368927	-0.2309931069612503	0.0	0.0	9827.0	-599.0	-99513.0	769	-814.4159545898438	10.506583213806152	0.0	2068.0	2032.0	2576.0	207	178	173	165	1541217198791	both
1970-01-01 00:00:19.373	0.0	0.25	0.0	0.0	3	80	-67	27	-83	98454	527	0.07186444103717804	-0.38691604137420654	0.0	0.0	9403.0	-643.0	-99399.0	768	-851.3623046875	18.97393798828125	0.0	2116.0	1984.0	2580.0	206	181	170	166	1541231228881	both
1970-01-01 00:00:19.438	0.0	0.25	0.0	0.0	3	80	-63	29	-85	98454	527	0.0735502615571022	3.1180758476257324	0.0	0.0	8748.0	-1074.0	-99312.0	764	-954.8412475585938	22.72283935546875	0.0	2104.0	2104.0	2576.0	208	180	165	172	1541263293853	both
1970-01-01 00:00:19.474	0.0	0.25	0.0	0.0	3	80	-67	31	-87	98496	527	0.07357461005449295	3.1756775379180913	0.0	0.0	8727.0	-1118.0	-99317.0	763	-960.9869384765624	21.581830978393555	0.0	2080.0	2072.0	2572.0	206	182	165	173	1541265298797	both
1970-01-01 00:00:19.569	0.0	0.25	0.0	0.0	3	80	-67	23	-85	98476	527	0.07051981985569	1.1519690752029421	0.0	0.0	9115.0	-1738.0	-99264.0	757	-1031.812744140625	-39.98532485961914	0.0	2144.0	2116.0	2588.0	199	181	168	180	1541327424224	both
1970-01-01 00:00:19.631	0.0	0.25	0.0	0.0	3	80	-65	31	-83	98476	527	0.06844547390937805	1.956372857093811	0.0	0.0	9768.0	-1312.0	-99202.0	756	-1029.4129638671877	-49.15216445922852	0.0	2028.0	2084.0	2592.0	194	184	172	178	1541356484375	both
1970-01-01 00:00:19.666	0.0	0.25	0.0	0.0	3	80	-70	38	-84	98457	527	0.06890717893838882	1.4886854887008667	0.0	0.0	10152.0	-956.0	-99276.0	758	-1074.557373046875	-84.29413604736328	0.0	2136.0	2056.0	2604.0	191	184	170	179	1541373519561	both
1970-01-01 00:00:19.699	0.0	0.25	0.0	0.0	3	80	-70	26	-84	98490	527	0.06885729730129242	0.9693262577056884	0.0	0.0	10467.0	-677.0	-99297.0	760	-1109.148193359375	-98.37517547607422	0.0	2176.0	2020.0	2600.0	190	184	170	178	1541390554718	both
1970-01-01 00:00:19.729	0.0	0.25	0.0	0.0	3	80	-78	34	-80	98487	527	0.06937900185585022	0.7935859560966492	0.0	0.0	10703.0	-346.0	-99327.0	760	-1112.382568359375	-90.07181549072266	0.0	2152.0	2016.0	2588.0	188	185	172	178	1541405584655	both
1970-01-01 00:00:19.764	0.0	0.25	0.0	0.0	3	80	-74	32	-86	98484	527	0.07038737833499907	0.6065082550048828	0.0	0.0	10946.0	30.0	-99220.0	763	-1130.988525390625	-75.62208557128906	0.0	2112.0	2072.0	2576.0	196	176	179	169	1541422619903	both
1970-01-01 00:00:19.829	0.0	0.25	0.0	0.0	3	80	-68	38	-82	98481	527	0.07654578983783722	-12.321589469909668	0.0	0.0	10871.0	247.0	-99238.0	770	-1149.7745361328125	-9.16460132598877	0.0	2108.0	2052.0	2576.0	193	180	170	171	1541454684997	both
1970-01-01 00:00:19.860	0.0	0.25	0.0	0.0	3	80	-65	29	-81	98502	527	0.07625071704387665	-13.129083633422852	0.0	0.0	10750.0	275.0	-99217.0	774	-1154.3450927734375	-2.543242931365967	0.0	2060.0	2028.0	2584.0	195	177	172	166	1541469715179	both
1970-01-01 00:00:19.889	0.0	0.25	0.0	0.0	3	80	-68	32	-84	98473	527	0.07600601017475128	-15.150962829589846	0.0	0.0	10646.0	377.0	-99153.0	775	-1149.9259033203125	-8.301641464233397	0.0	2008.0	2008.0	2572.0	196	179	171	166	1541483745178	both
1970-01-01 00:00:21.078	0.0	-0.25	0.0	0.0	3	79	-84	0	-100	98481	527	0.10461828857660294	-30.47531700134277	0.0	0.0	-368.0	-31.0	-99569.0	767	-150.2279052734375	106.996337890625	0.0	2084.0	2028.0	2552.0	178	178	173	180	1542599933532	both
1970-01-01 00:00:21.173	0.0	-0.25	0.0	0.0	3	79	-70	-8	-98	98478	527	0.10618528723716736	-33.769115447998054	0.0	0.0	-2803.0	180.0	-99688.0	760	-75.84840393066406	96.15787506103516	0.0	2124.0	2028.0	2548.0	180	182	174	180	1543182028839	both
1970-01-01 00:00:21.203	0.0	-0.25	0.0	0.0	3	79	-72	-4	-94	98487	527	0.1067940592765808	-34.11541748046875	0.0	0.0	-3470.0	285.0	-99727.0	757	-8.259739875793457	100.80353546142578	0.0	2156.0	2068.0	2572.0	181	183	175	180	1543196058959	both
1970-01-01 00:00:21.234	0.0	-0.25	0.0	0.0	3	79	-76	-6	-98	98478	527	0.1088111326098442	-35.22817611694336	0.0	0.0	-4109.0	345.0	-99771.0	755	10.861734390258787	103.83268737792969	0.0	2132.0	2100.0	2580.0	180	185	173	181	1543211089141	both
1970-01-01 00:00:21.264	0.0	-0.25	0.0	0.0	3	79	-75	-9	-101	98476	527	0.1100141629576683	-35.92555618286133	0.0	0.0	-4603.0	400.0	-99808.0	753	34.813968658447266	109.72762298583984	0.0	2080.0	2096.0	2592.0	181	183	176	181	1543226119293	both
1970-01-01 00:00:21.294	0.0	-0.25	0.0	0.0	3	79	-74	-12	-96	98473	527	0.11096733063459396	-36.28955078125	0.0	0.0	-5013.0	386.0	-99803.0	752	57.18305969238281	115.91075134277344	0.0	2028.0	2076.0	2588.0	185	178	178	179	1543240149291	both
1970-01-01 00:00:21.329	0.0	-0.25	0.0	0.0	3	79	-74	-12	-98	98484	527	0.11148709058761597	-38.09987258911133	0.0	0.0	-5376.0	326.0	-99894.0	750	109.49907684326172	106.63115692138672	0.0	2100.0	2068.0	2580.0	179	183	173	186	1543258184417	both
1970-01-01 00:00:21.359	0.0	-0.25	0.0	0.0	3	79	-78	-14	-96	98505	527	0.1119239628314972	-37.8575439453125	0.0	0.0	-5610.0	280.0	-99940.0	749	129.82168579101562	109.2707748413086	0.0	2068.0	2076.0	2588.0	181	180	176	184	1543272214477	both
1970-01-01 00:00:21.420	0.0	-0.25	0.0	0.0	3	79	-70	-14	-100	98473	527	0.11447309702634813	-39.90913391113281	0.0	0.0	-6107.0	144.0	-100012.0	749	222.42481994628903	112.96763610839844	0.0	2016.0	2072.0	2564.0	180	179	175	184	1543302274902	both
1970-01-01 00:00:21.455	0.0	-0.25	0.0	0.0	3	79	-75	-17	-103	98478	527	0.11646153032779695	-40.667213439941406	0.0	0.0	-6300.0	26.0	-99941.0	748	271.68914794921875	118.74295043945312	0.0	2072.0	2064.0	2564.0	181	178	175	185	1543319309783	both
1970-01-01 00:00:21.490	0.0	-0.25	0.0	0.0	3	79	-78	-14	-96	98478	527	0.11709454655647278	-41.744056701660156	0.0	0.0	-6436.0	-142.0	-99970.0	747	318.5162658691406	111.78477478027344	0.0	2096.0	2020.0	2572.0	179	178	174	188	1543336344879	both
1970-01-01 00:00:21.521	0.0	-0.25	0.0	0.0	3	79	-68	-14	-100	98478	527	0.11798109114170074	-42.2696533203125	0.0	0.0	-6506.0	-279.0	-99974.0	747	359.766357421875	108.74030303955078	0.0	2092.0	2044.0	2556.0	180	177	174	188	1543351374938	both
1970-01-01 00:00:21.566	0.0	-0.25	0.0	0.0	3	79	-72	-18	-96	98481	527	0.12025399506092073	-43.63206100463867	0.0	0.0	-6536.0	-419.0	-99973.0	746	397.3416748046875	109.36869049072266	0.0	2060.0	2016.0	2584.0	182	175	176	187	1543360395233	both
1970-01-01 00:00:21.660	0.0	-0.25	0.0	0.0	3	79	-75	-21	-101	98467	527	0.12542520463466644	-48.43584442138672	0.0	0.0	-6501.0	-920.0	-99975.0	743	605.0507202148438	100.26297760009766	0.0	2060.0	2092.0	2552.0	179	175	175	192	1543419515472	both
1970-01-01 00:00:21.690	0.0	-0.25	0.0	0.0	3	79	-70	-16	-102	98490	527	0.12691405415534973	-49.90784072875977	0.0	0.0	-6466.0	-932.0	-99989.0	743	664.597900390625	86.23240661621094	0.0	2056.0	2096.0	2576.0	179	173	179	190	1543434545684	both
1970-01-01 00:00:21.720	0.0	-0.25	0.0	0.0	3	79	-72	-20	-100	98493	527	0.12879613041877747	-51.025367736816406	0.0	0.0	-6412.0	-892.0	-99977.0	742	720.5055541992188	75.83525848388672	0.0	2056.0	2080.0	2592.0	181	171	182	187	1543449575622	both
1970-01-01 00:00:21.821	0.0	-0.25	0.0	0.0	3	79	-67	-13	-97	98478	527	0.13293565809726715	-53.85011672973633	0.0	0.0	-6156.0	-558.0	-100027.0	741	847.1085815429688	61.31959533691406	0.0	1972.0	2052.0	2564.0	174	174	180	192	1543498676239	both
1970-01-01 00:00:21.852	0.0	-0.25	0.0	0.0	3	79	-74	-14	-98	98490	527	0.13310110569000244	-54.12840270996094	0.0	0.0	-6078.0	-487.0	-100004.0	740	868.193603515625	51.23771667480469	0.0	1988.0	2060.0	2564.0	175	171	183	191	1543512706024	both
1970-01-01 00:00:21.946	0.0	-0.25	0.0	0.0	3	79	-74	-14	-98	98502	527	0.13931740820407867	-57.17721939086914	0.0	0.0	-5666.0	-15.0	-99979.0	735	989.0897827148438	39.28756713867188	0.0	2008.0	2028.0	2568.0	174	173	186	192	1543559801330	both
1970-01-01 00:00:21.976	0.0	-0.25	0.0	0.0	3	79	-75	-19	-95	98484	527	0.13998252153396604	-57.64967346191406	0.0	0.0	-5620.0	63.0	-99982.0	734	1007.1692504882812	39.41923522949219	0.0	2068.0	2024.0	2560.0	174	172	186	192	1543573831298	both
1970-01-01 00:00:22.041	0.0	-0.25	0.0	0.0	3	79	-72	-20	-100	98493	527	0.14201997220516205	-58.4532356262207	0.0	0.0	-5606.0	170.0	-99952.0	729	1039.565185546875	44.76042175292969	0.0	2076.0	2016.0	2568.0	173	173	186	196	1543605896453	both
1970-01-01 00:00:22.071	0.0	-0.25	0.0	0.0	3	79	-74	-16	-98	98499	527	0.14351119101047516	-59.3734130859375	0.0	0.0	-5564.0	207.0	-99946.0	726	1066.193115234375	42.91435241699219	0.0	2076.0	2032.0	2564.0	173	173	189	195	1543620926696	both
1970-01-01 00:00:22.135	0.0	-0.25	0.0	0.0	3	79	-79	-13	-87	98496	527	0.1438041776418686	-59.28408432006836	0.0	0.0	-5536.0	267.0	-99858.0	722	1072.1650390625	47.97614288330078	0.0	1956.0	2048.0	2580.0	182	166	195	189	1543649987121	both
1970-01-01 00:00:22.167	0.0	-0.25	0.0	0.0	3	79	-72	-16	-94	98508	527	0.14542002975940704	-60.08547592163086	0.0	0.0	-5533.0	228.0	-99829.0	719	1101.071533203125	50.976951599121094	0.0	2040.0	2056.0	2564.0	177	170	192	194	1544202021911	both
1970-01-01 00:00:22.197	0.0	-0.25	0.0	0.0	3	79	-76	-14	-90	98478	527	0.14902491867542267	-61.450599670410156	0.0	0.0	-5510.0	221.0	-99815.0	717	1154.57373046875	49.54443740844727	0.0	1980.0	2064.0	2576.0	177	169	193	195	1544217052276	both
1970-01-01 00:00:22.228	0.0	-0.25	0.0	0.0	3	79	-74	-18	-94	98484	527	0.14884473383426666	-61.31858444213867	0.0	0.0	-5493.0	197.0	-99801.0	714	1216.200439453125	49.30806350708008	0.0	1960.0	2064.0	2584.0	175	170	192	197	1544232082061	both
1970-01-01 00:00:22.327	0.0	-0.25	0.0	0.0	3	79	-74	-14	-96	98493	527	0.15620195865631106	-62.59208679199219	0.0	0.0	-5492.0	140.0	-99780.0	712	1320.1546630859375	59.42349624633789	0.0	1956.0	2040.0	2596.0	174	170	191	197	1544281182708	both
1970-01-01 00:00:22.393	0.0	-0.25	0.0	0.0	3	79	-73	-15	-95	98470	527	0.155717670917511	-63.90351104736328	0.0	0.0	-5622.0	71.0	-99763.0	711	1304.864501953125	34.82511138916016	0.0	1952.0	2052.0	2580.0	175	169	190	197	1544313247985	both
1970-01-01 00:00:22.457	0.0	-0.25	0.0	0.0	3	79	-71	-17	-91	98464	527	0.15581732988357544	-64.37825775146484	0.0	0.0	-5875.0	100.0	-99780.0	712	1474.89208984375	24.06035041809082	0.0	1948.0	2028.0	2592.0	172	171	188	197	1544344312744	both
1970-01-01 00:00:23.773	0.0	-0.25	0.0	0.0	3	78	-69	11	-93	98487	527	0.17274509370326996	-73.26213073730469	0.0	0.0	434.0	605.0	-99690.0	742	103.61053466796876	-16.16667366027832	0.0	2088.0	2024.0	2572.0	176	166	193	189	1545521626464	both
1970-01-01 00:00:23.873	0.0	-0.25	0.0	0.0	3	77	-66	-2	-90	98496	526	0.1692451536655426	-72.57838439941406	0.0	0.0	-2008.0	460.0	-99687.0	739	82.2104721069336	-7.244511604309082	0.0	2044.0	2076.0	2572.0	180	173	185	187	1545570726989	both
1970-01-01 00:00:23.907	0.0	-0.25	0.0	0.0	3	77	-66	-2	-84	98499	526	0.1682008057832718	-72.21244049072266	0.0	0.0	-3500.0	407.0	-99673.0	740	87.205810546875	-1.2991580963134766	0.0	2076.0	2080.0	2580.0	180	176	180	186	1545588762084	both
1970-01-01 00:00:23.938	0.0	-0.25	0.0	0.0	3	77	-64	-8	-92	98470	526	0.16717226803302765	-72.57128143310547	0.0	0.0	-4793.0	376.0	-99647.0	740	92.01683044433594	-3.1671657562255864	0.0	2056.0	2080.0	2576.0	180	177	181	184	1545602792083	both
