time	leftRight	frontBack	up	angular	State	Battery_level	Magnetometer_x	Magnetometer_y	Magnetometer_z	Pressure	Temperature	Wind_speed	Wind_angle	Wind_compensation:pitch	Wind_compensation:roll	Pitch_y	Roll_x	Yaw_z	Altitude	Velocity_x	Velocity_y	Velocity_z	Acceleration_x	Acceleration_y	Acceleration_z	Motor_1_power	Motor_2_power	Motor_3_power	Motor_4_power	time_board
1970-01-01 00:00:00.000	0.0	-0.25	0.0	0.0	7.0	83.0	-76.0	6.0	-90.0	98469.0	531.0	0.00537707656621933	-47.9677963256836	0.0	0.0	-1.0	-14.0	-99321.0	721.0	-25.68644905090332	14.866025924682615	0.0	2004.0	2096.0	2556.0	178.0	177.0	176.0	183.0	1521058856811.0
1970-01-01 00:00:00.050	0.0	-0.25	0.0	0.0	7.0	83.0	-76.0	1.0	-97.0	98482.0	530.5	0.00574225140735507	-46.014963150024414	0.0	0.0	-40.5	-243.0	-99400.0	723.0	-19.16439437866211	19.24372148513794	0.0	1992.0	2064.0	2552.0	177.5	167.5	186.0	183.5	1521097936874.0
1970-01-01 00:00:00.100	0.0	-0.25	0.0	0.0	7.0	83.0	-76.0	1.0	-97.0	98482.0	530.5	0.00574225140735507	-46.014963150024414	0.0	0.0	-40.5	-243.0	-99400.0	723.0	-19.16439437866211	19.24372148513794	0.0	1992.0	2064.0	2552.0	177.5	167.5	186.0	183.5	1521097936874.0
1970-01-01 00:00:00.150	0.0	-0.25	0.0	0.0	7.0	83.0	-71.0	-1.0	-89.0	98478.0	531.0	0.006394505500793457	-44.26980209350586	0.0	0.0	-2278.0	-905.0	-99446.0	726.0	-4.626230239868164	20.935237884521484	0.0	2032.0	2044.0	2564.0	179.0	172.0	180.0	184.0	1521686046813.0
1970-01-01 00:00:00.200	0.0	-0.25	0.0	0.0	7.0	83.0	-77.0	-3.0	-95.0	98486.0	531.0	0.006463313475251198	-45.45178604125977	0.0	0.0	-3169.0	-970.0	-99406.0	726.0	9.697206497192383	15.24989128112793	0.0	2100.0	2044.0	2556.0	181.0	173.0	181.0	181.0	1521701076873.0
1970-01-01 00:00:00.250	0.0	-0.25	0.0	0.0	7.0	83.0	-79.0	-3.0	-91.0	98469.0	531.0	0.006759619805961847	-41.82766723632813	0.0	0.0	-4850.0	-972.0	-99384.0	727.0	31.540361404418945	8.557819366455076	0.0	2060.0	2028.0	2560.0	182.0	174.0	180.0	182.0	1521733142181.0
1970-01-01 00:00:00.300	0.0	-0.25	0.0	0.0	7.0	83.0	-75.0	-11.0	-95.0	98495.0	531.0	0.006950801704078914	-41.62017059326172	0.0	0.0	-5472.0	-977.0	-99395.0	728.0	51.22620391845703	7.361525058746338	0.0	2120.0	2052.0	2548.0	181.0	176.0	179.0	183.0	1521748172485.0
1970-01-01 00:00:00.350	0.0	-0.25	0.0	0.0	7.0	83.0	-82.0	-18.0	-92.0	98478.0	531.0	0.0072533716447651395	-41.00912094116211	0.0	0.0	-6589.0	-942.0	-99422.0	729.0	99.80426788330078	1.30102801322937	0.0	2096.0	2044.0	2552.0	180.0	176.0	180.0	184.0	1521779237426.0
1970-01-01 00:00:00.400	0.0	-0.25	0.0	0.0	7.0	83.0	-72.0	-16.0	-92.0	98472.0	531.0	0.007717486936599015	-37.59817123413086	0.0	0.0	-7178.0	-932.0	-99411.0	730.0	150.1459503173828	0.5578958988189697	0.0	2056.0	2036.0	2556.0	180.0	173.0	183.0	182.0	1521811302642.0
1970-01-01 00:00:00.450	0.0	-0.25	0.0	0.0	7.0	83.0	-72.0	-24.0	-92.0	98498.0	531.0	0.007932827807962894	-38.04644012451172	0.0	0.0	-7353.0	-900.0	-99456.0	730.0	178.51443481445312	-0.8334827423095703	0.0	2096.0	2060.0	2552.0	179.0	177.0	180.0	187.0	1521826332794.0
1970-01-01 00:00:00.500	0.0	-0.25	0.0	0.0	7.0	83.0	-78.0	-16.0	-88.0	98475.0	530.0	0.008143494836986065	-39.99837493896485	0.0	0.0	-7511.0	-880.0	-99530.0	731.0	265.98617553710943	-11.315088272094727	0.0	2072.0	2056.0	2552.0	177.0	175.0	182.0	186.0	1521858397735.0
1970-01-01 00:00:00.550	0.0	-0.25	0.0	0.0	7.0	83.0	-78.0	-16.0	-88.0	98475.0	530.0	0.008143494836986065	-39.99837493896485	0.0	0.0	-7511.0	-880.0	-99530.0	731.0	265.98617553710943	-11.315088272094727	0.0	2072.0	2056.0	2552.0	177.0	175.0	182.0	186.0	1521858397735.0
1970-01-01 00:00:00.600	0.0	-0.25	0.0	0.0	7.0	83.0	-77.0	-15.0	-91.0	98489.0	531.0	0.00921019446104765	-40.40832901000977	0.0	0.0	-7354.0	-859.0	-99532.0	735.0	361.6659851074219	-9.907031059265137	0.0	2076.0	2036.0	2552.0	175.0	171.0	182.0	187.0	1521904493469.0
1970-01-01 00:00:00.650	0.0	-0.25	0.0	0.0	7.0	83.0	-77.0	-15.0	-91.0	98489.0	531.0	0.00921019446104765	-40.40832901000977	0.0	0.0	-7354.0	-859.0	-99532.0	735.0	361.6659851074219	-9.907031059265137	0.0	2076.0	2036.0	2552.0	175.0	171.0	182.0	187.0	1521904493469.0
1970-01-01 00:00:00.700	0.0	-0.25	0.0	0.0	7.0	83.0	-74.5	-17.5	-91.5	98482.0	530.0	0.009551514405757189	-42.62867546081544	0.0	0.0	-7145.0	-947.5	-99570.5	733.0	434.29136657714844	-15.797748565673828	0.0	2050.0	2028.0	2566.0	176.5	172.0	184.5	190.0	1521937058379.5
1970-01-01 00:00:00.750	0.0	-0.25	0.0	0.0	7.0	83.0	-75.0	-17.0	-91.0	98489.0	530.0	0.009953700937330723	-45.934295654296875	0.0	0.0	-6909.5	-1077.0	-99599.0	731.0	514.8507537841797	-29.001926422119144	0.0	1968.0	1986.0	2582.0	177.5	172.0	186.0	192.0	1521973633834.0
1970-01-01 00:00:00.800	0.0	-0.25	0.0	0.0	7.0	83.0	-75.0	-17.0	-91.0	98489.0	530.0	0.009953700937330723	-45.934295654296875	0.0	0.0	-6909.5	-1077.0	-99599.0	731.0	514.8507537841797	-29.001926422119144	0.0	1968.0	1986.0	2582.0	177.5	172.0	186.0	192.0	1521973633834.0
1970-01-01 00:00:00.850	0.0	-0.25	0.0	0.0	7.0	83.0	-72.0	-14.0	-88.0	98495.0	530.0	0.011077139526605606	-50.81881713867188	0.0	0.0	-6693.0	-1378.0	-99640.0	734.0	637.1296997070312	-40.87453842163086	0.0	2016.0	2036.0	2560.0	176.0	171.0	183.0	192.0	1522027743957.0
1970-01-01 00:00:00.900	0.0	-0.25	0.0	0.0	7.0	83.0	-72.0	-14.0	-88.0	98495.0	530.0	0.011077139526605606	-50.81881713867188	0.0	0.0	-6693.0	-1378.0	-99640.0	734.0	637.1296997070312	-40.87453842163086	0.0	2016.0	2036.0	2560.0	176.0	171.0	183.0	192.0	1522027743957.0
1970-01-01 00:00:00.950	0.0	-0.25	0.0	0.0	7.0	83.0	-75.5	-25.5	-91.5	98482.0	531.0	0.011742840521037579	-55.063350677490234	0.0	0.0	-6578.5	-1568.5	-99609.0	735.0	725.0991821289062	-56.79672813415527	0.0	2062.0	2082.0	2558.0	175.0	169.5	182.0	192.5	1522066824096.0
1970-01-01 00:00:01.000	0.0	-0.25	0.0	0.0	7.0	83.0	-74.0	-26.0	-94.0	98469.0	530.0	0.011999438516795635	-59.59085464477539	0.0	0.0	-6484.0	-1612.0	-99634.0	737.0	775.0518798828125	-72.92655181884766	0.0	2056.0	2068.0	2564.0	173.0	167.0	185.0	189.0	1522088869262.0
1970-01-01 00:00:01.050	0.0	-0.25	0.0	0.0	7.0	83.0	-70.0	-16.0	-94.0	98513.0	530.0	0.012670249678194523	-58.1410026550293	0.0	0.0	-6334.0	-1622.0	-99606.0	733.0	813.7254638671875	-70.6908950805664	0.0	2048.0	1988.0	2576.0	176.0	169.0	186.0	195.0	1522117929687.0
1970-01-01 00:00:01.100	0.0	-0.25	0.0	0.0	7.0	83.0	-69.0	-19.0	-88.0	98470.5	530.0	0.0124064264819026	-60.30720329284668	0.0	0.0	-6197.5	-1652.5	-99550.5	734.0	835.4635925292969	-81.18545532226562	0.0	2058.0	2012.0	2576.0	179.5	164.5	189.5	189.5	1522141477355.5
1970-01-01 00:00:01.150	0.0	-0.25	0.0	0.0	7.0	83.0	-69.0	-19.0	-88.0	98470.5	530.0	0.0124064264819026	-60.30720329284668	0.0	0.0	-6197.5	-1652.5	-99550.5	734.0	835.4635925292969	-81.18545532226562	0.0	2058.0	2012.0	2576.0	179.5	164.5	189.5	189.5	1522141477355.5
1970-01-01 00:00:01.200	0.0	-0.25	0.0	0.0	7.0	83.0	-77.0	-21.0	-87.0	98478.0	530.0	0.013514970429241656	-73.1937484741211	0.0	0.0	-5987.0	-1763.0	-99448.0	734.0	951.5516967773438	-128.384521484375	0.0	2032.0	2040.0	2580.0	177.0	167.0	188.0	192.0	1522734095397.0
1970-01-01 00:00:01.250	0.0	-0.25	0.0	0.0	7.0	83.0	-66.0	-16.0	-94.0	98480.0	530.0	0.01413710694760084	-75.5105972290039	0.0	0.0	-5942.0	-1689.0	-99453.0	734.0	988.5369262695312	-145.83279418945312	0.0	2036.0	2056.0	2588.0	176.0	166.0	189.0	191.0	1522751130004.0
1970-01-01 00:00:01.300	0.0	-0.25	0.0	0.0	7.0	83.0	-67.5	-22.5	-93.5	98456.5	530.0	0.013425152748823166	-80.22909927368164	0.0	0.0	-5828.0	-1552.5	-99453.0	736.5	997.6032409667969	-174.42759704589844	0.0	2072.0	2042.0	2580.0	172.0	166.0	186.0	191.5	1522773175506.0
1970-01-01 00:00:01.350	0.0	-0.25	0.0	0.0	7.0	83.0	-67.5	-22.5	-93.5	98456.5	530.0	0.013425152748823166	-80.22909927368164	0.0	0.0	-5828.0	-1552.5	-99453.0	736.5	997.6032409667969	-174.42759704589844	0.0	2072.0	2042.0	2580.0	172.0	166.0	186.0	191.5	1522773175506.0
1970-01-01 00:00:01.400	0.0	-0.25	0.0	0.0	3.0	83.0	-70.0	-18.0	-92.0	98478.0	530.0	0.015119954943656918	-87.88569641113281	0.0	0.0	-5195.0	-1193.0	-99428.0	739.0	1074.9844970703123	-199.40267944335938	0.0	1996.0	2028.0	2588.0	167.0	160.0	189.0	191.0	1522827285583.0
1970-01-01 00:00:01.450	0.0	-0.25	0.0	0.0	3.0	83.0	-71.0	-21.0	-95.0	98475.0	530.0	0.014110053889453413	-91.80178833007812	0.0	0.0	-5304.0	-1135.0	-99426.0	738.0	1049.975341796875	-211.4183807373047	0.0	2008.0	2020.0	2564.0	172.0	164.0	186.0	189.0	1522859350891.0
1970-01-01 00:00:01.500	0.0	-0.25	0.0	0.0	3.0	83.0	-71.0	-21.0	-95.0	98475.0	530.0	0.014110053889453413	-91.80178833007812	0.0	0.0	-5304.0	-1135.0	-99426.0	738.0	1049.975341796875	-211.4183807373047	0.0	2008.0	2020.0	2564.0	172.0	164.0	186.0	189.0	1522859350891.0
1970-01-01 00:00:01.550	0.0	-0.25	0.0	0.0	3.0	83.0	-70.0	-28.0	-92.0	98489.0	530.0	0.014127110131084919	-94.71283721923828	0.0	0.0	-5974.0	-980.0	-99497.0	738.0	1058.412841796875	-222.16429138183597	0.0	2072.0	2052.0	2552.0	170.0	167.0	185.0	190.0	1522905445922.0
1970-01-01 00:00:01.600	0.0	-0.25	0.0	0.0	3.0	83.0	-71.0	-23.0	-93.0	98486.0	530.0	0.01562511920928955	-91.2119369506836	0.0	0.0	-6190.0	-907.0	-99547.0	739.0	1079.48876953125	-219.1042938232422	0.0	2120.0	2060.0	2548.0	168.0	171.0	182.0	192.0	1522920475982.0
1970-01-01 00:00:01.650	0.0	-0.25	0.0	0.0	3.0	83.0	-75.0	-23.0	-89.0	98453.0	530.0	0.014830074273049831	-89.90486145019531	0.0	0.0	-6588.0	-813.0	-99589.0	735.0	1101.4073486328123	-198.5414581298828	0.0	2052.0	2052.0	2548.0	172.0	169.0	186.0	192.0	1522952541351.0
1970-01-01 00:00:01.700	0.0	-0.25	0.0	0.0	3.0	83.0	-70.0	-26.0	-87.0	98469.5	530.0	0.014851579908281565	-89.19811248779297	0.0	0.0	-6698.5	-737.0	-99658.0	733.5	1121.6356201171875	-194.85655212402344	0.0	2008.0	2028.0	2562.0	169.0	171.5	184.5	194.5	1522974086379.5
1970-01-01 00:00:01.750	0.0	-0.25	0.0	0.0	3.0	83.0	-70.0	-26.0	-87.0	98469.5	530.0	0.014851579908281565	-89.19811248779297	0.0	0.0	-6698.5	-737.0	-99658.0	733.5	1121.6356201171875	-194.85655212402344	0.0	2008.0	2028.0	2562.0	169.0	171.5	184.5	194.5	1522974086379.5
1970-01-01 00:00:01.800	0.0	-0.25	0.0	0.0	3.0	83.0	-70.0	-26.0	-87.0	98469.5	530.0	0.014851579908281565	-89.19811248779297	0.0	0.0	-6698.5	-737.0	-99658.0	733.5	1121.6356201171875	-194.85655212402344	0.0	2008.0	2028.0	2562.0	169.0	171.5	184.5	194.5	1522974086379.5
1970-01-01 00:00:01.850	0.0	-0.25	0.0	0.0	3.0	83.0	-70.0	-26.0	-87.0	98469.5	530.0	0.014851579908281565	-89.19811248779297	0.0	0.0	-6698.5	-737.0	-99658.0	733.5	1121.6356201171875	-194.85655212402344	0.0	2008.0	2028.0	2562.0	169.0	171.5	184.5	194.5	1522974086379.5
1970-01-01 00:00:01.900	0.0	-0.25	0.0	0.0	3.0	83.0	-70.0	-26.0	-87.0	98469.5	530.0	0.014851579908281565	-89.19811248779297	0.0	0.0	-6698.5	-737.0	-99658.0	733.5	1121.6356201171875	-194.85655212402344	0.0	2008.0	2028.0	2562.0	169.0	171.5	184.5	194.5	1522974086379.5
1970-01-01 00:00:01.950	0.0	-0.25	0.0	0.0	3.0	83.0	-70.0	-26.0	-87.0	98469.5	530.0	0.014851579908281565	-89.19811248779297	0.0	0.0	-6698.5	-737.0	-99658.0	733.5	1121.6356201171875	-194.85655212402344	0.0	2008.0	2028.0	2562.0	169.0	171.5	184.5	194.5	1522974086379.5
1970-01-01 00:00:02.000	0.0	-0.25	0.0	0.0	3.0	83.0	-70.0	-26.0	-87.0	98469.5	530.0	0.014851579908281565	-89.19811248779297	0.0	0.0	-6698.5	-737.0	-99658.0	733.5	1121.6356201171875	-194.85655212402344	0.0	2008.0	2028.0	2562.0	169.0	171.5	184.5	194.5	1522974086379.5
1970-01-01 00:00:02.050	0.0	-0.25	0.0	0.0	3.0	83.0	-70.0	-26.0	-87.0	98469.5	530.0	0.014851579908281565	-89.19811248779297	0.0	0.0	-6698.5	-737.0	-99658.0	733.5	1121.6356201171875	-194.85655212402344	0.0	2008.0	2028.0	2562.0	169.0	171.5	184.5	194.5	1522974086379.5
1970-01-01 00:00:02.100	0.0	-0.25	0.0	0.0	3.0	83.0	-70.0	-26.0	-87.0	98469.5	530.0	0.014851579908281565	-89.19811248779297	0.0	0.0	-6698.5	-737.0	-99658.0	733.5	1121.6356201171875	-194.85655212402344	0.0	2008.0	2028.0	2562.0	169.0	171.5	184.5	194.5	1522974086379.5
1970-01-01 00:00:02.150	0.0	-0.25	0.0	0.0	3.0	83.0	-70.0	-26.0	-87.0	98469.5	530.0	0.014851579908281565	-89.19811248779297	0.0	0.0	-6698.5	-737.0	-99658.0	733.5	1121.6356201171875	-194.85655212402344	0.0	2008.0	2028.0	2562.0	169.0	171.5	184.5	194.5	1522974086379.5
1970-01-01 00:00:02.200	0.0	-0.25	0.0	0.0	3.0	83.0	-70.0	-26.0	-87.0	98469.5	530.0	0.014851579908281565	-89.19811248779297	0.0	0.0	-6698.5	-737.0	-99658.0	733.5	1121.6356201171875	-194.85655212402344	0.0	2008.0	2028.0	2562.0	169.0	171.5	184.5	194.5	1522974086379.5
1970-01-01 00:00:02.250	0.0	-0.25	0.0	0.0	3.0	83.0	-70.0	-26.0	-87.0	98469.5	530.0	0.014851579908281565	-89.19811248779297	0.0	0.0	-6698.5	-737.0	-99658.0	733.5	1121.6356201171875	-194.85655212402344	0.0	2008.0	2028.0	2562.0	169.0	171.5	184.5	194.5	1522974086379.5
1970-01-01 00:00:02.300	0.0	-0.25	0.0	0.0	3.0	83.0	-70.0	-26.0	-87.0	98469.5	530.0	0.014851579908281565	-89.19811248779297	0.0	0.0	-6698.5	-737.0	-99658.0	733.5	1121.6356201171875	-194.85655212402344	0.0	2008.0	2028.0	2562.0	169.0	171.5	184.5	194.5	1522974086379.5
1970-01-01 00:00:02.350	0.0	-0.25	0.0	0.0	3.0	83.0	-70.0	-26.0	-87.0	98469.5	530.0	0.014851579908281565	-89.19811248779297	0.0	0.0	-6698.5	-737.0	-99658.0	733.5	1121.6356201171875	-194.85655212402344	0.0	2008.0	2028.0	2562.0	169.0	171.5	184.5	194.5	1522974086379.5
1970-01-01 00:00:02.400	0.0	-0.25	0.0	0.0	3.0	83.0	-70.0	-26.0	-87.0	98469.5	530.0	0.014851579908281565	-89.19811248779297	0.0	0.0	-6698.5	-737.0	-99658.0	733.5	1121.6356201171875	-194.85655212402344	0.0	2008.0	2028.0	2562.0	169.0	171.5	184.5	194.5	1522974086379.5
1970-01-01 00:00:02.450	0.0	-0.25	0.0	0.0	3.0	83.0	-70.0	-26.0	-87.0	98469.5	530.0	0.014851579908281565	-89.19811248779297	0.0	0.0	-6698.5	-737.0	-99658.0	733.5	1121.6356201171875	-194.85655212402344	0.0	2008.0	2028.0	2562.0	169.0	171.5	184.5	194.5	1522974086379.5
1970-01-01 00:00:02.500	0.0	-0.25	0.0	0.0	3.0	83.0	-70.0	-26.0	-87.0	98469.5	530.0	0.014851579908281565	-89.19811248779297	0.0	0.0	-6698.5	-737.0	-99658.0	733.5	1121.6356201171875	-194.85655212402344	0.0	2008.0	2028.0	2562.0	169.0	171.5	184.5	194.5	1522974086379.5
1970-01-01 00:00:02.550	0.0	-0.25	0.0	0.0	3.0	83.0	-70.0	-26.0	-87.0	98469.5	530.0	0.014851579908281565	-89.19811248779297	0.0	0.0	-6698.5	-737.0	-99658.0	733.5	1121.6356201171875	-194.85655212402344	0.0	2008.0	2028.0	2562.0	169.0	171.5	184.5	194.5	1522974086379.5
1970-01-01 00:00:02.600	0.0	-0.25	0.0	0.0	3.0	83.0	-70.0	-26.0	-87.0	98469.5	530.0	0.014851579908281565	-89.19811248779297	0.0	0.0	-6698.5	-737.0	-99658.0	733.5	1121.6356201171875	-194.85655212402344	0.0	2008.0	2028.0	2562.0	169.0	171.5	184.5	194.5	1522974086379.5
1970-01-01 00:00:02.650	0.0	-0.25	0.0	0.0	3.0	83.0	-70.0	-26.0	-87.0	98469.5	530.0	0.014851579908281565	-89.19811248779297	0.0	0.0	-6698.5	-737.0	-99658.0	733.5	1121.6356201171875	-194.85655212402344	0.0	2008.0	2028.0	2562.0	169.0	171.5	184.5	194.5	1522974086379.5
1970-01-01 00:00:02.700	0.0	-0.25	0.0	0.0	3.0	83.0	-70.0	-26.0	-87.0	98469.5	530.0	0.014851579908281565	-89.19811248779297	0.0	0.0	-6698.5	-737.0	-99658.0	733.5	1121.6356201171875	-194.85655212402344	0.0	2008.0	2028.0	2562.0	169.0	171.5	184.5	194.5	1522974086379.5
1970-01-01 00:00:02.750	0.0	-0.25	0.0	0.0	3.0	83.0	-69.0	-1.0	-83.0	98478.0	530.0	0.030431909486651417	-63.90058898925781	0.0	0.0	2416.0	191.0	-99553.0	694.0	172.81764221191406	-0.5979787707328796	0.0	2016.0	1976.0	2592.0	183.0	173.0	194.0	191.0	1524019629455.0
1970-01-01 00:00:02.800	0.0	-0.25	0.0	0.0	3.0	83.0	-72.0	3.0	-91.0	98486.0	530.0	0.030545738525688648	-62.65147018432617	0.0	0.0	993.0	61.0	-99484.0	688.0	132.1334686279297	3.2259095907211304	0.0	2016.0	2048.0	2594.0	181.5	174.5	191.0	196.0	1524041674895.5
1970-01-01 00:00:02.850	0.0	-0.25	0.0	0.0	3.0	83.0	-74.0	-10.0	-88.0	98475.0	530.0	0.029896875843405724	-60.46359634399414	0.0	0.0	-2326.0	-118.0	-99407.0	679.0	90.65848541259766	-10.549267768859863	0.0	2056.0	2056.0	2584.0	191.0	174.0	195.0	185.0	1524080754943.0
1970-01-01 00:00:02.900	0.0	-0.25	0.0	0.0	3.0	83.0	-70.0	-16.0	-90.0	98475.0	530.0	0.030585825443267826	-59.33441543579102	0.0	0.0	-3680.0	-138.0	-99341.0	676.0	95.72652435302734	-9.880041122436523	0.0	2040.0	2108.0	2592.0	192.0	177.0	193.0	185.0	1524095785339.0
1970-01-01 00:00:02.950	0.0	-0.25	0.0	0.0	3.0	83.0	-72.5	-16.5	-89.5	98485.0	530.0	0.03076282050460577	-59.73349571228027	0.0	0.0	-5623.0	-188.0	-99297.0	674.5	130.24905395507812	-17.479362010955814	0.0	2044.0	2092.0	2588.0	191.5	177.5	190.5	186.0	1524119332702.5
1970-01-01 00:00:03.000	0.0	-0.25	0.0	0.0	3.0	83.0	-73.0	-17.0	-91.0	98489.0	530.0	0.03056405298411846	-57.49657440185547	0.0	0.0	-7295.0	-174.0	-99382.0	671.0	152.38540649414062	-23.2395076751709	0.0	2040.0	2100.0	2596.0	185.0	187.0	183.0	193.0	1524141880310.0
1970-01-01 00:00:03.050	0.0	-0.25	0.0	0.0	3.0	83.0	-73.0	-17.0	-91.0	98489.0	530.0	0.03056405298411846	-57.49657440185547	0.0	0.0	-7295.0	-174.0	-99382.0	671.0	152.38540649414062	-23.2395076751709	0.0	2040.0	2100.0	2596.0	185.0	187.0	183.0	193.0	1524141880310.0
1970-01-01 00:00:03.100	0.0	-0.25	0.0	0.0	3.0	83.0	-73.0	-17.0	-91.0	98489.0	530.0	0.03056405298411846	-57.49657440185547	0.0	0.0	-7295.0	-174.0	-99382.0	671.0	152.38540649414062	-23.2395076751709	0.0	2040.0	2100.0	2596.0	185.0	187.0	183.0	193.0	1524141880310.0
1970-01-01 00:00:03.150	0.0	-0.25	0.0	0.0	3.0	83.0	-70.0	-22.0	-82.0	98489.0	530.0	0.033010829240083694	-57.4771842956543	0.0	0.0	-10427.0	-100.0	-99341.0	677.0	372.9978942871094	-25.47702980041504	0.0	2124.0	2040.0	2580.0	185.0	180.0	187.0	190.0	1524755040740.0
1970-01-01 00:00:03.200	0.0	-0.25	0.0	0.0	3.0	83.0	-70.0	-22.0	-82.0	98489.0	530.0	0.033010829240083694	-57.4771842956543	0.0	0.0	-10427.0	-100.0	-99341.0	677.0	372.9978942871094	-25.47702980041504	0.0	2124.0	2040.0	2580.0	185.0	180.0	187.0	190.0	1524755040740.0
1970-01-01 00:00:03.250	0.0	-0.25	0.0	0.0	3.0	83.0	-70.5	-26.5	-87.5	98486.5	530.0	0.03504534251987934	-58.51667022705078	0.0	0.0	-10696.5	-41.0	-99373.0	678.5	499.8309631347656	-17.33251953125	0.0	2040.0	2002.0	2582.0	184.0	179.5	188.0	191.5	1524795623596.0
1970-01-01 00:00:03.300	0.0	-0.25	0.0	0.0	3.0	83.0	-71.0	-31.0	-85.0	98480.0	530.0	0.03481674939393997	-58.51649856567383	0.0	0.0	-10454.0	-174.0	-99387.0	683.0	602.8831176757812	-16.921104431152347	0.0	1988.0	2052.0	2600.0	182.0	175.0	190.0	193.0	1524836206207.0
1970-01-01 00:00:03.350	0.0	-0.25	0.0	0.0	3.0	83.0	-77.0	-29.0	-87.0	98501.0	530.0	0.03527090698480606	-58.89051818847656	0.0	0.0	-10274.0	-187.0	-99398.0	687.0	632.234130859375	-14.89914321899414	0.0	2008.0	2024.0	2592.0	181.0	174.0	189.0	192.0	1524851236328.0
1970-01-01 00:00:03.400	0.0	-0.25	0.0	0.0	3.0	83.0	-68.0	-30.0	-86.0	98501.0	530.0	0.035923004150390625	-59.783103942871094	0.0	0.0	-9948.0	-268.0	-99370.0	692.0	714.4966430664062	-17.99380874633789	0.0	2012.0	2060.0	2588.0	180.0	171.0	190.0	192.0	1524883301727.0
1970-01-01 00:00:03.450	0.0	-0.25	0.0	0.0	3.0	83.0	-71.0	-31.0	-87.0	98475.0	530.0	0.03633049502968788	-59.90095901489258	0.0	0.0	-9788.0	-352.0	-99381.0	695.0	757.5747680664062	-17.234125137329098	0.0	1960.0	2056.0	2568.0	179.0	170.0	189.0	193.0	1524900336517.0
1970-01-01 00:00:03.500	0.0	-0.25	0.0	0.0	3.0	83.0	-71.0	-29.0	-87.0	98484.5	530.0	0.035753434523940086	-59.3189697265625	0.0	0.0	-9468.0	-352.5	-99422.0	700.0	788.5298767089844	-19.01222038269043	0.0	2024.0	2070.0	2576.0	174.5	171.0	188.5	195.0	1524922381728.5
1970-01-01 00:00:03.550	0.0	-0.25	0.0	0.0	3.0	83.0	-69.0	-31.0	-83.0	98460.0	530.0	0.035663750022649765	-58.50697708129883	0.0	0.0	-9266.0	-317.0	-99421.0	703.0	819.98828125	-17.635190963745114	0.0	2100.0	2080.0	2564.0	177.0	170.0	189.0	193.0	1524944426971.0
1970-01-01 00:00:03.600	0.0	-0.25	0.0	0.0	3.0	83.0	-69.0	-31.0	-83.0	98460.0	530.0	0.035663750022649765	-58.50697708129883	0.0	0.0	-9266.0	-317.0	-99421.0	703.0	819.98828125	-17.635190963745114	0.0	2100.0	2080.0	2564.0	177.0	170.0	189.0	193.0	1524944426971.0
1970-01-01 00:00:03.650	0.0	-0.25	0.0	0.0	3.0	83.0	-75.0	-29.0	-93.0	98478.0	530.0	0.03694724291563034	-59.85598754882813	0.0	0.0	-8682.0	-280.0	-99330.0	711.0	932.0220947265624	-16.01668930053711	0.0	2044.0	2064.0	2560.0	175.0	166.0	192.0	193.0	1524993527221.0
1970-01-01 00:00:03.700	0.0	-0.25	0.0	0.0	3.0	83.0	-76.0	-32.0	-90.0	98501.0	530.0	0.038288354873657234	-65.013916015625	0.0	0.0	-8407.0	-67.0	-99295.0	716.0	1022.2071533203124	-41.66558837890625	0.0	2080.0	2092.0	2572.0	174.0	166.0	196.0	190.0	1525025592437.0
1970-01-01 00:00:03.750	0.0	-0.25	0.0	0.0	3.0	83.0	-70.0	-32.0	-88.0	98486.0	530.0	0.03861238062381744	-64.98909759521484	0.0	0.0	-8398.0	73.0	-99276.0	718.0	1074.272216796875	-44.123634338378906	0.0	2024.0	2076.0	2560.0	175.0	166.0	194.0	190.0	1525042627655.0
1970-01-01 00:00:03.800	0.0	-0.25	0.0	0.0	3.0	83.0	-70.0	-32.0	-88.0	98486.0	530.0	0.03861238062381744	-64.98909759521484	0.0	0.0	-8398.0	73.0	-99276.0	718.0	1074.272216796875	-44.123634338378906	0.0	2024.0	2076.0	2560.0	175.0	166.0	194.0	190.0	1525042627655.0
1970-01-01 00:00:03.850	0.0	-0.25	0.0	0.0	3.0	83.0	-77.0	-29.0	-85.0	98492.0	530.0	0.03972737491130829	-66.10505676269531	0.0	0.0	-8850.0	413.0	-99417.0	726.0	1169.0189208984375	-40.728477478027344	0.0	2016.0	2040.0	2584.0	173.0	171.0	189.0	192.0	1525091727661.0
1970-01-01 00:00:03.900	0.0	-0.25	0.0	0.0	3.0	83.0	-75.5	-29.5	-87.5	98483.5	530.0	0.04055259935557842	-65.2921142578125	0.0	0.0	-9037.0	308.5	-99453.0	729.0	1192.1093139648438	-25.783713340759277	0.0	2056.0	2082.0	2574.0	172.5	171.5	186.5	193.5	1525113772933.0
1970-01-01 00:00:03.950	0.0	-0.25	0.0	0.0	3.0	83.0	-78.0	-30.0	-88.0	98475.0	530.0	0.0407399982213974	-63.63283920288086	0.0	0.0	-9201.0	168.0	-99510.0	733.0	1216.09716796875	-16.864110946655273	0.0	2012.0	2028.0	2572.0	172.0	171.0	187.0	194.0	1525135818023.0
1970-01-01 00:00:04.000	0.0	-0.25	0.0	0.0	3.0	83.0	-78.0	-30.0	-88.0	98475.0	530.0	0.0407399982213974	-63.63283920288086	0.0	0.0	-9201.0	168.0	-99510.0	733.0	1216.09716796875	-16.864110946655273	0.0	2012.0	2028.0	2572.0	172.0	171.0	187.0	194.0	1525135818023.0
1970-01-01 00:00:04.050	0.0	-0.25	0.0	0.0	3.0	83.0	-74.0	-34.0	-88.0	98478.0	530.0	0.04129582270979881	-63.2744026184082	0.0	0.0	-9378.0	-303.0	-99687.0	743.0	1253.148681640625	-13.018437385559082	0.0	2056.0	2080.0	2556.0	166.0	175.0	176.0	201.0	1525184918243.0
1970-01-01 00:00:04.100	0.0	-0.25	0.0	0.0	3.0	83.0	-74.0	-34.0	-88.0	98478.0	530.0	0.04129582270979881	-63.2744026184082	0.0	0.0	-9378.0	-303.0	-99687.0	743.0	1253.148681640625	-13.018437385559082	0.0	2056.0	2080.0	2556.0	166.0	175.0	176.0	201.0	1525184918243.0
1970-01-01 00:00:04.150	0.0	-0.25	0.0	0.0	3.0	83.0	-74.0	-34.0	-88.0	98478.0	530.0	0.04129582270979881	-63.2744026184082	0.0	0.0	-9378.0	-303.0	-99687.0	743.0	1253.148681640625	-13.018437385559082	0.0	2056.0	2080.0	2556.0	166.0	175.0	176.0	201.0	1525184918243.0
1970-01-01 00:00:04.200	0.0	-0.25	0.0	0.0	3.0	83.0	-74.0	-34.0	-88.0	98478.0	530.0	0.04129582270979881	-63.2744026184082	0.0	0.0	-9378.0	-303.0	-99687.0	743.0	1253.148681640625	-13.018437385559082	0.0	2056.0	2080.0	2556.0	166.0	175.0	176.0	201.0	1525184918243.0
1970-01-01 00:00:04.250	0.0	-0.25	0.0	0.0	3.0	83.0	-74.0	-34.0	-88.0	98478.0	530.0	0.04129582270979881	-63.2744026184082	0.0	0.0	-9378.0	-303.0	-99687.0	743.0	1253.148681640625	-13.018437385559082	0.0	2056.0	2080.0	2556.0	166.0	175.0	176.0	201.0	1525184918243.0
1970-01-01 00:00:04.300	0.0	-0.25	0.0	0.0	3.0	83.0	-74.0	-34.0	-88.0	98478.0	530.0	0.04129582270979881	-63.2744026184082	0.0	0.0	-9378.0	-303.0	-99687.0	743.0	1253.148681640625	-13.018437385559082	0.0	2056.0	2080.0	2556.0	166.0	175.0	176.0	201.0	1525184918243.0
1970-01-01 00:00:04.350	0.0	-0.25	0.0	0.0	3.0	83.0	-74.0	-34.0	-88.0	98478.0	530.0	0.04129582270979881	-63.2744026184082	0.0	0.0	-9378.0	-303.0	-99687.0	743.0	1253.148681640625	-13.018437385559082	0.0	2056.0	2080.0	2556.0	166.0	175.0	176.0	201.0	1525184918243.0
1970-01-01 00:00:04.400	0.0	-0.25	0.0	0.0	3.0	83.0	-74.0	-34.0	-88.0	98478.0	530.0	0.04129582270979881	-63.2744026184082	0.0	0.0	-9378.0	-303.0	-99687.0	743.0	1253.148681640625	-13.018437385559082	0.0	2056.0	2080.0	2556.0	166.0	175.0	176.0	201.0	1525184918243.0
1970-01-01 00:00:04.450	0.0	-0.25	0.0	0.0	3.0	83.0	-74.0	-34.0	-88.0	98478.0	530.0	0.04129582270979881	-63.2744026184082	0.0	0.0	-9378.0	-303.0	-99687.0	743.0	1253.148681640625	-13.018437385559082	0.0	2056.0	2080.0	2556.0	166.0	175.0	176.0	201.0	1525184918243.0
1970-01-01 00:00:04.500	0.0	-0.25	0.0	0.0	3.0	83.0	-74.0	-34.0	-88.0	98478.0	530.0	0.04129582270979881	-63.2744026184082	0.0	0.0	-9378.0	-303.0	-99687.0	743.0	1253.148681640625	-13.018437385559082	0.0	2056.0	2080.0	2556.0	166.0	175.0	176.0	201.0	1525184918243.0
1970-01-01 00:00:04.550	0.0	-0.25	0.0	0.0	3.0	83.0	-74.0	-34.0	-88.0	98478.0	530.0	0.04129582270979881	-63.2744026184082	0.0	0.0	-9378.0	-303.0	-99687.0	743.0	1253.148681640625	-13.018437385559082	0.0	2056.0	2080.0	2556.0	166.0	175.0	176.0	201.0	1525184918243.0
1970-01-01 00:00:04.600	0.0	-0.25	0.0	0.0	3.0	83.0	-74.0	-34.0	-88.0	98478.0	530.0	0.04129582270979881	-63.2744026184082	0.0	0.0	-9378.0	-303.0	-99687.0	743.0	1253.148681640625	-13.018437385559082	0.0	2056.0	2080.0	2556.0	166.0	175.0	176.0	201.0	1525184918243.0
1970-01-01 00:00:04.650	0.0	-0.25	0.0	0.0	3.0	83.0	-74.0	-34.0	-88.0	98478.0	530.0	0.04129582270979881	-63.2744026184082	0.0	0.0	-9378.0	-303.0	-99687.0	743.0	1253.148681640625	-13.018437385559082	0.0	2056.0	2080.0	2556.0	166.0	175.0	176.0	201.0	1525184918243.0
1970-01-01 00:00:04.700	0.0	-0.25	0.0	0.0	3.0	83.0	-74.0	-34.0	-88.0	98478.0	530.0	0.04129582270979881	-63.2744026184082	0.0	0.0	-9378.0	-303.0	-99687.0	743.0	1253.148681640625	-13.018437385559082	0.0	2056.0	2080.0	2556.0	166.0	175.0	176.0	201.0	1525184918243.0
1970-01-01 00:00:04.750	0.0	-0.25	0.0	0.0	3.0	83.0	-74.0	-34.0	-88.0	98478.0	530.0	0.04129582270979881	-63.2744026184082	0.0	0.0	-9378.0	-303.0	-99687.0	743.0	1253.148681640625	-13.018437385559082	0.0	2056.0	2080.0	2556.0	166.0	175.0	176.0	201.0	1525184918243.0
1970-01-01 00:00:04.800	0.0	-0.25	0.0	0.0	3.0	83.0	-74.0	-34.0	-88.0	98478.0	530.0	0.04129582270979881	-63.2744026184082	0.0	0.0	-9378.0	-303.0	-99687.0	743.0	1253.148681640625	-13.018437385559082	0.0	2056.0	2080.0	2556.0	166.0	175.0	176.0	201.0	1525184918243.0
1970-01-01 00:00:04.850	0.0	-0.25	0.0	0.0	3.0	83.0	-74.0	-34.0	-88.0	98478.0	530.0	0.04129582270979881	-63.2744026184082	0.0	0.0	-9378.0	-303.0	-99687.0	743.0	1253.148681640625	-13.018437385559082	0.0	2056.0	2080.0	2556.0	166.0	175.0	176.0	201.0	1525184918243.0
1970-01-01 00:00:04.900	0.0	-0.25	0.0	0.0	3.0	83.0	-74.0	-34.0	-88.0	98478.0	530.0	0.04129582270979881	-63.2744026184082	0.0	0.0	-9378.0	-303.0	-99687.0	743.0	1253.148681640625	-13.018437385559082	0.0	2056.0	2080.0	2556.0	166.0	175.0	176.0	201.0	1525184918243.0
1970-01-01 00:00:04.950	0.0	-0.25	0.0	0.0	3.0	83.0	-74.0	-34.0	-88.0	98478.0	530.0	0.04129582270979881	-63.2744026184082	0.0	0.0	-9378.0	-303.0	-99687.0	743.0	1253.148681640625	-13.018437385559082	0.0	2056.0	2080.0	2556.0	166.0	175.0	176.0	201.0	1525184918243.0
1970-01-01 00:00:05.000	0.0	-0.25	0.0	0.0	3.0	83.0	-74.0	-34.0	-88.0	98478.0	530.0	0.04129582270979881	-63.2744026184082	0.0	0.0	-9378.0	-303.0	-99687.0	743.0	1253.148681640625	-13.018437385559082	0.0	2056.0	2080.0	2556.0	166.0	175.0	176.0	201.0	1525184918243.0
1970-01-01 00:00:05.050	0.0	-0.25	0.0	0.0	3.0	83.0	-74.0	-34.0	-88.0	98478.0	530.0	0.04129582270979881	-63.2744026184082	0.0	0.0	-9378.0	-303.0	-99687.0	743.0	1253.148681640625	-13.018437385559082	0.0	2056.0	2080.0	2556.0	166.0	175.0	176.0	201.0	1525184918243.0
1970-01-01 00:00:05.100	0.0	-0.25	0.0	0.0	3.0	83.0	-74.0	-34.0	-88.0	98478.0	530.0	0.04129582270979881	-63.2744026184082	0.0	0.0	-9378.0	-303.0	-99687.0	743.0	1253.148681640625	-13.018437385559082	0.0	2056.0	2080.0	2556.0	166.0	175.0	176.0	201.0	1525184918243.0
1970-01-01 00:00:05.150	0.0	-0.25	0.0	0.0	3.0	83.0	-74.0	-34.0	-88.0	98478.0	530.0	0.04129582270979881	-63.2744026184082	0.0	0.0	-9378.0	-303.0	-99687.0	743.0	1253.148681640625	-13.018437385559082	0.0	2056.0	2080.0	2556.0	166.0	175.0	176.0	201.0	1525184918243.0
1970-01-01 00:00:05.200	0.0	-0.25	0.0	0.0	3.0	83.0	-74.0	-34.0	-88.0	98478.0	530.0	0.04129582270979881	-63.2744026184082	0.0	0.0	-9378.0	-303.0	-99687.0	743.0	1253.148681640625	-13.018437385559082	0.0	2056.0	2080.0	2556.0	166.0	175.0	176.0	201.0	1525184918243.0
1970-01-01 00:00:05.250	0.0	-0.25	0.0	0.0	3.0	83.0	-74.0	-34.0	-88.0	98478.0	530.0	0.04129582270979881	-63.2744026184082	0.0	0.0	-9378.0	-303.0	-99687.0	743.0	1253.148681640625	-13.018437385559082	0.0	2056.0	2080.0	2556.0	166.0	175.0	176.0	201.0	1525184918243.0
1970-01-01 00:00:05.300	0.0	-0.25	0.0	0.0	3.0	83.0	-74.0	-34.0	-88.0	98478.0	530.0	0.04129582270979881	-63.2744026184082	0.0	0.0	-9378.0	-303.0	-99687.0	743.0	1253.148681640625	-13.018437385559082	0.0	2056.0	2080.0	2556.0	166.0	175.0	176.0	201.0	1525184918243.0
1970-01-01 00:00:05.350	0.0	-0.25	0.0	0.0	3.0	83.0	-74.0	-34.0	-88.0	98478.0	530.0	0.04129582270979881	-63.2744026184082	0.0	0.0	-9378.0	-303.0	-99687.0	743.0	1253.148681640625	-13.018437385559082	0.0	2056.0	2080.0	2556.0	166.0	175.0	176.0	201.0	1525184918243.0
1970-01-01 00:00:05.400	0.0	-0.25	0.0	0.0	3.0	83.0	-74.0	-34.0	-88.0	98478.0	530.0	0.04129582270979881	-63.2744026184082	0.0	0.0	-9378.0	-303.0	-99687.0	743.0	1253.148681640625	-13.018437385559082	0.0	2056.0	2080.0	2556.0	166.0	175.0	176.0	201.0	1525184918243.0
1970-01-01 00:00:05.450	0.0	-0.25	0.0	0.0	3.0	83.0	-74.0	-34.0	-88.0	98478.0	530.0	0.04129582270979881	-63.2744026184082	0.0	0.0	-9378.0	-303.0	-99687.0	743.0	1253.148681640625	-13.018437385559082	0.0	2056.0	2080.0	2556.0	166.0	175.0	176.0	201.0	1525184918243.0
1970-01-01 00:00:05.500	0.0	-0.25	0.0	0.0	3.0	83.0	-74.0	-34.0	-88.0	98478.0	530.0	0.04129582270979881	-63.2744026184082	0.0	0.0	-9378.0	-303.0	-99687.0	743.0	1253.148681640625	-13.018437385559082	0.0	2056.0	2080.0	2556.0	166.0	175.0	176.0	201.0	1525184918243.0
1970-01-01 00:00:05.550	0.0	-0.25	0.0	0.0	3.0	83.0	-74.0	-34.0	-88.0	98478.0	530.0	0.04129582270979881	-63.2744026184082	0.0	0.0	-9378.0	-303.0	-99687.0	743.0	1253.148681640625	-13.018437385559082	0.0	2056.0	2080.0	2556.0	166.0	175.0	176.0	201.0	1525184918243.0
1970-01-01 00:00:05.600	0.0	-0.25	0.0	0.0	3.0	83.0	-74.0	-34.0	-88.0	98478.0	530.0	0.04129582270979881	-63.2744026184082	0.0	0.0	-9378.0	-303.0	-99687.0	743.0	1253.148681640625	-13.018437385559082	0.0	2056.0	2080.0	2556.0	166.0	175.0	176.0	201.0	1525184918243.0
1970-01-01 00:00:05.650	0.0	-0.25	0.0	0.0	3.0	83.0	-74.0	-34.0	-88.0	98478.0	530.0	0.04129582270979881	-63.2744026184082	0.0	0.0	-9378.0	-303.0	-99687.0	743.0	1253.148681640625	-13.018437385559082	0.0	2056.0	2080.0	2556.0	166.0	175.0	176.0	201.0	1525184918243.0
1970-01-01 00:00:05.700	0.0	-0.25	0.0	0.0	3.0	83.0	-74.0	-34.0	-88.0	98478.0	530.0	0.04129582270979881	-63.2744026184082	0.0	0.0	-9378.0	-303.0	-99687.0	743.0	1253.148681640625	-13.018437385559082	0.0	2056.0	2080.0	2556.0	166.0	175.0	176.0	201.0	1525184918243.0
1970-01-01 00:00:05.750	0.0	-0.25	0.0	0.0	3.0	83.0	-74.0	-34.0	-88.0	98478.0	530.0	0.04129582270979881	-63.2744026184082	0.0	0.0	-9378.0	-303.0	-99687.0	743.0	1253.148681640625	-13.018437385559082	0.0	2056.0	2080.0	2556.0	166.0	175.0	176.0	201.0	1525184918243.0
1970-01-01 00:00:05.800	0.0	-0.25	0.0	0.0	3.0	83.0	-74.0	-34.0	-88.0	98478.0	530.0	0.04129582270979881	-63.2744026184082	0.0	0.0	-9378.0	-303.0	-99687.0	743.0	1253.148681640625	-13.018437385559082	0.0	2056.0	2080.0	2556.0	166.0	175.0	176.0	201.0	1525184918243.0
1970-01-01 00:00:05.850	0.0	-0.25	0.0	0.0	3.0	83.0	-74.0	-34.0	-88.0	98478.0	530.0	0.04129582270979881	-63.2744026184082	0.0	0.0	-9378.0	-303.0	-99687.0	743.0	1253.148681640625	-13.018437385559082	0.0	2056.0	2080.0	2556.0	166.0	175.0	176.0	201.0	1525184918243.0
1970-01-01 00:00:05.900	0.0	0.25	0.0	0.0	4.0	83.0	-80.0	-4.0	-82.0	98472.0	530.0	0.03498201444745064	-43.599308013916016	0.0	0.0	-2045.0	1842.0	-99183.0	781.0	-45.45237350463867	61.10319900512695	0.0	2096.0	2052.0	2580.0	176.0	175.0	181.0	173.0	1527176804016.0
1970-01-01 00:00:05.950	0.0	0.25	0.0	0.0	3.0	83.0	-74.0	-6.0	-84.0	98480.0	530.0	0.034781742841005325	-43.0120964050293	0.0	0.0	-2005.0	1652.0	-99182.0	780.0	-49.82575988769531	68.78285980224611	0.0	2092.0	2016.0	2564.0	183.0	178.0	174.0	171.0	1527193839111.0
1970-01-01 00:00:06.000	0.0	0.25	0.0	0.0	3.0	83.0	-74.0	-6.0	-84.0	98480.0	530.0	0.034781742841005325	-43.0120964050293	0.0	0.0	-2005.0	1652.0	-99182.0	780.0	-49.82575988769531	68.78285980224611	0.0	2092.0	2016.0	2564.0	183.0	178.0	174.0	171.0	1527193839111.0
1970-01-01 00:00:06.050	0.0	0.25	0.0	0.0	3.0	83.0	-77.0	-3.0	-85.0	98478.0	530.0	0.03804957494139671	-40.36187362670898	0.0	0.0	-305.0	1644.0	-98982.0	778.0	-48.37063217163086	102.01151275634766	0.0	1992.0	1996.0	2568.0	185.0	173.0	181.0	169.0	1527242939422.0
1970-01-01 00:00:06.100	0.0	0.25	0.0	0.0	3.0	83.0	-72.0	0.0	-86.0	98463.0	530.0	0.03853219375014305	-38.97777557373047	0.0	0.0	1994.0	1579.0	-98796.0	784.0	-67.93521881103516	120.44820404052734	0.0	1972.0	2020.0	2576.0	181.0	168.0	184.0	169.0	1527810004486.0
1970-01-01 00:00:06.150	0.0	0.25	0.0	0.0	3.0	83.0	-77.0	5.0	-81.0	98501.0	530.0	0.0396278090775013	-36.50446319580078	0.0	0.0	3078.0	1406.0	-98727.0	783.0	-93.21297454833984	133.27976989746094	0.0	2056.0	2072.0	2544.0	181.0	166.0	185.0	172.0	1527824034729.0
1970-01-01 00:00:06.200	0.0	0.25	0.0	0.0	3.0	83.0	-75.0	9.0	-87.0	98496.5	530.0	0.03910086862742901	-34.38928985595703	0.0	0.0	4650.5	1181.5	-98645.0	786.5	-144.62604522705078	133.37744140625	0.0	2016.0	2078.0	2564.0	180.0	166.0	183.0	172.0	1527849084792.5
1970-01-01 00:00:06.250	0.0	0.25	0.0	0.0	3.0	83.0	-75.0	11.0	-83.0	98489.0	530.0	0.04098065569996834	-31.71752166748047	0.0	0.0	5944.0	972.0	-98553.0	785.0	-191.2228546142578	147.64938354492188	0.0	2012.0	2056.0	2568.0	184.0	165.0	185.0	172.0	1527873134887.0
1970-01-01 00:00:06.300	0.0	0.25	0.0	0.0	3.0	83.0	-74.0	15.0	-87.0	98473.5	530.0	0.03992684185504913	-32.199729919433594	0.0	0.0	6787.0	609.5	-98463.0	790.0	-256.48287200927734	153.32908630371094	0.0	2060.0	2130.0	2558.0	184.0	163.0	181.5	172.0	1527895680099.0
1970-01-01 00:00:06.350	0.0	0.25	0.0	0.0	3.0	83.0	-74.0	15.0	-87.0	98473.5	530.0	0.03992684185504913	-32.199729919433594	0.0	0.0	6787.0	609.5	-98463.0	790.0	-256.48287200927734	153.32908630371094	0.0	2060.0	2130.0	2558.0	184.0	163.0	181.5	172.0	1527895680099.0
1970-01-01 00:00:06.400	0.0	0.25	0.0	0.0	3.0	83.0	-71.0	14.0	-86.0	98486.5	530.0	0.041098056361079216	-30.16055965423584	0.0	0.0	7586.5	-295.5	-98348.0	792.5	-372.8393096923828	144.47874450683594	0.0	1992.0	2070.0	2580.0	190.0	164.0	177.0	171.0	1527942275268.0
1970-01-01 00:00:06.450	0.0	0.25	0.0	0.0	3.0	83.0	-72.0	18.0	-84.0	98489.0	530.0	0.04124092496931553	-26.887259483337406	0.0	0.0	7648.0	-723.0	-98244.5	792.5	-458.5478057861328	146.76766204833984	0.0	2030.0	2060.0	2540.0	194.5	162.5	179.0	168.0	1527971835601.5
1970-01-01 00:00:06.500	0.0	0.25	0.0	0.0	3.0	83.0	-67.0	17.0	-87.0	98475.0	530.0	0.043033987283706665	-25.30866622924805	0.0	0.0	7538.0	-1031.0	-98174.0	791.0	-519.306396484375	154.44210815429688	0.0	2096.0	2100.0	2532.0	197.0	164.0	176.0	169.0	1527993380859.0
1970-01-01 00:00:06.550	0.0	0.25	0.0	0.0	3.0	83.0	-68.5	18.5	-85.5	98491.0	530.0	0.04142010025680065	-21.998720169067383	0.0	0.0	7303.5	-1340.5	-98249.5	790.0	-598.0181884765625	134.19511795043945	0.0	2052.0	2098.0	2530.0	193.5	170.5	170.0	173.5	1528017930755.0
1970-01-01 00:00:06.600	0.0	0.25	0.0	0.0	3.0	83.0	-68.5	18.5	-85.5	98491.0	530.0	0.04142010025680065	-21.998720169067383	0.0	0.0	7303.5	-1340.5	-98249.5	790.0	-598.0181884765625	134.19511795043945	0.0	2052.0	2098.0	2530.0	193.5	170.5	170.0	173.5	1528017930755.0
1970-01-01 00:00:06.650	0.0	0.25	0.0	0.0	3.0	83.0	-66.0	17.0	-85.0	98485.0	530.0	0.045084549114108086	-19.351041793823242	0.0	0.0	6888.5	-1588.5	-98276.5	781.5	-682.1632995605469	152.27254486083984	0.0	2104.0	2060.0	2544.0	199.0	171.5	173.0	171.5	1528066028609.5
1970-01-01 00:00:06.700	0.0	0.25	0.0	0.0	3.0	83.0	-67.0	17.0	-81.0	98501.0	530.0	0.04612520709633827	-19.53050422668457	0.0	0.0	6726.0	-1579.0	-98266.0	777.0	-786.0159912109375	141.48147583007812	0.0	2032.0	2128.0	2544.0	200.0	173.0	175.0	170.0	1528091581207.0
1970-01-01 00:00:06.750	0.0	0.25	0.0	0.0	3.0	83.0	-62.0	18.0	-88.0	98469.0	530.0	0.04610642045736313	-11.774563789367676	0.0	0.0	6673.0	-1628.0	-98279.0	771.0	-854.51318359375	127.17858123779295	0.0	2076.0	2124.0	2548.0	202.0	173.0	174.0	173.0	1528106611358.0
1970-01-01 00:00:06.800	0.0	0.25	0.0	0.0	3.0	83.0	-70.0	14.0	-86.0	98483.0	530.0	0.043408732861280434	-7.003237724304199	0.0	0.0	6467.0	-1539.0	-98430.0	764.0	-930.7443237304688	68.16015625	0.0	2136.0	2072.0	2548.0	197.0	183.0	168.0	176.0	1528138676574.0
1970-01-01 00:00:06.850	0.0	0.25	0.0	0.0	3.0	83.0	-70.0	18.0	-86.0	98511.0	529.0	0.04381164163351059	-5.415355205535889	0.0	0.0	6451.0	-1511.0	-98454.0	763.0	-947.8549194335938	62.69572830200195	0.0	2028.0	2028.0	2600.0	196.0	182.0	169.0	176.0	1528143686492.0
1970-01-01 00:00:06.900	0.0	0.25	0.0	0.0	3.0	83.0	-69.0	17.0	-87.0	98511.0	530.0	0.04264731332659722	-1.894934892654419	0.0	0.0	6326.0	-1325.0	-98639.0	757.0	-1049.3123779296877	14.842134475708008	0.0	2168.0	2084.0	2572.0	194.0	185.0	166.0	178.0	1528184771820.0
1970-01-01 00:00:06.950	0.0	0.25	0.0	0.0	3.0	83.0	-69.0	17.0	-87.0	98511.0	530.0	0.04264731332659722	-1.894934892654419	0.0	0.0	6326.0	-1325.0	-98639.0	757.0	-1049.3123779296877	14.842134475708008	0.0	2168.0	2084.0	2572.0	194.0	185.0	166.0	178.0	1528184771820.0
1970-01-01 00:00:07.000	0.0	0.25	0.0	0.0	3.0	83.0	-67.5	20.5	-85.5	98479.0	529.0	0.04302559420466423	2.3116559982299805	0.0	0.0	6527.0	-630.5	-98826.5	744.0	-1135.0130004882812	-18.446805000305176	0.0	2072.0	2120.0	2592.0	200.0	183.0	176.0	171.0	1528239382171.0
1970-01-01 00:00:07.050	0.0	0.25	0.0	0.0	3.0	83.0	-73.0	25.0	-89.0	98480.0	530.0	0.04365652427077293	2.5930063724517822	0.0	0.0	6653.0	-286.0	-98794.0	739.0	-1157.690185546875	-18.768115997314453	0.0	2116.0	2036.0	2612.0	199.0	184.0	178.0	170.0	1528263932250.0
1970-01-01 00:00:07.100	0.0	0.25	0.0	0.0	3.0	83.0	-74.0	12.0	-84.0	98498.0	530.0	0.04410138726234436	3.1745924949646	0.0	0.0	6757.0	-123.0	-98815.0	737.0	-1172.841064453125	-19.250242233276367	0.0	2068.0	2028.0	2600.0	200.0	182.0	178.0	170.0	1528277962524.0
1970-01-01 00:00:07.150	0.0	0.25	0.0	0.0	3.0	83.0	-74.0	12.0	-84.0	98498.0	530.0	0.04410138726234436	3.1745924949646	0.0	0.0	6757.0	-123.0	-98815.0	737.0	-1172.841064453125	-19.250242233276367	0.0	2068.0	2028.0	2600.0	200.0	182.0	178.0	170.0	1528277962524.0
1970-01-01 00:00:07.200	0.0	0.25	0.0	0.0	3.0	83.0	-74.0	12.0	-84.0	98498.0	530.0	0.04410138726234436	3.1745924949646	0.0	0.0	6757.0	-123.0	-98815.0	737.0	-1172.841064453125	-19.250242233276367	0.0	2068.0	2028.0	2600.0	200.0	182.0	178.0	170.0	1528277962524.0
1970-01-01 00:00:07.250	0.0	0.25	0.0	0.0	3.0	83.0	-74.0	12.0	-84.0	98498.0	530.0	0.04410138726234436	3.1745924949646	0.0	0.0	6757.0	-123.0	-98815.0	737.0	-1172.841064453125	-19.250242233276367	0.0	2068.0	2028.0	2600.0	200.0	182.0	178.0	170.0	1528277962524.0
1970-01-01 00:00:07.300	0.0	0.25	0.0	0.0	3.0	83.0	-74.0	12.0	-84.0	98498.0	530.0	0.04410138726234436	3.1745924949646	0.0	0.0	6757.0	-123.0	-98815.0	737.0	-1172.841064453125	-19.250242233276367	0.0	2068.0	2028.0	2600.0	200.0	182.0	178.0	170.0	1528277962524.0
1970-01-01 00:00:07.350	0.0	0.25	0.0	0.0	3.0	83.0	-74.0	12.0	-84.0	98498.0	530.0	0.04410138726234436	3.1745924949646	0.0	0.0	6757.0	-123.0	-98815.0	737.0	-1172.841064453125	-19.250242233276367	0.0	2068.0	2028.0	2600.0	200.0	182.0	178.0	170.0	1528277962524.0
1970-01-01 00:00:07.400	0.0	0.25	0.0	0.0	3.0	83.0	-74.0	12.0	-84.0	98498.0	530.0	0.04410138726234436	3.1745924949646	0.0	0.0	6757.0	-123.0	-98815.0	737.0	-1172.841064453125	-19.250242233276367	0.0	2068.0	2028.0	2600.0	200.0	182.0	178.0	170.0	1528277962524.0
1970-01-01 00:00:07.450	0.0	0.25	0.0	0.0	3.0	83.0	-74.0	12.0	-84.0	98498.0	530.0	0.04410138726234436	3.1745924949646	0.0	0.0	6757.0	-123.0	-98815.0	737.0	-1172.841064453125	-19.250242233276367	0.0	2068.0	2028.0	2600.0	200.0	182.0	178.0	170.0	1528277962524.0
1970-01-01 00:00:07.500	0.0	0.25	0.0	0.0	3.0	83.0	-74.0	12.0	-84.0	98498.0	530.0	0.04410138726234436	3.1745924949646	0.0	0.0	6757.0	-123.0	-98815.0	737.0	-1172.841064453125	-19.250242233276367	0.0	2068.0	2028.0	2600.0	200.0	182.0	178.0	170.0	1528277962524.0
1970-01-01 00:00:07.550	0.0	0.25	0.0	0.0	3.0	83.0	-74.0	12.0	-84.0	98498.0	530.0	0.04410138726234436	3.1745924949646	0.0	0.0	6757.0	-123.0	-98815.0	737.0	-1172.841064453125	-19.250242233276367	0.0	2068.0	2028.0	2600.0	200.0	182.0	178.0	170.0	1528277962524.0
1970-01-01 00:00:07.600	0.0	0.25	0.0	0.0	3.0	83.0	-74.0	12.0	-84.0	98498.0	530.0	0.04410138726234436	3.1745924949646	0.0	0.0	6757.0	-123.0	-98815.0	737.0	-1172.841064453125	-19.250242233276367	0.0	2068.0	2028.0	2600.0	200.0	182.0	178.0	170.0	1528277962524.0
1970-01-01 00:00:07.650	0.0	0.25	0.0	0.0	3.0	83.0	-74.0	12.0	-84.0	98498.0	530.0	0.04410138726234436	3.1745924949646	0.0	0.0	6757.0	-123.0	-98815.0	737.0	-1172.841064453125	-19.250242233276367	0.0	2068.0	2028.0	2600.0	200.0	182.0	178.0	170.0	1528277962524.0
1970-01-01 00:00:07.700	0.0	0.25	0.0	0.0	3.0	83.0	-74.0	12.0	-84.0	98498.0	530.0	0.04410138726234436	3.1745924949646	0.0	0.0	6757.0	-123.0	-98815.0	737.0	-1172.841064453125	-19.250242233276367	0.0	2068.0	2028.0	2600.0	200.0	182.0	178.0	170.0	1528277962524.0
1970-01-01 00:00:07.750	0.0	0.25	0.0	0.0	3.0	83.0	-74.0	12.0	-84.0	98498.0	530.0	0.04410138726234436	3.1745924949646	0.0	0.0	6757.0	-123.0	-98815.0	737.0	-1172.841064453125	-19.250242233276367	0.0	2068.0	2028.0	2600.0	200.0	182.0	178.0	170.0	1528277962524.0
1970-01-01 00:00:07.800	0.0	0.25	0.0	0.0	3.0	83.0	-74.0	12.0	-84.0	98498.0	530.0	0.04410138726234436	3.1745924949646	0.0	0.0	6757.0	-123.0	-98815.0	737.0	-1172.841064453125	-19.250242233276367	0.0	2068.0	2028.0	2600.0	200.0	182.0	178.0	170.0	1528277962524.0
1970-01-01 00:00:07.850	0.0	0.25	0.0	0.0	3.0	83.0	-74.0	12.0	-84.0	98498.0	530.0	0.04410138726234436	3.1745924949646	0.0	0.0	6757.0	-123.0	-98815.0	737.0	-1172.841064453125	-19.250242233276367	0.0	2068.0	2028.0	2600.0	200.0	182.0	178.0	170.0	1528277962524.0
1970-01-01 00:00:07.900	0.0	0.25	0.0	0.0	3.0	83.0	-74.0	12.0	-84.0	98498.0	530.0	0.04410138726234436	3.1745924949646	0.0	0.0	6757.0	-123.0	-98815.0	737.0	-1172.841064453125	-19.250242233276367	0.0	2068.0	2028.0	2600.0	200.0	182.0	178.0	170.0	1528277962524.0
1970-01-01 00:00:07.950	0.0	0.25	0.0	0.0	3.0	83.0	-74.0	12.0	-84.0	98498.0	530.0	0.04410138726234436	3.1745924949646	0.0	0.0	6757.0	-123.0	-98815.0	737.0	-1172.841064453125	-19.250242233276367	0.0	2068.0	2028.0	2600.0	200.0	182.0	178.0	170.0	1528277962524.0
1970-01-01 00:00:08.000	0.0	0.25	0.0	0.0	3.0	83.0	-74.0	12.0	-84.0	98498.0	530.0	0.04410138726234436	3.1745924949646	0.0	0.0	6757.0	-123.0	-98815.0	737.0	-1172.841064453125	-19.250242233276367	0.0	2068.0	2028.0	2600.0	200.0	182.0	178.0	170.0	1528277962524.0
1970-01-01 00:00:08.050	0.0	0.25	0.0	0.0	3.0	83.0	-74.0	12.0	-84.0	98498.0	530.0	0.04410138726234436	3.1745924949646	0.0	0.0	6757.0	-123.0	-98815.0	737.0	-1172.841064453125	-19.250242233276367	0.0	2068.0	2028.0	2600.0	200.0	182.0	178.0	170.0	1528277962524.0
1970-01-01 00:00:08.100	0.0	0.25	0.0	0.0	3.0	83.0	-74.0	12.0	-84.0	98498.0	530.0	0.04410138726234436	3.1745924949646	0.0	0.0	6757.0	-123.0	-98815.0	737.0	-1172.841064453125	-19.250242233276367	0.0	2068.0	2028.0	2600.0	200.0	182.0	178.0	170.0	1528277962524.0
1970-01-01 00:00:08.150	0.0	0.25	0.0	0.0	3.0	83.0	-74.0	12.0	-84.0	98498.0	530.0	0.04410138726234436	3.1745924949646	0.0	0.0	6757.0	-123.0	-98815.0	737.0	-1172.841064453125	-19.250242233276367	0.0	2068.0	2028.0	2600.0	200.0	182.0	178.0	170.0	1528277962524.0
1970-01-01 00:00:08.200	0.0	0.25	0.0	0.0	3.0	83.0	-74.0	12.0	-84.0	98498.0	530.0	0.04410138726234436	3.1745924949646	0.0	0.0	6757.0	-123.0	-98815.0	737.0	-1172.841064453125	-19.250242233276367	0.0	2068.0	2028.0	2600.0	200.0	182.0	178.0	170.0	1528277962524.0
1970-01-01 00:00:08.250	0.0	0.25	0.0	0.0	8.0	82.0	-74.0	-4.0	-82.0	98492.0	529.0	0.0593765527009964	18.116857528686523	0.0	0.0	643.0	528.0	-99405.0	734.0	-223.84051513671875	86.19261169433594	0.0	2056.0	2088.0	2584.0	183.0	175.0	178.0	180.0	1529924140747.0
1970-01-01 00:00:08.300	0.0	0.25	0.0	0.0	8.0	82.0	-74.0	-4.0	-82.0	98492.0	529.0	0.0593765527009964	18.116857528686523	0.0	0.0	643.0	528.0	-99405.0	734.0	-223.84051513671875	86.19261169433594	0.0	2056.0	2088.0	2584.0	183.0	175.0	178.0	180.0	1529924140747.0
1970-01-01 00:00:08.350	0.0	0.25	0.0	0.0	8.0	82.0	-74.0	-4.0	-82.0	98492.0	529.0	0.0593765527009964	18.116857528686523	0.0	0.0	643.0	528.0	-99405.0	734.0	-223.84051513671875	86.19261169433594	0.0	2056.0	2088.0	2584.0	183.0	175.0	178.0	180.0	1529924140747.0
1970-01-01 00:00:08.400	0.0	0.25	0.0	0.0	8.0	82.0	-74.0	-4.0	-82.0	98492.0	529.0	0.0593765527009964	18.116857528686523	0.0	0.0	643.0	528.0	-99405.0	734.0	-223.84051513671875	86.19261169433594	0.0	2056.0	2088.0	2584.0	183.0	175.0	178.0	180.0	1529924140747.0
1970-01-01 00:00:08.450	0.0	0.25	0.0	0.0	3.0	82.0	-73.5	4.5	-89.5	98474.5	529.0	0.06081232242286205	11.966106414794922	0.0	0.0	4365.0	127.0	-99360.0	733.0	-210.26485443115232	88.91383361816406	0.0	2104.0	1966.0	2574.0	189.0	176.0	178.0	176.5	1530013823852.0
1970-01-01 00:00:08.500	0.0	0.25	0.0	0.0	3.0	82.0	-70.0	8.0	-90.0	98472.0	529.0	0.06228562444448471	11.853440284729006	0.0	0.0	5953.0	59.0	-99329.0	732.0	-243.9561309814453	100.11702728271484	0.0	2112.0	1952.0	2596.0	190.0	175.0	180.0	179.0	1530037371398.0
1970-01-01 00:00:08.550	0.0	0.25	0.0	0.0	3.0	82.0	-71.5	12.5	-88.5	98482.5	529.0	0.06259875930845737	11.689949035644531	0.0	0.0	7390.0	-119.0	-99341.5	732.5	-295.3046569824219	99.95052337646484	0.0	2092.0	2030.0	2576.0	186.5	178.0	175.5	184.5	1530061921783.0
1970-01-01 00:00:08.600	0.0	0.25	0.0	0.0	3.0	82.0	-72.0	14.0	-86.0	98471.5	529.0	0.06306206434965134	11.963806629180908	0.0	0.0	8759.5	-199.5	-99362.0	733.5	-357.20277404785156	91.94926834106445	0.0	2092.0	1992.0	2596.0	186.5	178.5	177.0	182.5	1530090981826.0
1970-01-01 00:00:08.650	0.0	0.25	0.0	0.0	3.0	82.0	-70.0	16.0	-88.0	98472.0	529.0	0.06362805515527725	11.455055236816404	0.0	0.0	9529.0	-216.0	-99331.0	737.0	-406.4953002929688	98.38832092285156	0.0	2060.0	2016.0	2576.0	189.0	176.0	180.0	179.0	1530113527099.0
1970-01-01 00:00:08.700	0.0	0.25	0.0	0.0	3.0	82.0	-71.0	25.0	-83.0	98511.0	529.0	0.06533511728048325	13.730077743530273	0.0	0.0	9896.0	-257.0	-99331.0	736.0	-476.27374267578125	95.7073745727539	0.0	2048.0	2040.0	2576.0	190.0	178.0	178.0	181.0	1530128557495.0
1970-01-01 00:00:08.750	0.0	0.25	0.0	0.0	3.0	82.0	-69.0	19.0	-85.0	98460.0	529.0	0.06594957411289215	14.813562393188475	0.0	0.0	10422.0	-381.0	-99376.0	736.0	-621.171875	76.10051727294922	0.0	2060.0	2036.0	2568.0	192.0	182.0	174.0	182.0	1530174652465.0
1970-01-01 00:00:08.800	0.0	0.25	0.0	0.0	3.0	82.0	-70.0	20.0	-84.0	98472.0	529.0	0.06511574238538742	13.983927726745605	0.0	0.0	10423.0	-467.0	-99391.0	735.0	-654.73486328125	68.85227966308594	0.0	2028.0	2048.0	2580.0	191.0	183.0	174.0	184.0	1530191687683.0
1970-01-01 00:00:08.850	0.0	0.25	0.0	0.0	3.0	82.0	-70.0	20.0	-84.0	98472.0	529.0	0.06511574238538742	13.983927726745605	0.0	0.0	10423.0	-467.0	-99391.0	735.0	-654.73486328125	68.85227966308594	0.0	2028.0	2048.0	2580.0	191.0	183.0	174.0	184.0	1530191687683.0
1970-01-01 00:00:08.900	0.0	0.25	0.0	0.0	3.0	82.0	-72.0	22.0	-82.0	98463.0	529.0	0.06591729819774628	14.36738109588623	0.0	0.0	10295.0	-477.0	-99390.0	735.0	-749.6514282226562	65.92575836181639	0.0	2128.0	2044.0	2560.0	194.0	182.0	174.0	180.0	1530218742919.0
1970-01-01 00:00:08.950	0.0	0.25	0.0	0.0	3.0	82.0	-67.0	23.0	-87.0	98489.0	529.0	0.0660705417394638	14.826210021972654	0.0	0.0	9930.0	-399.0	-99347.0	731.0	-855.8377685546875	37.599769592285156	0.0	2016.0	1968.0	2604.0	197.0	184.0	174.0	179.0	1530262832885.0
1970-01-01 00:00:09.000	0.0	0.25	0.0	0.0	3.0	82.0	-69.0	21.0	-87.0	98478.0	529.0	0.06603938341140747	14.846709251403807	0.0	0.0	9743.0	-445.0	-99324.0	728.0	-884.3504028320312	56.30062484741211	0.0	2004.0	1968.0	2592.0	199.0	185.0	171.0	180.0	1530277863128.0
1970-01-01 00:00:09.050	0.0	0.25	0.0	0.0	3.0	82.0	-65.0	27.0	-87.0	98478.0	529.0	0.06605507433414459	14.99795627593994	0.0	0.0	9237.0	-549.0	-99404.0	726.0	-949.1087646484376	29.789825439453125	0.0	2088.0	2028.0	2572.0	196.0	190.0	168.0	181.0	1530306923278.0
1970-01-01 00:00:09.100	0.0	0.25	0.0	0.0	3.0	82.0	-70.0	24.0	-84.0	98489.0	529.0	0.06654264777898787	15.20539093017578	0.0	0.0	8905.0	-620.0	-99457.0	722.0	-999.2546997070312	19.326631546020508	0.0	2140.0	2112.0	2596.0	197.0	191.0	168.0	182.0	1530336983489.0
1970-01-01 00:00:09.150	0.0	0.25	0.0	0.0	3.0	82.0	-69.0	25.0	-87.0	98454.0	529.0	0.06678524613380432	14.880562782287598	0.0	0.0	8674.0	-668.0	-99579.0	721.0	-1056.76513671875	21.906301498413086	0.0	2116.0	2008.0	2604.0	193.0	195.0	164.0	184.0	1530903048767.0
1970-01-01 00:00:09.200	0.0	0.25	0.0	0.0	3.0	82.0	-69.0	25.0	-87.0	98454.0	529.0	0.06678524613380432	14.880562782287598	0.0	0.0	8674.0	-668.0	-99579.0	721.0	-1056.76513671875	21.906301498413086	0.0	2116.0	2008.0	2604.0	193.0	195.0	164.0	184.0	1530903048767.0
1970-01-01 00:00:09.250	0.0	0.25	0.0	0.0	3.0	82.0	-66.0	20.0	-86.0	98499.0	529.0	0.06711211055517198	14.479755401611328	0.0	0.0	8404.0	-573.0	-99550.0	721.0	-1096.5323486328123	27.63774490356445	0.0	2048.0	2120.0	2596.0	196.0	193.0	165.0	180.0	1530935113769.0
1970-01-01 00:00:09.300	0.0	0.25	0.0	0.0	3.0	82.0	-66.0	20.0	-86.0	98499.0	529.0	0.06711211055517198	14.479755401611328	0.0	0.0	8404.0	-573.0	-99550.0	721.0	-1096.5323486328123	27.63774490356445	0.0	2048.0	2120.0	2596.0	196.0	193.0	165.0	180.0	1530935113769.0
1970-01-01 00:00:09.350	0.0	0.25	0.0	0.0	3.0	82.0	-67.0	23.0	-89.0	98478.0	529.0	0.06678682565689087	13.83644962310791	0.0	0.0	8079.0	-63.0	-99624.0	723.0	-1162.37939453125	11.185317039489746	0.0	2128.0	2120.0	2580.0	193.0	194.0	168.0	175.0	1530982209167.0
1970-01-01 00:00:09.400	0.0	0.25	0.0	0.0	3.0	82.0	-74.0	22.0	-86.0	98466.0	529.0	0.07167108356952667	20.647062301635746	0.0	0.0	8456.0	429.0	-99716.0	734.0	-1327.6416015625	19.557565689086914	0.0	2188.0	1996.0	2568.0	188.0	190.0	166.0	176.0	1531028304260.0
1970-01-01 00:00:09.450	0.0	0.25	0.0	0.0	3.0	82.0	-71.0	23.0	-87.0	98478.0	529.0	0.0721152275800705	20.476200103759766	0.0	0.0	8615.0	502.0	-99776.0	737.0	-1300.5076904296875	17.868024826049805	0.0	2152.0	2004.0	2584.0	187.0	192.0	163.0	177.0	1531043334350.0
1970-01-01 00:00:09.500	0.0	0.25	0.0	0.0	3.0	82.0	-71.0	23.0	-87.0	98478.0	529.0	0.0721152275800705	20.476200103759766	0.0	0.0	8615.0	502.0	-99776.0	737.0	-1300.5076904296875	17.868024826049805	0.0	2152.0	2004.0	2584.0	187.0	192.0	163.0	177.0	1531043334350.0
1970-01-01 00:00:09.550	0.0	0.25	0.0	0.0	3.0	82.0	-71.0	23.0	-87.0	98478.0	529.0	0.0721152275800705	20.476200103759766	0.0	0.0	8615.0	502.0	-99776.0	737.0	-1300.5076904296875	17.868024826049805	0.0	2152.0	2004.0	2584.0	187.0	192.0	163.0	177.0	1531043334350.0
1970-01-01 00:00:09.600	0.0	0.25	0.0	0.0	3.0	82.0	-71.0	23.0	-87.0	98478.0	529.0	0.0721152275800705	20.476200103759766	0.0	0.0	8615.0	502.0	-99776.0	737.0	-1300.5076904296875	17.868024826049805	0.0	2152.0	2004.0	2584.0	187.0	192.0	163.0	177.0	1531043334350.0
1970-01-01 00:00:09.650	0.0	0.25	0.0	0.0	3.0	82.0	-71.0	23.0	-87.0	98478.0	529.0	0.0721152275800705	20.476200103759766	0.0	0.0	8615.0	502.0	-99776.0	737.0	-1300.5076904296875	17.868024826049805	0.0	2152.0	2004.0	2584.0	187.0	192.0	163.0	177.0	1531043334350.0
1970-01-01 00:00:09.700	0.0	0.25	0.0	0.0	3.0	82.0	-71.0	23.0	-87.0	98478.0	529.0	0.0721152275800705	20.476200103759766	0.0	0.0	8615.0	502.0	-99776.0	737.0	-1300.5076904296875	17.868024826049805	0.0	2152.0	2004.0	2584.0	187.0	192.0	163.0	177.0	1531043334350.0
1970-01-01 00:00:09.750	0.0	0.25	0.0	0.0	3.0	82.0	-71.0	23.0	-87.0	98478.0	529.0	0.0721152275800705	20.476200103759766	0.0	0.0	8615.0	502.0	-99776.0	737.0	-1300.5076904296875	17.868024826049805	0.0	2152.0	2004.0	2584.0	187.0	192.0	163.0	177.0	1531043334350.0
1970-01-01 00:00:09.800	0.0	0.25	0.0	0.0	3.0	82.0	-71.0	23.0	-87.0	98478.0	529.0	0.0721152275800705	20.476200103759766	0.0	0.0	8615.0	502.0	-99776.0	737.0	-1300.5076904296875	17.868024826049805	0.0	2152.0	2004.0	2584.0	187.0	192.0	163.0	177.0	1531043334350.0
1970-01-01 00:00:09.850	0.0	0.25	0.0	0.0	3.0	82.0	-71.0	23.0	-87.0	98478.0	529.0	0.0721152275800705	20.476200103759766	0.0	0.0	8615.0	502.0	-99776.0	737.0	-1300.5076904296875	17.868024826049805	0.0	2152.0	2004.0	2584.0	187.0	192.0	163.0	177.0	1531043334350.0
1970-01-01 00:00:09.900	0.0	0.25	0.0	0.0	3.0	82.0	-71.0	23.0	-87.0	98478.0	529.0	0.0721152275800705	20.476200103759766	0.0	0.0	8615.0	502.0	-99776.0	737.0	-1300.5076904296875	17.868024826049805	0.0	2152.0	2004.0	2584.0	187.0	192.0	163.0	177.0	1531043334350.0
1970-01-01 00:00:09.950	0.0	0.25	0.0	0.0	3.0	82.0	-71.0	23.0	-87.0	98478.0	529.0	0.0721152275800705	20.476200103759766	0.0	0.0	8615.0	502.0	-99776.0	737.0	-1300.5076904296875	17.868024826049805	0.0	2152.0	2004.0	2584.0	187.0	192.0	163.0	177.0	1531043334350.0
1970-01-01 00:00:10.000	0.0	0.25	0.0	0.0	3.0	82.0	-71.0	23.0	-87.0	98478.0	529.0	0.0721152275800705	20.476200103759766	0.0	0.0	8615.0	502.0	-99776.0	737.0	-1300.5076904296875	17.868024826049805	0.0	2152.0	2004.0	2584.0	187.0	192.0	163.0	177.0	1531043334350.0
1970-01-01 00:00:10.050	0.0	0.25	0.0	0.0	3.0	82.0	-71.0	23.0	-87.0	98478.0	529.0	0.0721152275800705	20.476200103759766	0.0	0.0	8615.0	502.0	-99776.0	737.0	-1300.5076904296875	17.868024826049805	0.0	2152.0	2004.0	2584.0	187.0	192.0	163.0	177.0	1531043334350.0
1970-01-01 00:00:10.100	0.0	0.25	0.0	0.0	3.0	82.0	-71.0	23.0	-87.0	98478.0	529.0	0.0721152275800705	20.476200103759766	0.0	0.0	8615.0	502.0	-99776.0	737.0	-1300.5076904296875	17.868024826049805	0.0	2152.0	2004.0	2584.0	187.0	192.0	163.0	177.0	1531043334350.0
1970-01-01 00:00:10.150	0.0	0.25	0.0	0.0	3.0	82.0	-71.0	23.0	-87.0	98478.0	529.0	0.0721152275800705	20.476200103759766	0.0	0.0	8615.0	502.0	-99776.0	737.0	-1300.5076904296875	17.868024826049805	0.0	2152.0	2004.0	2584.0	187.0	192.0	163.0	177.0	1531043334350.0
1970-01-01 00:00:10.200	0.0	0.25	0.0	0.0	3.0	82.0	-71.0	23.0	-87.0	98478.0	529.0	0.0721152275800705	20.476200103759766	0.0	0.0	8615.0	502.0	-99776.0	737.0	-1300.5076904296875	17.868024826049805	0.0	2152.0	2004.0	2584.0	187.0	192.0	163.0	177.0	1531043334350.0
1970-01-01 00:00:10.250	0.0	0.25	0.0	0.0	3.0	82.0	-71.0	23.0	-87.0	98478.0	529.0	0.0721152275800705	20.476200103759766	0.0	0.0	8615.0	502.0	-99776.0	737.0	-1300.5076904296875	17.868024826049805	0.0	2152.0	2004.0	2584.0	187.0	192.0	163.0	177.0	1531043334350.0
1970-01-01 00:00:10.300	0.0	0.25	0.0	0.0	3.0	82.0	-71.0	23.0	-87.0	98478.0	529.0	0.0721152275800705	20.476200103759766	0.0	0.0	8615.0	502.0	-99776.0	737.0	-1300.5076904296875	17.868024826049805	0.0	2152.0	2004.0	2584.0	187.0	192.0	163.0	177.0	1531043334350.0
1970-01-01 00:00:10.350	0.0	0.25	0.0	0.0	3.0	82.0	-71.0	23.0	-87.0	98478.0	529.0	0.0721152275800705	20.476200103759766	0.0	0.0	8615.0	502.0	-99776.0	737.0	-1300.5076904296875	17.868024826049805	0.0	2152.0	2004.0	2584.0	187.0	192.0	163.0	177.0	1531043334350.0
1970-01-01 00:00:10.400	0.0	0.25	0.0	0.0	3.0	82.0	-71.0	23.0	-87.0	98478.0	529.0	0.0721152275800705	20.476200103759766	0.0	0.0	8615.0	502.0	-99776.0	737.0	-1300.5076904296875	17.868024826049805	0.0	2152.0	2004.0	2584.0	187.0	192.0	163.0	177.0	1531043334350.0
1970-01-01 00:00:10.450	0.0	0.25	0.0	0.0	3.0	82.0	-71.0	23.0	-87.0	98478.0	529.0	0.0721152275800705	20.476200103759766	0.0	0.0	8615.0	502.0	-99776.0	737.0	-1300.5076904296875	17.868024826049805	0.0	2152.0	2004.0	2584.0	187.0	192.0	163.0	177.0	1531043334350.0
1970-01-01 00:00:10.500	0.0	0.25	0.0	0.0	3.0	82.0	-71.0	23.0	-87.0	98478.0	529.0	0.0721152275800705	20.476200103759766	0.0	0.0	8615.0	502.0	-99776.0	737.0	-1300.5076904296875	17.868024826049805	0.0	2152.0	2004.0	2584.0	187.0	192.0	163.0	177.0	1531043334350.0
1970-01-01 00:00:10.550	0.0	0.25	0.0	0.0	3.0	82.0	-71.0	23.0	-87.0	98478.0	529.0	0.0721152275800705	20.476200103759766	0.0	0.0	8615.0	502.0	-99776.0	737.0	-1300.5076904296875	17.868024826049805	0.0	2152.0	2004.0	2584.0	187.0	192.0	163.0	177.0	1531043334350.0
1970-01-01 00:00:10.600	0.0	0.25	0.0	0.0	3.0	82.0	-71.0	23.0	-87.0	98478.0	529.0	0.0721152275800705	20.476200103759766	0.0	0.0	8615.0	502.0	-99776.0	737.0	-1300.5076904296875	17.868024826049805	0.0	2152.0	2004.0	2584.0	187.0	192.0	163.0	177.0	1531043334350.0
1970-01-01 00:00:10.650	0.0	0.25	0.0	0.0	3.0	82.0	-71.0	23.0	-87.0	98478.0	529.0	0.0721152275800705	20.476200103759766	0.0	0.0	8615.0	502.0	-99776.0	737.0	-1300.5076904296875	17.868024826049805	0.0	2152.0	2004.0	2584.0	187.0	192.0	163.0	177.0	1531043334350.0
1970-01-01 00:00:10.700	0.0	0.25	0.0	0.0	3.0	82.0	-71.0	23.0	-87.0	98478.0	529.0	0.0721152275800705	20.476200103759766	0.0	0.0	8615.0	502.0	-99776.0	737.0	-1300.5076904296875	17.868024826049805	0.0	2152.0	2004.0	2584.0	187.0	192.0	163.0	177.0	1531043334350.0
1970-01-01 00:00:10.750	0.0	0.25	0.0	0.0	3.0	82.0	-71.0	23.0	-87.0	98478.0	529.0	0.0721152275800705	20.476200103759766	0.0	0.0	8615.0	502.0	-99776.0	737.0	-1300.5076904296875	17.868024826049805	0.0	2152.0	2004.0	2584.0	187.0	192.0	163.0	177.0	1531043334350.0
1970-01-01 00:00:10.800	0.0	0.25	0.0	0.0	3.0	82.0	-71.0	23.0	-87.0	98478.0	529.0	0.0721152275800705	20.476200103759766	0.0	0.0	8615.0	502.0	-99776.0	737.0	-1300.5076904296875	17.868024826049805	0.0	2152.0	2004.0	2584.0	187.0	192.0	163.0	177.0	1531043334350.0
1970-01-01 00:00:10.850	0.0	0.25	0.0	0.0	3.0	82.0	-71.0	23.0	-87.0	98478.0	529.0	0.0721152275800705	20.476200103759766	0.0	0.0	8615.0	502.0	-99776.0	737.0	-1300.5076904296875	17.868024826049805	0.0	2152.0	2004.0	2584.0	187.0	192.0	163.0	177.0	1531043334350.0
1970-01-01 00:00:10.900	0.0	0.25	0.0	0.0	3.0	82.0	-71.0	23.0	-87.0	98478.0	529.0	0.0721152275800705	20.476200103759766	0.0	0.0	8615.0	502.0	-99776.0	737.0	-1300.5076904296875	17.868024826049805	0.0	2152.0	2004.0	2584.0	187.0	192.0	163.0	177.0	1531043334350.0
1970-01-01 00:00:10.950	0.0	0.25	0.0	0.0	3.0	82.0	-71.0	23.0	-87.0	98478.0	529.0	0.0721152275800705	20.476200103759766	0.0	0.0	8615.0	502.0	-99776.0	737.0	-1300.5076904296875	17.868024826049805	0.0	2152.0	2004.0	2584.0	187.0	192.0	163.0	177.0	1531043334350.0
1970-01-01 00:00:11.000	0.0	0.25	0.0	0.0	3.0	82.0	-71.0	23.0	-87.0	98478.0	529.0	0.0721152275800705	20.476200103759766	0.0	0.0	8615.0	502.0	-99776.0	737.0	-1300.5076904296875	17.868024826049805	0.0	2152.0	2004.0	2584.0	187.0	192.0	163.0	177.0	1531043334350.0
1970-01-01 00:00:11.050	0.0	0.25	0.0	0.0	3.0	82.0	-71.0	23.0	-87.0	98478.0	529.0	0.0721152275800705	20.476200103759766	0.0	0.0	8615.0	502.0	-99776.0	737.0	-1300.5076904296875	17.868024826049805	0.0	2152.0	2004.0	2584.0	187.0	192.0	163.0	177.0	1531043334350.0
1970-01-01 00:00:11.100	0.0	0.25	0.0	0.0	3.0	82.0	-71.0	23.0	-87.0	98478.0	529.0	0.0721152275800705	20.476200103759766	0.0	0.0	8615.0	502.0	-99776.0	737.0	-1300.5076904296875	17.868024826049805	0.0	2152.0	2004.0	2584.0	187.0	192.0	163.0	177.0	1531043334350.0
1970-01-01 00:00:11.150	0.0	-0.25	0.0	0.0	3.0	82.0	-80.0	4.0	-90.0	98466.0	529.0	0.07173588871955873	-24.02306365966797	0.0	0.0	2979.0	681.0	-100096.0	749.0	-3.865091800689697	-17.714786529541016	0.0	2044.0	2072.0	2572.0	173.0	177.0	179.0	193.0	1532932009643.0
1970-01-01 00:00:11.200	0.0	-0.25	0.0	0.0	3.0	82.0	-81.0	-3.0	-91.0	98475.0	529.0	0.07421503216028214	-25.66912078857422	0.0	0.0	1294.0	273.0	-100055.0	745.0	-7.811169624328612	0.16450783610343933	0.0	2040.0	2044.0	2584.0	184.0	172.0	182.0	183.0	1532964074554.0
1970-01-01 00:00:11.250	0.0	-0.25	0.0	0.0	3.0	82.0	-74.0	6.0	-94.0	98502.0	529.0	0.07467442005872726	-26.655902862548828	0.0	0.0	9.0	-101.0	-100168.0	743.0	1.3357471227645874	5.096376419067383	0.0	2096.0	2008.0	2576.0	178.0	181.0	170.0	192.0	1532981109649.0
1970-01-01 00:00:11.300	0.0	-0.25	0.0	0.0	3.0	82.0	-77.0	-7.0	-97.0	98480.0	529.0	0.07525782287120819	-29.398475646972656	0.0	0.0	-2492.0	-243.0	-100217.0	740.0	40.037357330322266	-5.348387718200684	0.0	2088.0	2000.0	2564.0	182.0	181.0	173.0	185.0	1533013174865.0
1970-01-01 00:00:11.350	0.0	-0.25	0.0	0.0	3.0	82.0	-75.0	-12.0	-91.0	98471.5	529.0	0.07678958028554916	-30.552804946899414	0.0	0.0	-4011.5	-252.0	-100201.0	737.5	80.35908317565918	-4.69209361076355	0.0	2078.0	1996.0	2566.0	184.5	179.5	175.0	184.5	1533036722640.5
