time	leftRight	frontBack	up	angular	State	Battery_level	Magnetometer_x	Magnetometer_y	Magnetometer_z	Pressure	Temperature	Wind_speed	Wind_angle	Wind_compensation:pitch	Wind_compensation:roll	Pitch_y	Roll_x	Yaw_z	Altitude	Velocity_x	Velocity_y	Velocity_z	Acceleration_x	Acceleration_y	Acceleration_z	Motor_1_power	Motor_2_power	Motor_3_power	Motor_4_power	time_board
2016-03-31 12:29:28.885	0.0	0.0	0.0	0.0	7.0	83.0	-60.0	13.0	-88.0	98489.0	531.0	0.0	0.0	0.0	0.0	-5.0	-6.0	-104263.5	0.0	-0.08175914734601974	0.3199619948863983	0.0	2048.0	2048.0	2564.0	70.0	70.0	70.0	70.0	1515942364059.0
2016-03-31 12:29:28.890	0.0	-0.25	0.0	0.0	7.0	83.0	-60.0	13.0	-88.0	98489.0	531.0	0.0	0.0	0.0	0.0	-5.0	-6.0	-104263.5	0.0	-0.08175914734601974	0.3199619948863983	0.0	2048.0	2048.0	2564.0	70.0	70.0	70.0	70.0	1515942364059.0
2016-03-31 12:29:28.895	0.0	-0.25	0.0	0.0	7.0	83.0	-60.0	12.0	-88.0	98492.0	531.0	0.0	0.0	0.0	0.0	-5.0	-6.0	-104264.0	0.0	-0.08258773386478424	0.26335498690605164	0.0	2048.0	2048.0	2564.0	70.0	70.0	70.0	70.0	1515945871459.0
2016-03-31 12:29:28.900	0.0	-0.25	0.0	0.0	7.0	83.0	-59.0	9.0	-97.0	98492.0	531.0	0.0	0.0	0.0	0.0	-6.0	-7.0	-104263.0	0.0	-0.04484352096915245	0.23067653179168698	0.0	2048.0	2048.0	2568.0	70.0	70.0	70.0	70.0	1515948876708.0
2016-03-31 12:29:28.905	0.0	-0.25	0.0	0.0	7.0	83.0	-59.0	9.0	-97.0	98492.0	531.0	0.0	0.0	0.0	0.0	-6.0	-8.0	-104264.0	0.0	0.003189954906702041	0.20105324685573575	0.0	2048.0	2048.0	2564.0	70.0	70.0	70.0	70.0	1515950881561.0
2016-03-31 12:29:28.910	0.0	-0.25	0.0	0.0	7.0	83.0	-58.0	18.0	-94.0	98492.0	531.0	0.0	0.0	0.0	0.0	-7.0	-9.0	-104263.0	0.0	-0.0018368079327046871	0.20793837308883667	0.0	2048.0	2044.0	2568.0	70.0	70.0	70.0	70.0	1515952886566.0
2016-03-31 12:29:28.915	0.0	-0.25	0.0	0.0	7.0	83.0	-58.0	18.0	-94.0	98495.0	531.0	0.0	0.0	0.0	0.0	-7.0	-10.0	-104263.0	0.0	0.012810258194804192	0.25584769248962397	0.0	2048.0	2044.0	2568.0	70.0	70.0	70.0	70.0	1515955891510.0
2016-03-31 12:29:28.920	0.0	-0.25	0.0	0.0	7.0	83.0	-66.0	14.0	-100.0	98489.0	531.0	0.0	0.0	0.0	0.0	-7.0	-11.0	-104264.0	0.0	-0.0003721714019775391	0.3402174115180969	0.0	2048.0	2048.0	2568.0	70.0	70.0	70.0	70.0	1515958897064.0
2016-03-31 12:29:28.925	0.0	-0.25	0.0	0.0	7.0	83.0	-66.0	14.0	-100.0	98486.0	531.0	0.0	0.0	0.0	0.0	-8.0	-13.0	-104264.0	0.0	0.01841134764254093	0.40559029579162603	0.0	2048.0	2048.0	2568.0	70.0	70.0	70.0	70.0	1515960901824.0
2016-03-31 12:29:28.930	0.0	-0.25	0.0	0.0	7.0	83.0	-59.0	17.0	-93.0	98486.0	531.0	0.0	0.0	0.0	0.0	-8.0	-14.0	-104264.0	0.0	0.035406742244958885	0.3900301456451416	0.0	2048.0	2048.0	2568.0	70.0	70.0	70.0	70.0	1515962906616.0
2016-03-31 12:29:28.935	0.0	-0.25	0.0	0.0	7.0	83.0	-59.0	17.0	-93.0	98486.0	531.0	0.0	0.0	0.0	0.0	-8.0	-14.0	-104264.0	0.0	0.04426942765712738	0.3189382553100586	0.0	2048.0	2048.0	2568.0	70.0	70.0	70.0	70.0	1515965911590.0
2016-03-31 12:29:28.940	0.0	-0.25	0.0	0.0	7.0	83.0	-59.0	13.0	-95.0	98492.0	531.0	0.0	0.0	0.0	0.0	-8.0	-14.0	-104265.0	0.0	0.060321927070617676	0.21125175058841705	0.0	2048.0	2048.0	2568.0	70.0	70.0	70.0	70.0	1515967916839.0
2016-03-31 12:29:28.945	0.0	-0.25	0.0	0.0	7.0	83.0	-59.0	13.0	-95.0	98492.0	531.0	0.0	0.0	0.0	0.0	-7.0	-15.0	-104265.0	0.0	0.06131169199943544	0.1475427746772766	0.0	2048.0	2048.0	2568.0	70.0	70.0	70.0	70.0	1515970921600.0
2016-03-31 12:29:28.950	0.0	-0.25	0.0	0.0	7.0	83.0	-59.0	13.0	-91.0	98483.0	531.0	0.0	0.0	0.0	0.0	-7.0	-15.5	-104265.0	0.0	0.07052360102534294	0.10640554130077362	0.0	2048.0	2048.0	2568.0	70.0	70.0	70.0	70.0	1515973929168.0
2016-03-31 12:29:28.955	0.0	-0.25	0.0	0.0	7.0	83.0	-59.0	13.0	-91.0	98483.0	531.0	0.0	0.0	0.0	0.0	-7.0	-15.5	-104265.0	0.0	0.07052360102534294	0.10640554130077362	0.0	2048.0	2048.0	2568.0	70.0	70.0	70.0	70.0	1515973929168.0
2016-03-31 12:29:28.960	0.0	-0.25	0.0	0.0	7.0	83.0	-64.0	12.0	-92.0	98492.0	531.0	0.0	0.0	0.0	0.0	-8.0	-16.0	-104265.0	0.0	0.07362989336252213	0.07175106555223465	0.0	2048.0	2048.0	2568.0	70.0	70.0	70.0	70.0	1515977936676.0
2016-03-31 12:29:28.965	0.0	-0.25	0.0	0.0	7.0	83.0	-64.0	12.0	-92.0	98492.0	531.0	0.0	0.0	0.0	0.0	-9.0	-16.0	-104265.0	0.0	0.07899574935436249	0.02534636482596397	0.0	2048.0	2048.0	2564.0	70.0	70.0	70.0	70.0	1515979941680.0
2016-03-31 12:29:28.970	0.0	-0.25	0.0	0.0	7.0	83.0	-54.0	14.0	-92.0	98492.0	531.0	0.0	0.0	0.0	0.0	-9.0	-16.0	-104266.0	0.0	0.0776410698890686	0.03323623538017273	0.0	2048.0	2044.0	2568.0	70.0	70.0	70.0	70.0	1515982946716.0
2016-03-31 12:29:28.975	0.0	-0.25	0.0	0.0	7.0	83.0	-54.0	14.0	-92.0	98492.0	531.0	0.0	0.0	0.0	0.0	-9.0	-16.0	-104266.0	0.0	0.08017905056476593	0.05005955323576927	0.0	2048.0	2048.0	2564.0	70.0	70.0	70.0	70.0	1515984951721.0
2016-03-31 12:29:28.980	0.0	-0.25	0.0	0.0	7.0	83.0	-63.0	7.0	-97.0	98495.0	531.0	0.0	0.0	0.0	0.0	-9.0	-17.0	-104266.0	0.0	0.08187976479530333	0.1061042547225952	0.0	2048.0	2048.0	2564.0	70.0	70.0	70.0	70.0	1515987956878.0
2016-03-31 12:29:28.985	0.0	-0.25	0.0	0.0	7.0	83.0	-63.0	7.0	-97.0	98501.0	531.0	0.0	0.0	0.0	0.0	-10.0	-18.0	-104266.0	0.0	0.08638231456279755	0.11247722059488297	0.0	2048.0	2048.0	2564.0	70.0	70.0	70.0	70.0	1515989962158.0
2016-03-31 12:29:28.990	0.0	-0.25	0.0	0.0	7.0	83.0	-56.0	12.0	-92.0	98504.0	531.0	0.0	0.0	0.0	0.0	-10.0	-18.0	-104266.0	0.0	0.058146558701992035	0.08158205449581146	0.0	2044.0	2048.0	2564.0	70.0	70.0	70.0	70.0	1515992967010.0
2016-03-31 12:29:28.995	0.0	-0.25	0.0	0.0	7.0	83.0	-56.0	12.0	-92.0	98501.0	531.0	0.0	0.0	0.0	0.0	-10.0	-19.0	-104266.0	0.0	-0.010915108025074005	0.025101615116000172	0.0	2044.0	2048.0	2564.0	70.0	70.0	70.0	70.0	1515994971740.0
2016-03-31 12:29:29.000	0.0	-0.25	0.0	0.0	7.0	83.0	-56.0	10.0	-96.0	98486.0	531.0	0.0	0.0	0.0	0.0	-12.0	-18.0	-104265.0	0.0	-0.1523488163948059	-0.04453015327453613	0.0	2044.0	2048.0	2568.0	70.0	70.0	70.0	70.0	1515996976837.0
2016-03-31 12:29:29.005	0.0	-0.25	0.0	0.0	7.0	83.0	-56.0	10.0	-96.0	98483.0	531.0	0.0	0.0	0.0	0.0	-13.0	-19.0	-104265.0	0.0	-0.28122472763061523	-0.05993792042136192	0.0	2048.0	2048.0	2568.0	70.0	70.0	70.0	70.0	1515999981842.0
2016-03-31 12:29:29.010	0.0	-0.25	0.0	0.0	7.0	83.0	-57.0	11.0	-91.0	98489.0	531.0	0.0	0.0	0.0	0.0	-15.0	-18.0	-104265.0	0.0	-0.3613322973251343	-0.092337504029274	0.0	2048.0	2048.0	2568.0	70.0	70.0	70.0	70.0	1516001986846.0
2016-03-31 12:29:29.015	0.0	-0.25	0.0	0.0	7.0	83.0	-58.5	12.5	-89.5	98490.5	531.0	0.0	0.0	0.0	0.0	-15.0	-19.0	-104266.0	0.0	-0.28289830684661865	-0.1092798113822937	0.0	2048.0	2048.0	2568.0	70.0	70.0	70.0	70.0	1516005994552.0
2016-03-31 12:29:29.020	0.0	-0.25	0.0	0.0	7.0	83.0	-58.5	12.5	-89.5	98490.5	531.0	0.0	0.0	0.0	0.0	-15.0	-19.0	-104266.0	0.0	-0.28289830684661865	-0.1092798113822937	0.0	2048.0	2048.0	2568.0	70.0	70.0	70.0	70.0	1516005994552.0
2016-03-31 12:29:29.025	0.0	-0.25	0.0	0.0	7.0	83.0	-60.0	14.0	-88.0	98486.0	531.0	0.0	0.0	0.0	0.0	-15.0	-19.0	-104266.0	0.0	-0.14794091880321505	-0.14502209424972534	0.0	2048.0	2048.0	2568.0	70.0	70.0	70.0	70.0	1516544001892.0
2016-03-31 12:29:29.030	0.0	-0.25	0.0	0.0	7.0	83.0	-58.0	18.0	-90.0	98492.0	531.0	0.0	0.0	0.0	0.0	-15.0	-19.0	-104266.0	0.0	-0.08305273205041885	-0.15522994101047516	0.0	2048.0	2048.0	2568.0	70.0	70.0	70.0	70.0	1516547006866.0
2016-03-31 12:29:29.035	0.0	-0.25	0.0	0.0	7.0	83.0	-58.0	18.0	-90.0	98495.0	531.0	0.0	0.0	0.0	0.0	-15.0	-20.0	-104266.0	0.0	-0.07630214840173721	-0.17193099856376648	0.0	2048.0	2048.0	2568.0	70.0	70.0	70.0	70.0	1516549011901.0
2016-03-31 12:29:29.040	0.0	-0.25	0.0	0.0	7.0	83.0	-60.0	12.0	-90.0	98495.0	531.0	0.0	0.0	0.0	0.0	-14.0	-20.0	-104266.0	0.0	-0.04622350260615349	-0.17593702673912048	0.0	2048.0	2048.0	2568.0	70.0	70.0	70.0	70.0	1516552016876.0
2016-03-31 12:29:29.045	0.0	-0.25	0.0	0.0	7.0	83.0	-60.0	12.0	-90.0	98492.0	531.0	0.0	0.0	0.0	0.0	-14.0	-20.0	-104266.0	0.0	-0.01921369880437851	-0.1875154674053192	0.0	2048.0	2048.0	2568.0	70.0	70.0	70.0	70.0	1516554021850.0
2016-03-31 12:29:29.050	0.0	-0.25	0.0	0.0	7.0	83.0	-54.0	10.0	-98.0	98486.0	531.0	0.0	0.0	0.0	0.0	-14.0	-20.0	-104267.0	0.0	0.02106618694961071	-0.19709382951259613	0.0	2048.0	2048.0	2568.0	70.0	70.0	70.0	70.0	1516557027191.0
2016-03-31 12:29:29.055	0.0	-0.25	0.0	0.0	7.0	83.0	-56.5	12.5	-94.5	98486.0	531.0	0.0	0.0	0.0	0.0	-14.0	-20.0	-104267.0	0.0	0.057315507903695107	-0.20778760313987732	0.0	2048.0	2048.0	2568.0	70.0	70.0	70.0	70.0	1516560534652.5
2016-03-31 12:29:29.060	0.0	-0.25	0.0	0.0	7.0	83.0	-56.5	12.5	-94.5	98486.0	531.0	0.0	0.0	0.0	0.0	-14.0	-20.0	-104267.0	0.0	0.057315507903695107	-0.20778760313987732	0.0	2048.0	2048.0	2568.0	70.0	70.0	70.0	70.0	1516560534652.5
2016-03-31 12:29:29.065	0.0	-0.25	0.0	0.0	7.0	83.0	-59.0	15.0	-91.0	98486.0	531.0	0.0	0.0	0.0	0.0	-14.0	-20.0	-104267.0	0.0	0.0805133655667305	-0.2163211852312088	0.0	2048.0	2048.0	2568.0	70.0	70.0	70.0	70.0	1516564041992.0
2016-03-31 12:29:29.070	0.0	-0.25	0.0	0.0	7.0	83.0	-57.0	13.0	-95.0	98489.0	531.0	0.0	0.0	0.0	0.0	-14.0	-20.0	-104267.0	0.0	0.09300366044044496	-0.2222718447446823	0.0	2048.0	2048.0	2568.0	70.0	70.0	70.0	70.0	1516566047027.0
2016-03-31 12:29:29.075	0.0	-0.25	0.0	0.0	7.0	83.0	-57.0	13.0	-95.0	98492.0	531.0	0.0	0.0	0.0	0.0	-14.0	-21.0	-104267.0	0.0	0.10990600287914276	-0.22712144255638125	0.0	2048.0	2048.0	2568.0	70.0	70.0	70.0	70.0	1516569052001.0
2016-03-31 12:29:29.080	0.0	-0.25	0.0	0.0	7.0	83.0	-60.0	10.0	-84.0	98487.5	531.0	0.0	0.0	0.0	0.0	-14.5	-21.0	-104266.5	0.0	0.13239224255084991	-0.23264554142951968	0.0	2048.0	2048.0	2568.0	70.0	70.0	70.0	70.0	1516572559753.0
2016-03-31 12:29:29.085	0.0	-0.25	0.0	0.0	7.0	83.0	-60.0	10.0	-84.0	98487.5	531.0	0.0	0.0	0.0	0.0	-14.5	-21.0	-104266.5	0.0	0.13239224255084991	-0.23264554142951968	0.0	2048.0	2048.0	2568.0	70.0	70.0	70.0	70.0	1516572559753.0
2016-03-31 12:29:29.090	0.0	-0.25	0.0	0.0	7.0	83.0	-58.0	10.0	-94.0	98489.0	531.0	0.0	0.0	0.0	0.0	-15.0	-22.0	-104266.0	0.0	0.15240046381950378	-0.23795464634895325	0.0	2048.0	2048.0	2568.0	70.0	70.0	70.0	70.0	1516576067047.0
2016-03-31 12:29:29.095	0.0	-0.25	0.0	0.0	7.0	83.0	-58.0	10.0	-94.0	98489.0	531.0	0.0	0.0	0.0	0.0	-15.0	-22.0	-104266.0	0.0	0.16377662122249606	-0.2421814203262329	0.0	2048.0	2048.0	2568.0	70.0	70.0	70.0	70.0	1516579072082.0
2016-03-31 12:29:29.100	0.0	-0.25	0.0	0.0	7.0	83.0	-57.0	15.0	-93.0	98480.0	531.0	0.0	0.0	0.0	0.0	-15.0	-22.0	-104266.0	0.0	0.17548544704914093	-0.24657759070396426	0.0	2048.0	2048.0	2568.0	70.0	70.0	70.0	70.0	1516581077270.0
2016-03-31 12:29:29.105	0.0	-0.25	0.0	0.0	7.0	83.0	-57.5	13.5	-94.5	98487.5	531.0	0.0	0.0	0.0	0.0	-15.0	-22.0	-104265.5	0.0	0.18993721157312396	-0.2526402324438095	0.0	2048.0	2048.0	2568.0	70.0	70.0	70.0	70.0	1516585084609.5
2016-03-31 12:29:29.110	0.0	-0.25	0.0	0.0	7.0	83.0	-57.5	13.5	-94.5	98487.5	531.0	0.0	0.0	0.0	0.0	-15.0	-22.0	-104265.5	0.0	0.18993721157312396	-0.2526402324438095	0.0	2048.0	2048.0	2568.0	70.0	70.0	70.0	70.0	1516585084609.5
2016-03-31 12:29:29.115	0.0	-0.25	0.0	0.0	7.0	83.0	-58.0	12.0	-96.0	98489.0	531.0	0.0	0.0	0.0	0.0	-15.0	-23.0	-104265.0	0.0	0.20064149796962735	-0.2577869892120361	0.0	2048.0	2048.0	2568.0	70.0	70.0	70.0	70.0	1516589092315.0
2016-03-31 12:29:29.120	0.0	-0.25	0.0	0.0	7.0	83.0	-53.0	13.0	-95.0	98480.0	531.0	0.0	0.0	0.0	0.0	-15.0	-22.0	-104266.0	0.0	0.20662404596805573	-0.26112815737724304	0.0	2048.0	2048.0	2568.0	70.0	70.0	70.0	70.0	1516592099731.0
2016-03-31 12:29:29.125	0.0	-0.25	0.0	0.0	7.0	83.0	-53.0	13.0	-95.0	98480.0	531.0	0.0	0.0	0.0	0.0	-15.0	-22.0	-104266.0	0.0	0.20662404596805573	-0.26112815737724304	0.0	2048.0	2048.0	2568.0	70.0	70.0	70.0	70.0	1516592099731.0
2016-03-31 12:29:29.130	0.0	-0.25	0.0	0.0	7.0	83.0	-63.0	13.0	-89.0	98489.0	531.0	0.0	0.0	0.0	0.0	-16.0	-22.0	-104266.0	0.0	0.17422813177108765	-0.2639871835708618	0.0	2044.0	2048.0	2568.0	70.0	70.0	70.0	70.0	1516596107299.0
2016-03-31 12:29:29.135	0.0	-0.25	0.0	0.0	7.0	83.0	-63.0	13.0	-89.0	98489.0	531.0	0.0	0.0	0.0	0.0	-16.0	-22.0	-104266.0	0.0	0.13586010038852692	-0.2656794488430023	0.0	2048.0	2048.0	2564.0	70.0	70.0	70.0	70.0	1516598112243.0
2016-03-31 12:29:29.140	0.0	-0.25	0.0	0.0	7.0	83.0	-56.0	14.0	-94.0	98486.0	531.0	0.0	0.0	0.0	0.0	-17.0	-23.0	-104266.0	0.0	0.06447002291679382	-0.2681281566619873	0.0	2048.0	2048.0	2564.0	70.0	70.0	70.0	70.0	1516601117309.0
2016-03-31 12:29:29.145	0.0	-0.25	0.0	0.0	7.0	83.0	-57.5	13.5	-91.5	98486.0	531.0	0.0	0.0	0.0	0.0	-17.0	-23.0	-104266.0	0.0	0.051874713972210884	-0.2683909833431244	0.0	2048.0	2048.0	2564.0	70.0	70.0	70.0	70.0	1516604624755.0
2016-03-31 12:29:29.150	0.0	-0.25	0.0	0.0	7.0	83.0	-57.5	13.5	-91.5	98486.0	531.0	0.0	0.0	0.0	0.0	-17.0	-23.0	-104266.0	0.0	0.051874713972210884	-0.2683909833431244	0.0	2048.0	2048.0	2564.0	70.0	70.0	70.0	70.0	1516604624755.0
2016-03-31 12:29:29.155	0.0	-0.25	0.0	0.0	7.0	83.0	-59.0	13.0	-89.0	98492.0	531.0	0.0	0.0	0.0	0.0	-17.0	-24.0	-104267.0	0.0	0.09738339483737946	-0.2673782110214233	0.0	2048.0	2048.0	2564.0	70.0	70.0	70.0	70.0	1516608132232.0
2016-03-31 12:29:29.160	0.0	-0.25	0.0	0.0	7.0	83.0	-59.0	13.0	-93.0	98492.0	531.0	0.0	0.0	0.0	0.0	-17.0	-24.5	-104267.0	0.0	0.14661633223295212	-0.2685736566781998	0.0	2048.0	2048.0	2564.0	70.0	70.0	70.0	70.0	1516612139862.0
2016-03-31 12:29:29.165	0.0	-0.25	0.0	0.0	7.0	83.0	-59.0	13.0	-93.0	98492.0	531.0	0.0	0.0	0.0	0.0	-17.0	-24.5	-104267.0	0.0	0.14661633223295212	-0.2685736566781998	0.0	2048.0	2048.0	2564.0	70.0	70.0	70.0	70.0	1516612139862.0
2016-03-31 12:29:29.170	0.0	-0.25	0.0	0.0	7.0	83.0	-65.0	11.0	-91.0	98486.0	531.0	0.0	0.0	0.0	0.0	-17.0	-25.0	-104267.0	0.0	0.16403669118881226	-0.2730225920677185	0.0	2048.0	2048.0	2568.0	70.0	70.0	70.0	70.0	1516615147308.0
2016-03-31 12:29:29.175	0.0	-0.25	0.0	0.0	7.0	83.0	-65.0	11.0	-91.0	98489.0	531.0	0.0	0.0	0.0	0.0	-18.0	-25.0	-104267.0	0.0	0.15539339184761047	-0.27775639295578003	0.0	2048.0	2048.0	2568.0	70.0	70.0	70.0	70.0	1516618152252.0
2016-03-31 12:29:29.180	0.0	-0.25	0.0	0.0	7.0	83.0	-56.0	14.0	-94.0	98492.0	531.0	0.0	0.0	0.0	0.0	-18.0	-26.0	-104267.0	0.0	0.1854870840907097	-0.28291501104831696	0.0	2048.0	2048.0	2568.0	70.0	70.0	70.0	70.0	1516622160110.0
2016-03-31 12:29:29.185	0.0	-0.25	0.0	0.0	7.0	83.0	-56.0	14.0	-94.0	98492.0	531.0	0.0	0.0	0.0	0.0	-18.0	-26.0	-104267.0	0.0	0.1854870840907097	-0.28291501104831696	0.0	2048.0	2048.0	2568.0	70.0	70.0	70.0	70.0	1516622160110.0
2016-03-31 12:29:29.190	0.0	-0.25	0.0	0.0	7.0	83.0	-63.0	17.0	-95.0	98492.0	531.0	0.0	0.0	0.0	0.0	-18.0	-27.0	-104267.0	0.0	0.19955945014953613	-0.288023054599762	0.0	2048.0	2048.0	2568.0	70.0	70.0	70.0	70.0	1516625167358.0
2016-03-31 12:29:29.195	0.0	-0.25	0.0	0.0	7.0	83.0	-63.0	17.0	-95.0	98492.0	531.0	0.0	0.0	0.0	0.0	-18.0	-28.0	-104267.0	0.0	0.21182917058467865	-0.2908641695976257	0.0	2048.0	2048.0	2568.0	70.0	70.0	70.0	70.0	1516628172363.0
2016-03-31 12:29:29.200	0.0	-0.25	0.0	0.0	7.0	83.0	-64.0	12.0	-92.0	98495.0	531.0	0.0	0.0	0.0	0.0	-19.0	-28.0	-104267.0	0.0	0.1755038946866989	-0.29529619216918945	0.0	2044.0	2048.0	2568.0	70.0	70.0	70.0	70.0	1516630177429.0
2016-03-31 12:29:29.205	0.0	-0.25	0.0	0.0	7.0	83.0	-64.0	12.0	-92.0	98492.0	531.0	0.0	0.0	0.0	0.0	-19.0	-28.0	-104268.0	0.0	0.10650356113910676	-0.3005630373954773	0.0	2044.0	2048.0	2568.0	70.0	70.0	70.0	70.0	1516633182403.0
2016-03-31 12:29:29.210	0.0	-0.25	0.0	0.0	7.0	83.0	-60.0	16.0	-96.0	98489.0	531.0	0.0	0.0	0.0	0.0	-21.0	-29.0	-104268.0	0.0	-0.0383186899125576	-0.3086983263492584	0.0	2044.0	2048.0	2564.0	70.0	70.0	70.0	70.0	1516635187377.0
2016-03-31 12:29:29.215	0.0	-0.25	0.0	0.0	7.0	83.0	-60.0	16.0	-96.0	98492.0	531.0	0.0	0.0	0.0	0.0	-23.0	-29.0	-104269.0	0.0	-0.2080555111169815	-0.31752246618270874	0.0	2044.0	2048.0	2564.0	70.0	70.0	70.0	70.0	1516638192626.0
2016-03-31 12:29:29.220	0.0	-0.25	0.0	0.0	7.0	83.0	-58.0	10.0	-92.0	98492.0	531.0	0.0	0.0	0.0	0.0	-24.0	-29.0	-104269.0	0.0	-0.3665336966514587	-0.3259138166904449	0.0	2044.0	2048.0	2564.0	70.0	70.0	70.0	70.0	1516640197845.0
2016-03-31 12:29:29.225	0.0	-0.25	0.0	0.0	7.0	83.0	-58.0	10.0	-92.0	98492.0	531.0	0.0	0.0	0.0	0.0	-24.0	-29.0	-104269.0	0.0	-0.3665336966514587	-0.3259138166904449	0.0	2044.0	2048.0	2564.0	70.0	70.0	70.0	70.0	1516640197845.0
2016-03-31 12:29:29.230	0.0	-0.25	0.0	0.0	7.0	83.0	-58.0	10.0	-92.0	98489.0	531.0	0.0	0.0	0.0	0.0	-26.0	-29.0	-104269.0	0.0	-0.4925987720489502	-0.3326290547847748	0.0	2044.0	2048.0	2564.0	70.0	70.0	70.0	70.0	1516642202484.0
2016-03-31 12:29:29.235	0.0	-0.25	0.0	0.0	7.0	83.0	-61.0	13.0	-97.0	98495.0	531.0	0.0	0.0	0.0	0.0	-27.5	-30.0	-104268.0	0.0	-0.6083899736404419	-0.33871401846408844	0.0	2044.0	2048.0	2566.0	70.0	70.0	70.0	70.0	1516646209945.0
2016-03-31 12:29:29.240	0.0	-0.25	0.0	0.0	7.0	83.0	-59.0	11.0	-91.0	98489.0	531.0	0.0	0.0	0.0	0.0	-29.5	-30.0	-104269.0	0.0	-0.7341922521591187	-0.3437459021806717	0.0	2046.0	2048.0	2568.0	70.0	70.0	70.0	70.0	1516651220016.0
2016-03-31 12:29:29.245	0.0	-0.25	0.0	0.0	7.0	83.0	-59.0	11.0	-91.0	98489.0	531.0	0.0	0.0	0.0	0.0	-29.5	-30.0	-104269.0	0.0	-0.7341922521591187	-0.3437459021806717	0.0	2046.0	2048.0	2568.0	70.0	70.0	70.0	70.0	1516651220016.0
2016-03-31 12:29:29.250	0.0	-0.25	0.0	0.0	7.0	83.0	-59.0	13.0	-87.0	98486.0	531.0	0.0	0.0	0.0	0.0	-31.0	-30.0	-104269.0	0.0	-0.7345151305198669	-0.3429956138134003	0.0	2048.0	2048.0	2568.0	70.0	70.0	70.0	70.0	1516655227630.0
2016-03-31 12:29:29.255	0.0	-0.25	0.0	0.0	7.0	83.0	-59.0	13.0	-87.0	98486.0	531.0	0.0	0.0	0.0	0.0	-31.0	-30.0	-104269.0	0.0	-0.7345151305198669	-0.3429956138134003	0.0	2048.0	2048.0	2568.0	70.0	70.0	70.0	70.0	1516655227630.0
2016-03-31 12:29:29.260	0.0	-0.25	0.0	0.0	7.0	83.0	-59.0	13.0	-87.0	98489.0	531.0	0.0	0.0	0.0	0.0	-31.0	-30.0	-104268.0	0.0	-0.6626114845275879	-0.33974897861480713	0.0	2044.0	2048.0	2564.0	70.0	70.0	70.0	70.0	1516657232543.0
2016-03-31 12:29:29.265	0.0	-0.25	0.0	0.0	7.0	83.0	-59.0	13.0	-87.0	98489.0	531.0	0.0	0.0	0.0	0.0	-31.0	-30.0	-104268.0	0.0	-0.6626114845275879	-0.33974897861480713	0.0	2044.0	2048.0	2564.0	70.0	70.0	70.0	70.0	1516657232543.0
2016-03-31 12:29:29.270	0.0	-0.25	0.0	0.0	7.0	83.0	-62.0	12.0	-88.0	98495.0	531.0	0.0	0.0	0.0	0.0	-32.0	-32.0	-104270.0	0.0	-0.5436635017395021	-0.3341960310935974	0.0	2044.0	2056.0	2564.0	70.0	70.0	70.0	70.0	1516662242797.0
2016-03-31 12:29:29.275	0.0	-0.25	0.0	0.0	7.0	83.0	-53.0	-3.0	-93.0	98495.0	531.0	0.0	0.0	0.0	0.0	-34.0	-29.0	-104277.0	0.0	-0.4629748165607453	-0.4131781756877899	0.0	2052.0	2056.0	2564.0	70.0	70.0	70.0	70.0	1516664247589.0
2016-03-31 12:29:29.280	0.0	-0.25	0.0	0.0	7.0	83.0	-54.5	0.5	-91.5	98490.5	531.0	0.0	0.0	0.0	0.0	-34.5	-25.5	-104280.0	0.0	-0.27410830557346344	-0.6784082055091858	0.0	2050.0	2048.0	2564.0	70.0	70.0	70.0	70.0	1516668255294.0
2016-03-31 12:29:29.285	0.0	-0.25	0.0	0.0	7.0	83.0	-56.0	4.0	-90.0	98492.0	531.0	0.0	0.0	0.0	0.0	-30.0	-25.0	-104269.0	0.0	0.11862000077962875	-0.7538695931434631	0.0	2056.0	2044.0	2564.0	70.0	70.0	70.0	70.0	1516672262634.0
2016-03-31 12:29:29.290	0.0	-0.25	0.0	0.0	7.0	83.0	-48.0	12.0	-92.0	98498.0	531.0	0.0	0.0	0.0	0.0	-27.0	-27.0	-104255.0	0.0	0.2835224866867065	-0.7169123888015747	0.0	2044.0	2048.0	2564.0	70.0	70.0	70.0	70.0	1516674267669.0
2016-03-31 12:29:29.295	0.0	-0.25	0.0	0.0	7.0	83.0	-48.0	12.0	-92.0	98495.0	531.0	0.0	0.0	0.0	0.0	-27.0	-28.0	-104257.0	0.0	0.4595202207565308	-0.5221841335296631	0.0	2048.0	2052.0	2568.0	70.0	70.0	70.0	70.0	1516677272644.0
2016-03-31 12:29:29.300	0.0	-0.25	0.0	0.0	7.0	83.0	-72.0	16.0	-92.0	98483.0	531.0	0.0	0.0	0.0	0.0	-25.0	-30.0	-104264.0	0.0	0.3654709160327912	-0.4638741314411163	0.0	2048.0	2044.0	2572.0	70.0	70.0	70.0	70.0	1516679277862.0
2016-03-31 12:29:29.305	0.0	-0.25	0.0	0.0	7.0	83.0	-72.0	16.0	-92.0	98483.0	531.0	0.0	0.0	0.0	0.0	-29.0	-25.0	-104283.0	0.0	0.4367848634719849	-0.511647641658783	0.0	2056.0	2052.0	2568.0	70.0	70.0	70.0	70.0	1516682282714.0
2016-03-31 12:29:29.310	0.0	-0.25	0.0	0.0	7.0	83.0	-96.0	6.0	-84.0	98478.0	531.0	0.0	0.0	0.0	0.0	-15.5	-28.0	-104304.5	0.0	0.5700237900018692	-0.6412003487348557	0.0	2048.0	2058.0	2560.0	70.0	70.0	70.0	70.0	1516685790405.0
2016-03-31 12:29:29.315	0.0	-0.25	0.0	0.0	7.0	83.0	-96.0	6.0	-84.0	98478.0	531.0	0.0	0.0	0.0	0.0	-15.5	-28.0	-104304.5	0.0	0.5700237900018692	-0.6412003487348557	0.0	2048.0	2058.0	2560.0	70.0	70.0	70.0	70.0	1516685790405.0
2016-03-31 12:29:29.320	0.0	-0.25	0.0	0.0	7.0	83.0	-77.0	-9.0	-83.0	98498.0	531.0	0.0	0.0	0.0	0.0	0.0	-23.0	-104320.0	0.0	0.8405752182006836	-0.9623627066612244	0.0	2052.0	2056.0	2552.0	70.0	70.0	70.0	70.0	1516689297790.0
2016-03-31 12:29:29.325	0.0	-0.25	0.0	0.0	7.0	83.0	-77.0	-9.0	-83.0	98498.0	531.0	0.0	0.0	0.0	0.0	8.0	-18.0	-104316.0	0.0	0.7916538715362549	-1.3528494834899902	0.0	2052.0	2040.0	2580.0	70.0	70.0	70.0	70.0	1516691302764.0
2016-03-31 12:29:29.330	0.0	-0.25	0.0	0.0	7.0	83.0	-61.0	5.0	-95.0	98501.0	531.0	0.0	0.0	0.0	0.0	4.0	-8.0	-104338.0	0.0	0.8114237189292908	-1.6778322458267212	0.0	2044.0	2068.0	2576.0	70.0	70.0	70.0	70.0	1516694307800.0
2016-03-31 12:29:29.335	0.0	-0.25	0.0	0.0	7.0	83.0	-61.0	5.0	-95.0	98501.0	531.0	0.0	0.0	0.0	0.0	0.0	-6.0	-104365.0	0.0	0.777684211730957	-1.7321237325668335	0.0	2060.0	2056.0	2580.0	70.0	70.0	70.0	70.0	1516696312713.0
2016-03-31 12:29:29.340	0.0	-0.25	0.0	0.0	7.0	83.0	-103.0	11.0	-89.0	98480.0	531.0	0.0	0.0	0.0	0.0	-20.0	-7.0	-104401.0	0.0	0.6557587385177612	-2.021622896194458	0.0	2028.0	2052.0	2560.0	70.0	70.0	70.0	70.0	1516699317901.0
2016-03-31 12:29:29.345	0.0	-0.25	0.0	0.0	7.0	83.0	-103.0	11.0	-89.0	98480.0	531.0	0.0	0.0	0.0	0.0	-20.0	-7.0	-104401.0	0.0	0.6557587385177612	-2.021622896194458	0.0	2028.0	2052.0	2560.0	70.0	70.0	70.0	70.0	1516699317901.0
2016-03-31 12:29:29.350	0.0	-0.25	0.0	0.0	7.0	83.0	-97.5	6.5	-89.5	98489.0	531.0	0.0	0.0	0.0	0.0	-42.5	-12.5	-104443.5	0.0	0.5982696861028671	-2.095092535018921	0.0	2052.0	2048.0	2560.0	70.0	70.0	70.0	70.0	1516702825515.0
2016-03-31 12:29:29.355	0.0	-0.25	0.0	0.0	7.0	83.0	-88.5	1.5	-85.5	98492.0	531.0	0.0	0.0	0.0	0.0	-33.5	-24.0	-104438.0	0.0	0.578417032957077	-1.6812447905540466	0.0	2048.0	2040.0	2574.0	70.0	70.0	70.0	70.0	1516707335372.5
2016-03-31 12:29:29.360	0.0	-0.25	0.0	0.0	7.0	83.0	-88.5	1.5	-85.5	98492.0	531.0	0.0	0.0	0.0	0.0	-33.5	-24.0	-104438.0	0.0	0.578417032957077	-1.6812447905540466	0.0	2048.0	2040.0	2574.0	70.0	70.0	70.0	70.0	1516707335372.5
2016-03-31 12:29:29.365	0.0	-0.25	0.0	0.0	7.0	83.0	-85.0	1.0	-81.0	98486.0	531.0	0.0	0.0	0.0	0.0	-13.0	-29.0	-104417.0	0.0	0.7311484217643738	-0.9613687992095948	0.0	2052.0	2052.0	2568.0	70.0	70.0	70.0	70.0	1516711342864.0
2016-03-31 12:29:29.370	0.0	-0.25	0.0	0.0	7.0	83.0	-54.0	-6.0	-98.0	98498.0	531.0	0.0	0.0	0.0	0.0	-17.0	-18.0	-104417.0	0.0	0.9457576274871826	-0.2324374169111252	0.0	2048.0	2024.0	2556.0	70.0	70.0	70.0	70.0	1516713347839.0
2016-03-31 12:29:29.375	0.0	-0.25	0.0	0.0	7.0	83.0	-54.0	-6.0	-98.0	98498.0	531.0	0.0	0.0	0.0	0.0	-24.0	-25.0	-104416.0	0.0	0.8607497215270996	0.08822395652532578	0.0	2056.0	2032.0	2556.0	70.0	70.0	70.0	70.0	1516716353118.0
2016-03-31 12:29:29.380	0.0	-0.25	0.0	0.0	7.0	83.0	-54.0	-6.0	-98.0	98498.0	531.0	0.0	0.0	0.0	0.0	-24.0	-25.0	-104416.0	0.0	0.8607497215270996	0.08822395652532578	0.0	2056.0	2032.0	2556.0	70.0	70.0	70.0	70.0	1516716353118.0
2016-03-31 12:29:29.385	0.0	-0.25	0.0	0.0	7.0	83.0	-94.0	16.0	-96.0	98489.0	531.0	0.0	0.0	0.0	0.0	-33.0	-22.0	-104420.0	0.0	1.209463119506836	0.7188118100166321	0.0	2068.0	2032.0	2564.0	70.0	70.0	70.0	70.0	1516718358367.0
2016-03-31 12:29:29.390	0.0	-0.25	0.0	0.0	7.0	83.0	-94.0	16.0	-96.0	98492.0	531.0	0.0	0.0	0.0	0.0	-23.0	-33.0	-104417.0	0.0	1.3151973485946655	1.4567852020263672	0.0	2052.0	2036.0	2584.0	70.0	70.0	70.0	70.0	1516721363067.0
2016-03-31 12:29:29.395	0.0	-0.25	0.0	0.0	7.0	83.0	-99.0	17.0	-89.0	98492.0	531.0	0.0	0.0	0.0	0.0	-15.5	-35.5	-104417.5	0.0	1.5708633661270142	2.041671335697174	0.0	2038.0	2054.0	2580.0	70.0	70.0	70.0	70.0	1516724870513.0
2016-03-31 12:29:29.400	0.0	-0.25	0.0	0.0	7.0	83.0	-64.0	-4.0	-90.0	98489.0	531.0	0.0	0.0	0.0	0.0	-21.0	-42.0	-104429.0	0.0	1.0841531753540041	1.6734888553619385	0.0	2052.0	2048.0	2564.0	70.0	70.0	70.0	70.0	1516728377990.0
2016-03-31 12:29:29.405	0.0	-0.25	0.0	0.0	7.0	83.0	-64.0	-4.0	-90.0	98489.0	531.0	0.0	0.0	0.0	0.0	-21.0	-42.0	-104429.0	0.0	1.0841531753540041	1.6734888553619385	0.0	2052.0	2048.0	2564.0	70.0	70.0	70.0	70.0	1516728377990.0
2016-03-31 12:29:29.410	0.0	-0.25	0.0	0.0	7.0	83.0	-64.0	-4.0	-90.0	98486.0	531.0	0.0	0.0	0.0	0.0	-31.0	-39.0	-104435.0	0.0	0.4806941747665405	1.2057267427444458	0.0	2032.0	2044.0	2556.0	70.0	70.0	70.0	70.0	1516731383148.0
2016-03-31 12:29:29.415	0.0	-0.25	0.0	0.0	7.0	83.0	-81.0	5.0	-97.0	98489.0	531.0	0.0	0.0	0.0	0.0	-25.0	-42.5	-104426.0	0.0	0.043584611266851425	0.8385816514492035	0.0	2052.0	2046.0	2570.0	70.0	70.0	70.0	70.0	1516734390701.0
2016-03-31 12:29:29.420	0.0	-0.25	0.0	0.0	7.0	83.0	-110.0	16.0	-90.0	98496.5	531.0	0.0	0.0	0.0	0.0	-6.5	-42.0	-104394.0	0.0	0.1389622911810875	1.0090460777282715	0.0	2044.0	2048.0	2572.0	70.0	70.0	70.0	70.0	1516739400634.5
2016-03-31 12:29:29.425	0.0	-0.25	0.0	0.0	7.0	83.0	-110.0	16.0	-90.0	98496.5	531.0	0.0	0.0	0.0	0.0	-6.5	-42.0	-104394.0	0.0	0.1389622911810875	1.0090460777282715	0.0	2044.0	2048.0	2572.0	70.0	70.0	70.0	70.0	1516739400634.5
2016-03-31 12:29:29.430	0.0	-0.25	0.0	0.0	7.0	83.0	-55.0	-11.0	-93.0	98486.0	531.0	0.0	0.0	0.0	0.0	-8.0	-43.0	-104386.0	0.0	0.15100210905075073	0.9390634298324584	0.0	2052.0	2048.0	2568.0	70.0	70.0	70.0	70.0	1516743408020.0
2016-03-31 12:29:29.435	0.0	-0.25	0.0	0.0	7.0	83.0	-55.0	-11.0	-93.0	98483.0	531.0	0.0	0.0	0.0	0.0	-14.0	-44.0	-104394.0	0.0	0.21177534759044647	0.7639340162277222	0.0	2056.0	2044.0	2564.0	70.0	70.0	70.0	70.0	1516745412963.0
2016-03-31 12:29:29.440	0.0	-0.25	0.0	0.0	7.0	83.0	-96.0	20.0	-86.0	98486.0	531.0	0.0	0.0	0.0	0.0	-18.0	-43.0	-104403.0	0.0	0.25550708174705505	0.6828570961952211	0.0	2052.0	2044.0	2564.0	70.0	70.0	70.0	70.0	1516748418212.0
2016-03-31 12:29:29.445	0.0	-0.25	0.0	0.0	7.0	83.0	-96.0	20.0	-86.0	98486.0	531.0	0.0	0.0	0.0	0.0	-18.0	-43.0	-104403.0	0.0	0.25550708174705505	0.6828570961952211	0.0	2052.0	2044.0	2564.0	70.0	70.0	70.0	70.0	1516748418212.0
2016-03-31 12:29:29.450	0.0	-0.25	0.0	0.0	7.0	83.0	-96.0	20.0	-86.0	98489.0	531.0	0.0	0.0	0.0	0.0	-17.0	-44.0	-104407.0	0.0	0.637768030166626	0.8057622313499451	0.0	2056.0	2048.0	2572.0	70.0	70.0	70.0	70.0	1516750423156.0
2016-03-31 12:29:29.455	0.0	-0.25	0.0	0.0	7.0	83.0	-66.0	-12.0	-92.0	98483.0	531.0	0.0	0.0	0.0	0.0	-11.0	-41.0	-104405.0	0.0	0.8776528239250183	0.6751753091812134	0.0	2052.0	2064.0	2572.0	70.0	70.0	70.0	70.0	1516753428192.0
2016-03-31 12:29:29.460	0.0	-0.25	0.0	0.0	7.0	83.0	-66.0	-12.0	-92.0	98483.0	531.0	0.0	0.0	0.0	0.0	-6.0	-39.0	-104401.0	0.0	1.0668420791625977	0.4776805341243744	0.0	2040.0	2052.0	2568.0	70.0	70.0	70.0	70.0	1516755433166.0
2016-03-31 12:29:29.465	0.0	-0.25	0.0	0.0	7.0	83.0	-84.0	16.0	-92.0	98495.0	531.0	0.0	0.0	0.0	0.0	-5.0	-36.0	-104395.0	0.0	1.0392309427261353	-0.06830693036317825	0.0	2048.0	2052.0	2564.0	70.0	70.0	70.0	70.0	1516758438323.0
2016-03-31 12:29:29.470	0.0	-0.25	0.0	0.0	7.0	83.0	-84.0	16.0	-92.0	98492.0	531.0	0.0	0.0	0.0	0.0	-4.0	-32.0	-104397.0	0.0	0.8449620008468628	-0.389534205198288	0.0	2056.0	2044.0	2564.0	70.0	70.0	70.0	70.0	1516760443176.0
2016-03-31 12:29:29.475	0.0	-0.25	0.0	0.0	7.0	83.0	-66.0	-10.0	-100.0	98489.0	531.0	0.0	0.0	0.0	0.0	-6.0	-33.0	-104399.0	0.0	0.8761869072914124	-0.4599384665489197	0.0	2056.0	2040.0	2564.0	70.0	70.0	70.0	70.0	1516762448211.0
2016-03-31 12:29:29.480	0.0	-0.25	0.0	0.0	7.0	83.0	-66.0	-10.0	-100.0	98492.0	531.0	0.0	0.0	0.0	0.0	-2.0	-34.0	-104404.0	0.0	1.0484580993652344	-0.18021634221076965	0.0	2056.0	2044.0	2568.0	70.0	70.0	70.0	70.0	1516765453521.0
2016-03-31 12:29:29.485	0.0	-0.25	0.0	0.0	7.0	83.0	-91.0	9.0	-75.0	98498.0	531.0	0.0	0.0	0.0	0.0	-1.0	-38.0	-104402.0	0.0	1.3144619464874268	0.20720213651657104	0.0	2044.0	2052.0	2568.0	70.0	70.0	70.0	70.0	1516767458221.0
2016-03-31 12:29:29.490	0.0	-0.25	0.0	0.0	7.0	83.0	-91.0	9.0	-75.0	98495.0	531.0	0.0	0.0	0.0	0.0	0.0	-38.0	-104397.0	0.0	1.519320011138916	0.2499261200428009	0.0	2052.0	2052.0	2568.0	70.0	70.0	70.0	70.0	1516770463500.0
2016-03-31 12:29:29.495	0.0	-0.25	0.0	0.0	7.0	83.0	-57.0	1.0	-103.0	98480.0	531.0	0.0	0.0	0.0	0.0	0.5	-37.0	-104388.5	0.0	1.2828059196472168	-0.17247483879327774	0.0	2050.0	2054.0	2566.0	70.0	70.0	70.0	70.0	1516773970764.0
2016-03-31 12:29:29.500	0.0	-0.25	0.0	0.0	7.0	83.0	-94.0	0.0	-78.0	98486.0	531.0	0.0	0.0	0.0	0.0	2.0	-35.0	-104390.0	0.0	1.0505200624465942	-0.6802924871444702	0.0	2052.0	2044.0	2568.0	70.0	70.0	70.0	70.0	1516777478363.0
2016-03-31 12:29:29.505	0.0	-0.25	0.0	0.0	7.0	83.0	-94.0	0.0	-78.0	98486.0	531.0	0.0	0.0	0.0	0.0	2.0	-35.0	-104390.0	0.0	1.0505200624465942	-0.6802924871444702	0.0	2052.0	2044.0	2568.0	70.0	70.0	70.0	70.0	1516777478363.0
2016-03-31 12:29:29.510	0.0	-0.25	0.0	0.0	7.0	83.0	-94.0	0.0	-78.0	98486.0	531.0	0.0	0.0	0.0	0.0	3.0	-35.0	-104396.0	0.0	1.171123743057251	-0.7478183507919312	0.0	2052.0	2048.0	2568.0	70.0	70.0	70.0	70.0	1516780483489.0
2016-03-31 12:29:29.515	0.0	-0.25	0.0	0.0	7.0	83.0	-83.0	17.0	-91.0	98489.0	531.0	0.0	0.0	0.0	0.0	5.0	-34.0	-104403.0	0.0	1.443572163581848	-0.6810072660446167	0.0	2048.0	2048.0	2568.0	70.0	70.0	70.0	70.0	1516782488433.0
2016-03-31 12:29:29.520	0.0	-0.25	0.0	0.0	7.0	83.0	-83.0	17.0	-91.0	98495.0	531.0	0.0	0.0	0.0	0.0	4.0	-36.0	-104401.0	0.0	1.5222412347793581	-0.6361812353134155	0.0	2044.0	2052.0	2568.0	70.0	70.0	70.0	70.0	1516784493316.0
2016-03-31 12:29:29.525	0.0	-0.25	0.0	0.0	7.0	83.0	-61.0	-3.0	-101.0	98495.0	531.0	0.0	0.0	0.0	0.0	4.0	-34.0	-104398.0	0.0	1.6040571928024292	-0.7019886374473572	0.0	2052.0	2052.0	2564.0	70.0	70.0	70.0	70.0	1516787498321.0
2016-03-31 12:29:29.530	0.0	-0.25	0.0	0.0	7.0	83.0	-61.0	-3.0	-101.0	98492.0	531.0	0.0	0.0	0.0	0.0	3.0	-36.0	-104391.0	0.0	1.256947040557861	-0.8881517052650452	0.0	2048.0	2052.0	2568.0	70.0	70.0	70.0	70.0	1516789503326.0
2016-03-31 12:29:29.535	0.0	-0.25	0.0	0.0	7.0	83.0	-93.0	7.0	-85.0	98495.0	531.0	0.0	0.0	0.0	0.0	3.0	-35.0	-104389.0	0.0	1.2681695222854614	-1.0054645538330078	0.0	2056.0	2044.0	2568.0	70.0	70.0	70.0	70.0	1516792508300.0
2016-03-31 12:29:29.540	0.0	-0.25	0.0	0.0	7.0	83.0	-93.0	7.0	-85.0	98492.0	531.0	0.0	0.0	0.0	0.0	4.0	-37.0	-104393.0	0.0	1.2234258651733398	-0.9886409640312196	0.0	2048.0	2044.0	2568.0	70.0	70.0	70.0	70.0	1516794513366.0
2016-03-31 12:29:29.545	0.0	-0.25	0.0	0.0	7.0	83.0	-86.0	14.0	-92.0	98486.0	531.0	0.0	0.0	0.0	0.0	2.0	-38.0	-104398.0	0.0	1.3451696634292605	-0.8017181158065796	0.0	2048.0	2048.0	2564.0	70.0	70.0	70.0	70.0	1516797518798.0
2016-03-31 12:29:29.550	0.0	-0.25	0.0	0.0	7.0	83.0	-86.0	14.0	-92.0	98489.0	531.0	0.0	0.0	0.0	0.0	3.0	-38.0	-104405.0	0.0	1.2791577577590942	-0.552631139755249	0.0	2044.0	2048.0	2568.0	70.0	70.0	70.0	70.0	1516799523437.0
2016-03-31 12:29:29.555	0.0	-0.25	0.0	0.0	7.0	83.0	-61.0	7.0	-97.0	98489.0	531.0	0.0	0.0	0.0	0.0	0.0	-39.0	-104407.0	0.0	1.059147596359253	-0.4999730885028839	0.0	2048.0	2052.0	2568.0	70.0	70.0	70.0	70.0	1516802528442.0
2016-03-31 12:29:29.560	0.0	-0.25	0.0	0.0	7.0	83.0	-61.0	7.0	-97.0	98489.0	531.0	0.0	0.0	0.0	0.0	0.0	-36.0	-104406.0	0.0	0.8622918725013733	-0.5582470297813416	0.0	2048.0	2052.0	2568.0	70.0	70.0	70.0	70.0	1516804533447.0
2016-03-31 12:29:29.565	0.0	-0.25	0.0	0.0	7.0	83.0	-70.0	2.0	-90.0	98495.0	531.0	0.0	0.0	0.0	0.0	-2.0	-37.0	-104400.0	0.0	0.6449310779571533	-0.7191085815429688	0.0	2048.0	2044.0	2568.0	70.0	70.0	70.0	70.0	1516806538452.0
2016-03-31 12:29:29.570	0.0	-0.25	0.0	0.0	7.0	83.0	-70.0	2.0	-90.0	98492.0	531.0	0.0	0.0	0.0	0.0	-2.0	-37.0	-104394.0	0.0	0.6833475828170776	-0.7769241333007812	0.0	2052.0	2048.0	2568.0	70.0	70.0	70.0	70.0	1516809543518.0
2016-03-31 12:29:29.575	0.0	-0.25	0.0	0.0	7.0	83.0	-90.0	2.0	-84.0	98489.0	531.0	0.0	0.0	0.0	0.0	0.0	-39.0	-104391.0	0.0	0.7086326479911804	-0.676817774772644	0.0	2052.0	2048.0	2568.0	70.0	70.0	70.0	70.0	1516811548706.0
2016-03-31 12:29:29.580	0.0	-0.25	0.0	0.0	7.0	83.0	-90.0	2.0	-84.0	98489.0	531.0	0.0	0.0	0.0	0.0	-2.0	-39.0	-104393.0	0.0	0.7867820262908936	-0.6007876992225647	0.0	2044.0	2052.0	2568.0	70.0	70.0	70.0	70.0	1516814553558.0
2016-03-31 12:29:29.585	0.0	-0.25	0.0	0.0	7.0	83.0	-94.0	10.0	-90.0	98489.0	531.0	0.0	0.0	0.0	0.0	0.0	-36.0	-104401.0	0.0	0.8759007453918457	-0.6263414621353149	0.0	2052.0	2052.0	2568.0	70.0	70.0	70.0	70.0	1516816558746.0
2016-03-31 12:29:29.590	0.0	-0.25	0.0	0.0	7.0	83.0	-94.0	10.0	-90.0	98489.0	531.0	0.0	0.0	0.0	0.0	-2.0	-36.0	-104406.0	0.0	0.8696080446243286	-0.807092010974884	0.0	2048.0	2048.0	2568.0	70.0	70.0	70.0	70.0	1516819563568.0
2016-03-31 12:29:29.595	0.0	-0.25	0.0	0.0	7.0	83.0	-89.0	11.0	-87.0	98486.0	531.0	0.0	0.0	0.0	0.0	0.0	-34.0	-104411.0	0.0	0.8943451642990112	-0.9201420545578004	0.0	2056.0	2048.0	2564.0	70.0	70.0	70.0	70.0	1516821568542.0
2016-03-31 12:29:29.600	0.0	-0.25	0.0	0.0	7.0	83.0	-89.0	11.0	-87.0	98495.0	531.0	0.0	0.0	0.0	0.0	0.0	-36.0	-104409.0	0.0	0.8688722848892212	-0.9049463272094728	0.0	2048.0	2048.0	2568.0	70.0	70.0	70.0	70.0	1516824573486.0
2016-03-31 12:29:29.605	0.0	-0.25	0.0	0.0	7.0	83.0	-71.0	9.0	-97.0	98498.0	531.0	0.0	0.0	0.0	0.0	0.0	-37.0	-104404.0	0.0	1.0037857294082642	-0.8398701548576355	0.0	2052.0	2048.0	2568.0	70.0	70.0	70.0	70.0	1516826578613.0
2016-03-31 12:29:29.610	0.0	-0.25	0.0	0.0	7.0	83.0	-71.0	9.0	-97.0	98489.0	531.0	0.0	0.0	0.0	0.0	3.0	-37.0	-104400.0	0.0	1.0692400932312012	-0.6825931668281555	0.0	2052.0	2048.0	2568.0	70.0	70.0	70.0	70.0	1516829583801.0
2016-03-31 12:29:29.615	0.0	-0.25	0.0	0.0	7.0	83.0	-65.0	3.0	-99.0	98489.0	531.0	0.0	0.0	0.0	0.0	1.0	-37.0	-104398.0	0.0	1.0674296617507937	-0.66930091381073	0.0	2048.0	2052.0	2564.0	70.0	70.0	70.0	70.0	1516831588928.0
2016-03-31 12:29:29.620	0.0	-0.25	0.0	0.0	7.0	83.0	-65.0	3.0	-99.0	98489.0	531.0	0.0	0.0	0.0	0.0	3.0	-35.0	-104402.0	0.0	1.142781138420105	-0.6841446757316589	0.0	2056.0	2048.0	2564.0	70.0	70.0	70.0	70.0	1516833593597.0
2016-03-31 12:29:29.625	0.0	-0.25	0.0	0.0	7.0	83.0	-65.0	7.0	-103.0	98492.0	531.0	0.0	0.0	0.0	0.0	3.0	-35.0	-104407.0	0.0	1.1672333478927612	-0.7753527760505676	0.0	2048.0	2044.0	2568.0	70.0	70.0	70.0	70.0	1516836598815.0
2016-03-31 12:29:29.630	0.0	-0.25	0.0	0.0	7.0	83.0	-65.0	7.0	-103.0	98492.0	531.0	0.0	0.0	0.0	0.0	4.0	-36.0	-104409.0	0.0	1.4157885313034058	-0.7712298631668091	0.0	2052.0	2044.0	2568.0	70.0	70.0	70.0	70.0	1516838603607.0
2016-03-31 12:29:29.635	0.0	-0.25	0.0	0.0	7.0	83.0	-64.0	8.0	-106.0	98495.0	531.0	0.0	0.0	0.0	0.0	7.0	-38.0	-104409.0	0.0	1.490681767463684	-0.6517838835716248	0.0	2052.0	2048.0	2568.0	70.0	70.0	70.0	70.0	1516841608581.0
2016-03-31 12:29:29.640	0.0	-0.25	0.0	0.0	7.0	83.0	-64.0	8.0	-106.0	98495.0	531.0	0.0	0.0	0.0	0.0	6.0	-39.0	-104404.0	0.0	1.6426761150360107	-0.5323030352592468	0.0	2048.0	2048.0	2568.0	70.0	70.0	70.0	70.0	1516843613769.0
2016-03-31 12:29:29.645	0.0	-0.25	0.0	0.0	7.0	83.0	-66.0	6.0	-108.0	98480.0	531.0	0.0	0.0	0.0	0.0	8.0	-39.0	-104399.0	0.0	1.752939224243164	-0.47025066614151	0.0	2052.0	2048.0	2564.0	70.0	70.0	70.0	70.0	1516846618835.0
2016-03-31 12:29:29.650	0.0	-0.25	0.0	0.0	7.0	83.0	-66.0	6.0	-108.0	98486.0	531.0	0.0	0.0	0.0	0.0	6.0	-39.0	-104398.0	0.0	1.586966633796692	-0.5092556476593018	0.0	2048.0	2052.0	2568.0	70.0	70.0	70.0	70.0	1516848623718.0
2016-03-31 12:29:29.655	0.0	-0.25	0.0	0.0	7.0	83.0	-67.0	3.0	-107.0	98498.0	531.0	0.0	0.0	0.0	0.0	7.0	-38.0	-104398.0	0.0	1.590684175491333	-0.5785875916481018	0.0	2052.0	2048.0	2568.0	70.0	70.0	70.0	70.0	1516851628753.0
2016-03-31 12:29:29.660	0.0	-0.25	0.0	0.0	7.0	83.0	-67.0	3.0	-107.0	98492.0	531.0	0.0	0.0	0.0	0.0	8.0	-39.0	-104401.0	0.0	1.421201229095459	-0.7017316222190857	0.0	2048.0	2052.0	2568.0	70.0	70.0	70.0	70.0	1516853633728.0
2016-03-31 12:29:29.665	0.0	-0.25	0.0	0.0	7.0	83.0	-67.0	11.0	-105.0	98486.0	531.0	0.0	0.0	0.0	0.0	6.0	-38.0	-104405.0	0.0	1.3954167366027832	-0.7588545083999634	0.0	2048.0	2052.0	2564.0	70.0	70.0	70.0	70.0	1516855638916.0
2016-03-31 12:29:29.670	0.0	-0.25	0.0	0.0	7.0	83.0	-67.0	11.0	-105.0	98492.0	531.0	0.0	0.0	0.0	0.0	8.0	-36.0	-104406.0	0.0	1.2592414617538452	-0.8683406114578247	0.0	2048.0	2052.0	2568.0	70.0	70.0	70.0	70.0	1516858643829.0
2016-03-31 12:29:29.675	0.0	-0.25	0.0	0.0	7.0	83.0	-79.0	11.0	-93.0	98498.0	531.0	0.0	0.0	0.0	0.0	6.0	-36.0	-104407.0	0.0	1.1020877361297607	-0.9526019096374512	0.0	2048.0	2048.0	2568.0	70.0	70.0	70.0	70.0	1516860649047.0
2016-03-31 12:29:29.680	0.0	-0.25	0.0	0.0	7.0	83.0	-79.0	11.0	-93.0	98492.0	531.0	0.0	0.0	0.0	0.0	7.0	-34.0	-104405.0	0.0	1.0084772109985352	-1.0375435352325442	0.0	2048.0	2052.0	2568.0	70.0	70.0	70.0	70.0	1516863653778.0
2016-03-31 12:29:29.685	0.0	-0.25	0.0	0.0	7.0	83.0	-80.0	10.0	-82.0	98498.0	531.0	0.0	0.0	0.0	0.0	7.0	-37.0	-104405.0	0.0	0.8272106051445007	-1.0648746490478516	0.0	2048.0	2048.0	2568.0	70.0	70.0	70.0	70.0	1516865658935.0
2016-03-31 12:29:29.690	0.0	-0.25	0.0	0.0	7.0	83.0	-80.0	10.0	-82.0	98498.0	531.0	0.0	0.0	0.0	0.0	6.0	-36.0	-104405.0	0.0	0.7806851267814636	-1.0597455501556396	0.0	2048.0	2052.0	2568.0	72.0	72.0	72.0	72.0	1516868663848.0
2016-03-31 12:29:29.695	0.0	-0.25	0.0	0.0	7.0	83.0	-86.0	4.0	-72.0	98492.0	531.0	0.0	0.0	0.0	0.0	6.0	-37.0	-104405.0	0.0	0.6713886260986328	-1.0821517705917358	0.0	2048.0	2052.0	2568.0	72.0	72.0	72.0	72.0	1516870668823.0
2016-03-31 12:29:29.700	0.0	-0.25	0.0	0.0	7.0	83.0	-86.0	4.0	-72.0	98492.0	531.0	0.0	0.0	0.0	0.0	5.0	-36.0	-104407.0	0.0	0.640481173992157	-1.1029702425003052	0.0	2052.0	2048.0	2568.0	72.0	72.0	72.0	72.0	1516873673858.0
2016-03-31 12:29:29.705	0.0	-0.25	0.0	0.0	7.0	83.0	-81.0	3.0	-81.0	98486.0	531.0	0.0	0.0	0.0	0.0	5.0	-35.0	-104404.0	0.0	0.6137166619300842	-1.1109498739242554	0.0	2048.0	2044.0	2568.0	72.0	72.0	72.0	72.0	1516875679290.0
2016-03-31 12:29:29.710	0.0	-0.25	0.0	0.0	7.0	83.0	-81.0	3.0	-81.0	98489.0	531.0	0.0	0.0	0.0	0.0	6.0	-36.0	-104403.0	0.0	0.6589258909225464	-1.1181167364120483	0.0	2048.0	2048.0	2568.0	72.0	72.0	72.0	72.0	1516877684020.0
2016-03-31 12:29:29.715	0.0	-0.25	0.0	0.0	7.0	83.0	-76.0	-2.0	-104.0	98495.0	531.0	0.0	0.0	0.0	0.0	5.0	-37.0	-104398.0	0.0	0.6568176746368408	-1.1075774431228638	0.0	2044.0	2052.0	2568.0	72.0	72.0	72.0	72.0	1516880688873.0
2016-03-31 12:29:29.720	0.0	-0.25	0.0	0.0	7.0	83.0	-76.0	-2.0	-104.0	98492.0	531.0	0.0	0.0	0.0	0.0	5.0	-38.0	-104397.0	0.0	0.6706230640411377	-1.0371634960174558	0.0	2056.0	2044.0	2564.0	72.0	72.0	72.0	72.0	1516882693908.0
2016-03-31 12:29:29.725	0.0	-0.25	0.0	0.0	7.0	83.0	-70.0	6.0	-106.0	98489.0	531.0	0.0	0.0	0.0	0.0	5.0	-40.0	-104396.0	0.0	0.5427891016006471	-0.977479100227356	0.0	2044.0	2048.0	2568.0	72.0	72.0	72.0	72.0	1516885698883.0
2016-03-31 12:29:29.730	0.0	-0.25	0.0	0.0	7.0	83.0	-70.0	6.0	-106.0	98498.0	531.0	0.0	0.0	0.0	0.0	5.0	-37.0	-104397.0	0.0	0.5655084252357483	-0.9109909534454346	0.0	2052.0	2052.0	2568.0	72.0	72.0	72.0	72.0	1516887703857.0
2016-03-31 12:29:29.735	0.0	-0.25	0.0	0.0	7.0	83.0	-76.0	2.0	-82.0	98495.0	531.0	0.0	0.0	0.0	0.0	8.0	-38.0	-104399.0	0.0	0.560602068901062	-0.8251146078109741	0.0	2052.0	2040.0	2568.0	72.0	72.0	72.0	72.0	1516890708953.0
2016-03-31 12:29:29.740	0.0	-0.25	0.0	0.0	7.0	83.0	-76.0	2.0	-82.0	98486.0	531.0	0.0	0.0	0.0	0.0	6.0	-38.0	-104399.0	0.0	0.6358550190925598	-0.8042954206466675	0.0	2044.0	2048.0	2568.0	72.0	72.0	72.0	72.0	1516892714111.0
2016-03-31 12:29:29.745	0.0	-0.25	0.0	0.0	7.0	83.0	-83.0	-3.0	-83.0	98486.0	531.0	0.0	0.0	0.0	0.0	6.0	-40.0	-104402.0	0.0	0.6904388666152954	-0.6986953020095825	0.0	2048.0	2052.0	2564.0	72.0	72.0	72.0	72.0	1516895719177.0
2016-03-31 12:29:29.750	0.0	-0.25	0.0	0.0	7.0	83.0	-83.0	-3.0	-83.0	98486.0	531.0	0.0	0.0	0.0	0.0	3.0	-43.0	-104403.0	0.0	0.5663238763809204	-0.6935124397277832	0.0	2048.0	2044.0	2564.0	72.0	72.0	72.0	72.0	1516897724060.0
2016-03-31 12:29:29.755	0.0	-0.25	0.0	0.0	7.0	83.0	-73.0	5.0	-97.0	98495.0	531.0	0.0	0.0	0.0	0.0	2.0	-43.0	-104409.0	0.0	0.5469983816146851	-0.5875260829925537	0.0	2052.0	2044.0	2564.0	72.0	72.0	72.0	72.0	1516900729125.0
2016-03-31 12:29:29.760	0.0	-0.25	0.0	0.0	7.0	83.0	-73.0	5.0	-97.0	98498.0	531.0	0.0	0.0	0.0	0.0	5.0	-43.0	-104409.0	0.0	0.4128255844116211	-0.572251558303833	0.0	2048.0	2056.0	2568.0	72.0	72.0	72.0	72.0	1516902733978.0
2016-03-31 12:29:29.765	0.0	-0.25	0.0	0.0	7.0	83.0	-77.0	-1.0	-79.0	98489.0	531.0	0.0	0.0	0.0	0.0	5.0	-39.0	-104411.0	0.0	0.5345475673675537	-0.6011801362037659	0.0	2052.0	2052.0	2568.0	72.0	72.0	72.0	72.0	1516904739135.0
2016-03-31 12:29:29.770	0.0	-0.25	0.0	0.0	7.0	83.0	-77.0	-1.0	-79.0	98489.0	531.0	0.0	0.0	0.0	0.0	9.0	-36.0	-104407.0	0.0	0.5647751688957214	-0.5958827137947083	0.0	2048.0	2040.0	2568.0	72.0	72.0	72.0	72.0	1516907744262.0
2016-03-31 12:29:29.775	0.0	-0.25	0.0	0.0	7.0	83.0	-80.0	6.0	-96.0	98492.0	531.0	0.0	0.0	0.0	0.0	8.0	-37.0	-104402.0	0.0	0.6057280898094177	-0.7335906624794006	0.0	2044.0	2052.0	2564.0	72.0	72.0	72.0	72.0	1516909749176.0
2016-03-31 12:29:29.780	0.0	-0.25	0.0	0.0	7.0	83.0	-80.0	6.0	-96.0	98492.0	531.0	0.0	0.0	0.0	0.0	7.0	-36.0	-104399.0	0.0	0.6295296549797058	-0.701726496219635	0.0	2052.0	2048.0	2568.0	72.0	72.0	72.0	72.0	1516912754150.0
2016-03-31 12:29:29.785	0.0	-0.25	0.0	0.0	7.0	83.0	-76.0	4.0	-102.0	98495.0	531.0	0.0	0.0	0.0	0.0	5.0	-42.0	-104391.0	0.0	0.5328280925750732	-0.7068495750427246	0.0	2052.0	2044.0	2568.0	72.0	72.0	72.0	72.0	1516914759521.0
2016-03-31 12:29:29.790	0.0	-0.25	0.0	0.0	7.0	83.0	-76.0	4.0	-102.0	98495.0	531.0	0.0	0.0	0.0	0.0	2.0	-42.0	-104389.0	0.0	0.6027181148529053	-0.5513331890106201	0.0	2052.0	2048.0	2568.0	72.0	72.0	72.0	72.0	1516917764129.0
2016-03-31 12:29:29.795	0.0	-0.25	0.0	0.0	7.0	83.0	-82.0	10.0	-86.0	98492.0	531.0	0.0	0.0	0.0	0.0	5.0	-44.0	-104386.0	0.0	0.6711598038673401	-0.4745822846889496	0.0	2052.0	2052.0	2568.0	72.0	72.0	72.0	72.0	1516919769073.0
2016-03-31 12:29:29.800	0.0	-0.25	0.0	0.0	7.0	83.0	-82.0	10.0	-86.0	98492.0	531.0	0.0	0.0	0.0	0.0	4.0	-44.0	-104385.0	0.0	0.8143575191497803	-0.4249337315559387	0.0	2048.0	2040.0	2568.0	72.0	72.0	72.0	72.0	1516922774169.0
2016-03-31 12:29:29.805	0.0	-0.25	0.0	0.0	7.0	83.0	-74.0	8.0	-96.0	98495.0	531.0	0.0	0.0	0.0	0.0	6.0	-42.0	-104388.0	0.0	0.984375536441803	-0.3992657065391541	0.0	2052.0	2048.0	2568.0	72.0	72.0	72.0	72.0	1516924779388.0
2016-03-31 12:29:29.810	0.0	-0.25	0.0	0.0	7.0	83.0	-74.0	8.0	-96.0	98492.0	531.0	0.0	0.0	0.0	0.0	7.0	-43.0	-104390.0	0.0	0.99607914686203	-0.3538254797458649	0.0	2048.0	2048.0	2564.0	72.0	72.0	72.0	72.0	1516926784179.0
2016-03-31 12:29:29.815	0.0	-0.25	0.0	0.0	7.0	83.0	-80.0	6.0	-88.0	98492.0	531.0	0.0	0.0	0.0	0.0	6.0	-42.0	-104396.0	0.0	1.0864487886428833	-0.29342445731163025	0.0	2052.0	2048.0	2568.0	72.0	72.0	72.0	72.0	1516929789215.0
2016-03-31 12:29:29.820	0.0	-0.25	0.0	0.0	7.0	83.0	-80.0	6.0	-88.0	98495.0	531.0	0.0	0.0	0.0	0.0	9.0	-45.0	-104402.0	0.0	1.0087823867797852	-0.2327744662761688	0.0	2052.0	2044.0	2572.0	72.0	72.0	72.0	72.0	1516931794189.0
2016-03-31 12:29:29.825	0.0	-0.25	0.0	0.0	7.0	83.0	-83.0	-3.0	-91.0	98498.0	531.0	0.0	0.0	0.0	0.0	6.0	-44.0	-104407.0	0.0	1.0458167791366575	-0.23169972002506256	0.0	2048.0	2052.0	2568.0	72.0	72.0	72.0	72.0	1516934799377.0
2016-03-31 12:29:29.830	0.0	-0.25	0.0	0.0	7.0	83.0	-83.0	-3.0	-91.0	98498.0	531.0	0.0	0.0	0.0	0.0	7.0	-46.0	-104414.0	0.0	1.0865859985351562	-0.2085612565279007	0.0	2052.0	2044.0	2568.0	72.0	72.0	72.0	72.0	1516936804260.0
2016-03-31 12:29:29.835	0.0	-0.25	0.0	0.0	7.0	83.0	-87.0	11.0	-91.0	98489.0	531.0	0.0	0.0	0.0	0.0	1.0	-45.0	-104409.0	0.0	0.9380662441253662	-0.1624988466501236	0.0	2040.0	2044.0	2568.0	72.0	72.0	72.0	72.0	1516939809356.0
2016-03-31 12:29:29.840	0.0	-0.25	0.0	0.0	7.0	83.0	-87.0	11.0	-91.0	98486.0	531.0	0.0	0.0	0.0	0.0	0.0	-45.0	-104401.0	0.0	0.8737559914588928	-0.08322100341320038	0.0	2052.0	2048.0	2568.0	72.0	72.0	72.0	72.0	1516941814453.0
2016-03-31 12:29:29.845	0.0	-0.25	0.0	0.0	7.0	83.0	-72.0	8.0	-98.0	98492.0	531.0	0.0	0.0	0.0	0.0	0.0	-50.0	-104389.0	0.0	0.5910900831222534	0.10144246369600296	0.0	2048.0	2040.0	2568.0	72.0	72.0	72.0	72.0	1516944819488.0
2016-03-31 12:29:29.850	0.0	-0.25	0.0	0.0	7.0	83.0	-72.0	8.0	-98.0	98492.0	531.0	0.0	0.0	0.0	0.0	-1.0	-53.0	-104380.0	0.0	0.5745667815208435	0.20886263251304624	0.0	2052.0	2044.0	2564.0	72.0	72.0	72.0	72.0	1516946824310.0
2016-03-31 12:29:29.855	0.0	-0.25	0.0	0.0	7.0	83.0	-77.0	11.0	-85.0	98492.0	531.0	0.0	0.0	0.0	0.0	4.0	-59.0	-104391.0	0.0	0.6516910791397095	0.4043547511100769	0.0	2060.0	2048.0	2568.0	72.0	72.0	72.0	72.0	1516948829284.0
2016-03-31 12:29:29.860	0.0	-0.25	0.0	0.0	7.0	83.0	-77.0	11.0	-85.0	98492.0	531.0	0.0	0.0	0.0	0.0	4.0	-57.0	-104406.0	0.0	0.9269629716873168	0.3905254602432251	0.0	2060.0	2052.0	2568.0	72.0	72.0	72.0	72.0	1516951834289.0
2016-03-31 12:29:29.865	0.0	-0.25	0.0	0.0	7.0	83.0	-79.0	-9.0	-97.0	98495.0	531.0	0.0	0.0	0.0	0.0	8.0	-52.0	-104425.0	0.0	1.36589777469635	0.34589165449142456	0.0	2052.0	2048.0	2572.0	72.0	72.0	72.0	72.0	1516953839538.0
2016-03-31 12:29:29.870	0.0	-0.25	0.0	0.0	7.0	83.0	-79.0	-9.0	-97.0	98498.0	531.0	0.0	0.0	0.0	0.0	6.0	-49.0	-104427.0	0.0	1.5067801475524902	0.16205443441867828	0.0	2044.0	2048.0	2568.0	72.0	72.0	72.0	72.0	1516956844604.0
2016-03-31 12:29:29.875	0.0	-0.25	0.0	0.0	7.0	83.0	-83.0	-11.0	-89.0	98495.0	531.0	0.0	0.0	0.0	0.0	2.0	-49.0	-104415.0	0.0	1.4813960790634155	0.07139229774475098	0.0	2040.0	2040.0	2568.0	72.0	72.0	72.0	72.0	1516958849426.0
2016-03-31 12:29:29.880	0.0	-0.25	0.0	0.0	7.0	83.0	-83.0	-11.0	-89.0	98492.0	531.0	0.0	0.0	0.0	0.0	1.0	-61.0	-104402.0	0.0	1.0496039390563965	0.21119946241378784	0.0	2048.0	2036.0	2560.0	72.0	72.0	72.0	72.0	1516961854492.0
2016-03-31 12:29:29.885	0.0	-0.25	0.0	0.0	7.0	83.0	-77.0	-1.0	-91.0	98504.0	531.0	0.0	0.0	0.0	0.0	0.0	-65.0	-104392.0	0.0	0.7191470265388489	0.3324571549892425	0.0	2060.0	2060.0	2560.0	72.0	72.0	72.0	72.0	1516963859405.0
2016-03-31 12:29:29.890	0.0	-0.25	0.0	0.0	7.0	83.0	-77.0	-1.0	-91.0	98507.0	531.0	0.0	0.0	0.0	0.0	7.0	-60.0	-104401.0	0.0	0.8170964121818542	0.4246464669704437	0.0	2072.0	2060.0	2572.0	72.0	72.0	72.0	72.0	1516966864379.0
2016-03-31 12:29:29.895	0.0	-0.25	0.0	0.0	7.0	83.0	-74.0	2.0	-92.0	98501.0	531.0	0.0	0.0	0.0	0.0	14.0	-49.0	-104407.0	0.0	1.2257936000823977	0.1412796974182129	0.0	2048.0	2044.0	2572.0	72.0	72.0	72.0	72.0	1516968869506.0
2016-03-31 12:29:29.900	0.0	-0.25	0.0	0.0	7.0	83.0	-74.0	2.0	-92.0	98504.0	531.0	0.0	0.0	0.0	0.0	15.0	-43.0	-104415.0	0.0	1.733414888381958	-0.1805008202791214	0.0	2036.0	2044.0	2572.0	72.0	72.0	72.0	72.0	1516971874633.0
2016-03-31 12:29:29.905	0.0	-0.25	0.0	0.0	7.0	83.0	-72.0	10.0	-90.0	98498.0	531.0	0.0	0.0	0.0	0.0	11.0	-54.0	-104419.0	0.0	1.637656569480896	-0.2085678726434708	0.0	2040.0	2032.0	2560.0	72.0	72.0	72.0	72.0	1516973879699.0
2016-03-31 12:29:29.910	0.0	-0.25	0.0	0.0	7.0	83.0	-72.0	10.0	-90.0	98501.0	531.0	0.0	0.0	0.0	0.0	2.0	-64.0	-104420.0	0.0	1.1016900539398191	0.004924347158521414	0.0	2052.0	2048.0	2556.0	72.0	72.0	72.0	72.0	1516975884582.0
2016-03-31 12:29:29.915	0.0	-0.25	0.0	0.0	7.0	83.0	-88.0	8.0	-94.0	98513.0	531.0	0.0	0.0	0.0	0.0	5.0	-63.0	-104428.0	0.0	0.6898362040519714	0.2851911783218384	0.0	2072.0	2076.0	2560.0	72.0	72.0	72.0	72.0	1516978889495.0
2016-03-31 12:29:29.920	0.0	-0.25	0.0	0.0	7.0	83.0	-88.0	8.0	-94.0	98504.0	531.0	0.0	0.0	0.0	0.0	19.0	-48.0	-104426.0	0.0	0.8522008657455444	0.106909342110157	0.0	2072.0	2052.0	2572.0	72.0	72.0	72.0	72.0	1516980894409.0
2016-03-31 12:29:29.925	0.0	-0.25	0.0	0.0	7.0	83.0	-67.0	1.0	-83.0	98486.0	531.0	0.0	0.0	0.0	0.0	34.0	-38.0	-104415.0	0.0	1.6218322515487669	-0.33776772022247314	0.0	2040.0	2028.0	2576.0	72.0	72.0	72.0	72.0	1516983899444.0
2016-03-31 12:29:29.930	0.0	-0.25	0.0	0.0	7.0	83.0	-67.0	1.0	-83.0	98489.0	531.0	0.0	0.0	0.0	0.0	39.0	-46.0	-104406.0	0.0	2.091906785964966	-0.4389715790748596	0.0	2032.0	2028.0	2564.0	72.0	72.0	72.0	72.0	1516985904541.0
2016-03-31 12:29:29.935	0.0	-0.25	0.0	0.0	7.0	83.0	-85.0	15.0	-101.0	98501.0	531.0	0.0	0.0	0.0	0.0	27.0	-64.0	-104406.0	0.0	1.7812985181808472	-0.018700947985053062	0.0	2040.0	2040.0	2552.0	72.0	72.0	72.0	72.0	1516988909790.0
2016-03-31 12:29:29.940	0.0	-0.25	0.0	0.0	7.0	83.0	-85.0	15.0	-101.0	98501.0	531.0	0.0	0.0	0.0	0.0	12.0	-68.0	-104432.0	0.0	0.9605262279510498	0.6742096543312073	0.0	2060.0	2068.0	2556.0	72.0	72.0	72.0	72.0	1516990914581.0
2016-03-31 12:29:29.945	0.0	-0.25	0.0	0.0	7.0	83.0	-71.0	5.0	-89.0	98501.0	531.0	0.0	0.0	0.0	0.0	13.0	-54.0	-104460.0	0.0	0.3385663628578186	0.8837451934814453	0.0	2064.0	2060.0	2572.0	72.0	72.0	72.0	72.0	1516993919799.0
2016-03-31 12:29:29.950	0.0	-0.25	0.0	0.0	7.0	83.0	-71.0	5.0	-89.0	98501.0	531.0	0.0	0.0	0.0	0.0	26.0	-40.0	-104464.0	0.0	0.4928368031978607	0.3115423321723938	0.0	2048.0	2044.0	2580.0	72.0	72.0	72.0	72.0	1516995924713.0
2016-03-31 12:29:29.955	0.0	-0.25	0.0	0.0	7.0	83.0	-80.0	18.0	-88.0	98504.0	531.0	0.0	0.0	0.0	0.0	41.0	-43.0	-104461.0	0.0	1.0356618165969849	-0.1073467656970024	0.0	2044.0	2016.0	2572.0	72.0	72.0	72.0	72.0	1516997929565.0
2016-03-31 12:29:29.960	0.0	-0.25	0.0	0.0	7.0	83.0	-80.0	18.0	-88.0	98507.0	531.0	0.0	0.0	0.0	0.0	42.0	-69.0	-104441.0	0.0	1.1658904552459717	-0.1454402655363083	0.0	2036.0	2044.0	2556.0	72.0	72.0	72.0	72.0	1517000934967.0
2016-03-31 12:29:29.965	0.0	-0.25	0.0	0.0	7.0	83.0	-69.0	1.0	-87.0	98504.0	531.0	0.0	0.0	0.0	0.0	30.0	-78.0	-104447.0	0.0	0.8190141320228577	0.44350281357765203	0.0	2048.0	2072.0	2552.0	72.0	72.0	72.0	72.0	1517002939880.0
2016-03-31 12:29:29.970	0.0	-0.25	0.0	0.0	7.0	83.0	-69.0	1.0	-87.0	98498.0	531.0	0.0	0.0	0.0	0.0	24.0	-70.0	-104456.0	0.0	0.16326041519641876	0.7087774872779846	0.0	2060.0	2060.0	2564.0	72.0	72.0	72.0	72.0	1517005944702.0
2016-03-31 12:29:29.975	0.0	-0.25	0.0	0.0	7.0	83.0	-82.0	-6.0	-92.0	98498.0	531.0	0.0	0.0	0.0	0.0	27.0	-53.0	-104440.0	0.0	-0.04222727194428444	0.09981193393468857	0.0	2048.0	2052.0	2580.0	72.0	72.0	72.0	72.0	1517007949645.0
2016-03-31 12:29:29.980	0.0	-0.25	0.0	0.0	7.0	83.0	-82.0	-6.0	-92.0	98504.0	531.0	0.0	0.0	0.0	0.0	37.0	-50.0	-104427.0	0.0	0.13241104781627655	-0.4805866777896881	0.0	2040.0	2024.0	2580.0	72.0	72.0	72.0	72.0	1517010954681.0
2016-03-31 12:29:29.985	0.0	-0.25	0.0	0.0	7.0	83.0	-83.0	11.0	-95.0	98510.0	531.0	0.0	0.0	0.0	0.0	40.0	-69.0	-104399.0	0.0	0.23646968603134155	-0.7658512592315674	0.0	2044.0	2028.0	2564.0	72.0	72.0	72.0	72.0	1517012959808.0
2016-03-31 12:29:29.990	0.0	-0.25	0.0	0.0	7.0	83.0	-83.0	11.0	-95.0	98507.0	531.0	0.0	0.0	0.0	0.0	33.0	-78.0	-104405.0	0.0	0.18800652027130127	-0.08724772185087204	0.0	2056.0	2064.0	2552.0	72.0	72.0	72.0	72.0	1517015964660.0
2016-03-31 12:29:29.995	0.0	-0.25	0.0	0.0	7.0	83.0	-76.0	20.0	-94.0	98501.0	531.0	0.0	0.0	0.0	0.0	33.0	-71.0	-104430.0	0.0	0.019002962857484814	0.4888299405574799	0.0	2068.0	2064.0	2564.0	72.0	72.0	72.0	72.0	1517017969757.0
2016-03-31 12:29:30.000	0.0	-0.25	0.0	0.0	7.0	83.0	-76.0	20.0	-94.0	98501.0	531.0	0.0	0.0	0.0	0.0	48.0	-58.0	-104431.0	0.0	0.22113294899463654	0.34145379066467285	0.0	2056.0	2048.0	2576.0	72.0	72.0	72.0	72.0	1517020974945.0
2016-03-31 12:29:30.005	0.0	-0.25	0.0	0.0	7.0	83.0	-75.0	17.0	-91.0	98504.0	531.0	0.0	0.0	0.0	0.0	60.0	-51.0	-104440.0	0.0	0.7418140172958374	-0.16723264753818512	0.0	2048.0	2036.0	2580.0	72.0	72.0	72.0	72.0	1517022979797.0
2016-03-31 12:29:30.010	0.0	-0.25	0.0	0.0	7.0	83.0	-75.0	17.0	-91.0	98501.0	531.0	0.0	0.0	0.0	0.0	65.0	-65.0	-104429.0	0.0	1.0673289299011228	-0.647273063659668	0.0	2044.0	2036.0	2568.0	72.0	72.0	72.0	72.0	1517024984802.0
2016-03-31 12:29:30.015	0.0	-0.25	0.0	0.0	7.0	83.0	-76.0	0.0	-92.0	98495.0	531.0	0.0	0.0	0.0	0.0	47.0	-78.0	-104433.0	0.0	1.0364891290664673	-0.3993072509765625	0.0	2048.0	2060.0	2556.0	72.0	72.0	72.0	72.0	1517027989776.0
2016-03-31 12:29:30.020	0.0	-0.25	0.0	0.0	7.0	83.0	-76.0	0.0	-92.0	98498.0	531.0	0.0	0.0	0.0	0.0	32.0	-74.0	-104458.0	0.0	0.7207140922546387	-0.1123918890953064	0.0	2064.0	2072.0	2560.0	72.0	72.0	72.0	72.0	1517029994750.0
2016-03-31 12:29:30.025	0.0	-0.25	0.0	0.0	7.0	83.0	-85.0	-5.0	-89.0	98504.0	531.0	0.0	0.0	0.0	0.0	35.0	-67.0	-104448.0	0.0	0.5704957246780396	-0.2907813489437103	0.0	2056.0	2048.0	2576.0	72.0	72.0	72.0	72.0	1517568000274.0
2016-03-31 12:29:30.030	0.0	-0.25	0.0	0.0	7.0	83.0	-85.0	-5.0	-89.0	98504.0	531.0	0.0	0.0	0.0	0.0	44.0	-56.0	-104444.0	0.0	0.904138445854187	-0.8279545307159424	0.0	2052.0	2040.0	2580.0	72.0	72.0	72.0	72.0	1517570005096.0
2016-03-31 12:29:30.035	0.0	-0.25	0.0	0.0	7.0	83.0	-78.0	8.0	-96.0	98498.0	531.0	0.0	0.0	0.0	0.0	57.0	-67.0	-104420.0	0.0	1.1028950214385986	-1.1040054559707642	0.0	2036.0	2024.0	2568.0	72.0	72.0	72.0	72.0	1517572009948.0
2016-03-31 12:29:30.040	0.0	-0.25	0.0	0.0	7.0	83.0	-78.0	8.0	-96.0	98501.0	531.0	0.0	0.0	0.0	0.0	46.0	-81.0	-104404.0	0.0	1.0468069314956665	-0.7960234284400941	0.0	2036.0	2052.0	2552.0	72.0	72.0	72.0	72.0	1517575014923.0
2016-03-31 12:29:30.045	0.0	-0.25	0.0	0.0	7.0	83.0	-70.0	16.0	-94.0	98492.0	531.0	0.0	0.0	0.0	0.0	35.0	-83.0	-104419.0	0.0	0.5632275938987732	-0.1712726652622223	0.0	2060.0	2068.0	2560.0	72.0	72.0	72.0	72.0	1517577019958.0
2016-03-31 12:29:30.050	0.0	-0.25	0.0	0.0	7.0	83.0	-70.0	16.0	-94.0	98489.0	531.0	0.0	0.0	0.0	0.0	36.0	-76.0	-104416.0	0.0	0.2160404771566391	-0.09021420031785964	0.0	2068.0	2052.0	2568.0	72.0	72.0	72.0	72.0	1517580024841.0
2016-03-31 12:29:30.055	0.0	-0.25	0.0	0.0	7.0	83.0	-71.0	17.0	-89.0	98498.0	531.0	0.0	0.0	0.0	0.0	49.0	-63.0	-104422.0	0.0	0.4971571266651154	-0.4975763261318207	0.0	2056.0	2036.0	2580.0	72.0	72.0	72.0	72.0	1517582029907.0
2016-03-31 12:29:30.060	0.0	-0.25	0.0	0.0	7.0	83.0	-71.0	17.0	-89.0	98498.0	531.0	0.0	0.0	0.0	0.0	66.0	-65.0	-104415.0	0.0	1.0013340711593628	-0.7550826072692871	0.0	2048.0	2028.0	2576.0	72.0	72.0	72.0	72.0	1517585035034.0
2016-03-31 12:29:30.065	0.0	-0.25	0.0	0.0	7.0	83.0	-81.0	7.0	-85.0	98501.0	531.0	0.0	0.0	0.0	0.0	59.0	-81.0	-104406.0	0.0	1.3985642194747925	-0.5839428305625916	0.0	2040.0	2044.0	2556.0	72.0	72.0	72.0	72.0	1517587040313.0
2016-03-31 12:29:30.070	0.0	-0.25	0.0	0.0	7.0	83.0	-81.0	7.0	-85.0	98504.0	531.0	0.0	0.0	0.0	0.0	44.0	-91.0	-104418.0	0.0	1.134528398513794	0.06846725195646286	0.0	2044.0	2068.0	2556.0	72.0	72.0	72.0	72.0	1517589044982.0
2016-03-31 12:29:30.075	0.0	-0.25	0.0	0.0	7.0	83.0	-80.0	-2.0	-88.0	98504.0	531.0	0.0	0.0	0.0	0.0	35.0	-86.0	-104425.0	0.0	0.6627920866012573	0.18484191596508026	0.0	2068.0	2060.0	2568.0	72.0	72.0	72.0	72.0	1517592050018.0
2016-03-31 12:29:30.080	0.0	-0.25	0.0	0.0	7.0	83.0	-80.0	-2.0	-88.0	98504.0	531.0	0.0	0.0	0.0	0.0	44.0	-74.0	-104420.0	0.0	0.5027714967727661	-0.2706241011619568	0.0	2064.0	2044.0	2576.0	72.0	72.0	72.0	72.0	1517594054992.0
2016-03-31 12:29:30.085	0.0	-0.25	0.0	0.0	7.0	83.0	-78.0	2.0	-98.0	98507.0	531.0	0.0	0.0	0.0	0.0	59.0	-66.0	-104414.0	0.0	0.8857387900352478	-0.7620801329612732	0.0	2052.0	2028.0	2572.0	72.0	72.0	72.0	72.0	1517597060333.0
2016-03-31 12:29:30.090	0.0	-0.25	0.0	0.0	7.0	83.0	-78.0	2.0	-98.0	98501.0	531.0	0.0	0.0	0.0	0.0	61.0	-79.0	-104395.0	0.0	1.3362900018692017	-0.7785859704017639	0.0	2036.0	2036.0	2560.0	72.0	72.0	72.0	72.0	1517599065093.0
2016-03-31 12:29:30.095	0.0	-0.25	0.0	0.0	7.0	83.0	-63.0	3.0	-91.0	98501.0	531.0	0.0	0.0	0.0	0.0	45.0	-92.0	-104397.0	0.0	1.3893712759017944	-0.1842384934425354	0.0	2044.0	2064.0	2552.0	72.0	72.0	72.0	72.0	1517602070251.0
2016-03-31 12:29:30.100	0.0	-0.25	0.0	0.0	7.0	83.0	-63.0	3.0	-91.0	98504.0	531.0	0.0	0.0	0.0	0.0	33.0	-91.0	-104420.0	0.0	0.967133641242981	0.10295896232128143	0.0	2060.0	2072.0	2556.0	72.0	72.0	72.0	72.0	1517604075103.0
2016-03-31 12:29:30.105	0.0	-0.25	0.0	0.0	7.0	83.0	-79.0	9.0	-87.0	98495.0	531.0	0.0	0.0	0.0	0.0	35.0	-82.0	-104430.0	0.0	0.6318507790565491	-0.3035842776298523	0.0	2064.0	2048.0	2572.0	72.0	72.0	72.0	72.0	1517607080200.0
2016-03-31 12:29:30.110	0.0	-0.25	0.0	0.0	7.0	83.0	-79.0	9.0	-87.0	98495.0	531.0	0.0	0.0	0.0	0.0	50.0	-68.0	-104443.0	0.0	0.7844222784042358	-1.0292257070541382	0.0	2052.0	2036.0	2580.0	72.0	72.0	72.0	72.0	1517609085052.0
2016-03-31 12:29:30.115	0.0	-0.25	0.0	0.0	7.0	83.0	-87.0	9.0	-85.0	98507.0	531.0	0.0	0.0	0.0	0.0	63.0	-75.0	-104431.0	0.0	1.1312544345855713	-1.305205225944519	0.0	2040.0	2028.0	2568.0	72.0	72.0	72.0	72.0	1517611090026.0
2016-03-31 12:29:30.120	0.0	-0.25	0.0	0.0	7.0	83.0	-87.0	9.0	-85.0	98510.0	531.0	0.0	0.0	0.0	0.0	53.0	-87.0	-104421.0	0.0	1.251143217086792	-0.8346214294433594	0.0	2036.0	2052.0	2556.0	72.0	72.0	72.0	72.0	1517614095062.0
2016-03-31 12:29:30.125	0.0	-0.25	0.0	0.0	7.0	83.0	-84.0	10.0	-90.0	98504.0	531.0	0.0	0.0	0.0	0.0	37.0	-86.5	-104435.0	0.0	0.5144842714071274	-0.27490296959877014	0.0	2058.0	2064.0	2562.0	72.0	72.0	72.0	72.0	1517617602691.0
2016-03-31 12:29:30.130	0.0	-0.25	0.0	0.0	7.0	83.0	-84.0	10.0	-90.0	98504.0	531.0	0.0	0.0	0.0	0.0	37.0	-86.5	-104435.0	0.0	0.5144842714071274	-0.27490296959877014	0.0	2058.0	2064.0	2562.0	72.0	72.0	72.0	72.0	1517617602691.0
2016-03-31 12:29:30.135	0.0	-0.25	0.0	0.0	7.0	83.0	-69.0	9.0	-87.0	98501.0	531.0	0.0	0.0	0.0	0.0	44.0	-69.0	-104441.0	0.0	0.15760499238967896	-0.9576045274734496	0.0	2060.0	2040.0	2580.0	72.0	72.0	72.0	72.0	1517621110168.0
2016-03-31 12:29:30.140	0.0	-0.25	0.0	0.0	7.0	83.0	-69.0	9.0	-87.0	98507.0	531.0	0.0	0.0	0.0	0.0	60.0	-67.0	-104437.0	0.0	0.5681959390640259	-1.2875583171844482	0.0	2044.0	2024.0	2576.0	72.0	72.0	72.0	72.0	1517624115173.0
2016-03-31 12:29:30.145	0.0	-0.25	0.0	0.0	7.0	83.0	-68.0	2.0	-92.0	98501.0	531.0	0.0	0.0	0.0	0.0	56.0	-79.0	-104420.0	0.0	0.9135050773620604	-1.0130642652511597	0.0	2036.0	2040.0	2560.0	72.0	72.0	72.0	72.0	1517626120330.0
2016-03-31 12:29:30.150	0.0	-0.25	0.0	0.0	7.0	83.0	-68.0	2.0	-92.0	98498.0	531.0	0.0	0.0	0.0	0.0	41.0	-86.0	-104425.0	0.0	0.7724044919013977	-0.1585998386144638	0.0	2048.0	2064.0	2556.0	72.0	72.0	72.0	72.0	1517629125152.0
2016-03-31 12:29:30.155	0.0	-0.25	0.0	0.0	7.0	83.0	-90.0	16.0	-92.0	98495.0	531.0	0.0	0.0	0.0	0.0	30.0	-81.0	-104440.0	0.0	0.2908463776111603	0.20189809799194336	0.0	2060.0	2064.0	2564.0	72.0	72.0	72.0	72.0	1517631130249.0
2016-03-31 12:29:30.160	0.0	-0.25	0.0	0.0	7.0	83.0	-90.0	16.0	-92.0	98498.0	531.0	0.0	0.0	0.0	0.0	36.0	-72.0	-104435.0	0.0	0.056358899921178825	-0.22250838577747345	0.0	2064.0	2044.0	2580.0	72.0	72.0	72.0	72.0	1517634135498.0
2016-03-31 12:29:30.165	0.0	-0.25	0.0	0.0	7.0	83.0	-84.0	16.0	-94.0	98507.0	531.0	0.0	0.0	0.0	0.0	55.0	-66.0	-104432.0	0.0	0.3896994590759277	-0.7332804203033447	0.0	2056.0	2028.0	2580.0	72.0	72.0	72.0	72.0	1517636140289.0
2016-03-31 12:29:30.170	0.0	-0.25	0.0	0.0	7.0	83.0	-84.0	16.0	-94.0	98507.0	531.0	0.0	0.0	0.0	0.0	60.0	-80.0	-104408.0	0.0	0.8638951778411865	-0.8325616121292114	0.0	2036.0	2032.0	2568.0	72.0	72.0	72.0	72.0	1517638145263.0
2016-03-31 12:29:30.175	0.0	-0.25	0.0	0.0	7.0	83.0	-74.0	12.0	-88.0	98507.0	531.0	0.0	0.0	0.0	0.0	45.0	-90.0	-104405.0	0.0	0.9825302362442015	-0.13731640577316284	0.0	2036.0	2056.0	2552.0	72.0	72.0	72.0	72.0	1517641150299.0
2016-03-31 12:29:30.180	0.0	-0.25	0.0	0.0	7.0	83.0	-74.0	12.0	-88.0	98504.0	531.0	0.0	0.0	0.0	0.0	26.0	-89.0	-104424.0	0.0	0.4861901998519898	0.3552790582180023	0.0	2052.0	2068.0	2556.0	72.0	72.0	72.0	72.0	1517643155242.0
2016-03-31 12:29:30.185	0.0	-0.25	0.0	0.0	7.0	83.0	-67.0	1.0	-83.0	98504.0	531.0	0.0	0.0	0.0	0.0	24.0	-79.0	-104433.0	0.0	0.009725541807711123	0.22002105414867398	0.0	2068.0	2048.0	2572.0	72.0	72.0	72.0	72.0	1517646160491.0
2016-03-31 12:29:30.190	0.0	-0.25	0.0	0.0	7.0	83.0	-67.0	1.0	-83.0	98501.0	531.0	0.0	0.0	0.0	0.0	40.0	-67.0	-104434.0	0.0	-0.016721393913030624	-0.4388633370399475	0.0	2056.0	2040.0	2580.0	72.0	72.0	72.0	72.0	1517648165344.0
2016-03-31 12:29:30.195	0.0	-0.25	0.0	0.0	7.0	83.0	-77.0	-3.0	-99.0	98492.0	531.0	0.0	0.0	0.0	0.0	60.0	-74.0	-104421.0	0.0	0.44849732518196106	-0.7835112214088441	0.0	2044.0	2028.0	2572.0	72.0	72.0	72.0	72.0	1517651170562.0
2016-03-31 12:29:30.200	0.0	-0.25	0.0	0.0	7.0	83.0	-77.5	4.5	-98.5	98498.0	531.0	0.0	0.0	0.0	0.0	45.5	-85.5	-104412.5	0.0	0.7545728087425232	-0.2140558436512947	0.0	2044.0	2058.0	2556.0	72.0	72.0	72.0	72.0	1517654677947.5
2016-03-31 12:29:30.205	0.0	-0.25	0.0	0.0	7.0	83.0	-77.5	4.5	-98.5	98498.0	531.0	0.0	0.0	0.0	0.0	45.5	-85.5	-104412.5	0.0	0.7545728087425232	-0.2140558436512947	0.0	2044.0	2058.0	2556.0	72.0	72.0	72.0	72.0	1517654677947.5
2016-03-31 12:29:30.210	0.0	-0.25	0.0	0.0	7.0	83.0	-78.0	12.0	-98.0	98495.0	531.0	0.0	0.0	0.0	0.0	27.0	-79.0	-104429.0	0.0	0.27810731530189514	0.1519368290901184	0.0	2060.0	2056.0	2564.0	72.0	72.0	72.0	72.0	1517658185302.0
2016-03-31 12:29:30.215	0.0	-0.25	0.0	0.0	7.0	83.0	-76.0	22.0	-92.0	98498.0	531.0	0.0	0.0	0.0	0.0	40.0	-68.0	-104425.0	0.0	0.11088048666715622	-0.36224907636642456	0.0	2068.0	2040.0	2580.0	72.0	72.0	72.0	72.0	1517660190307.0
