time	State	Battery_level	Magnetometer_x	Magnetometer_y	Magnetometer_z	Pressure	Temperature	Wind_speed	Wind_angle	Wind_compensation:pitch	Wind_compensation:roll	Pitch_y	Roll_x	Yaw_z	Altitude	Velocity_x	Velocity_y	Velocity_z	Acceleration_x	Acceleration_y	Acceleration_z	Motor_1_power	Motor_2_power	Motor_3_power	Motor_4_power	time_board
2020-06-30 07:32:01.350	2.0	61.0	-70.0	-4.0	-93.6	98838.4	399.0	0.0	17.198401260375977	0.0	0.0	-419.3	1291.5	-83765.1	0.0	0.0	0.0	0.0	2076.0	2044.0	2572.0	0.0	0.0	0.0	0.0	350219024.1
2020-06-30 07:32:01.400	2.0	61.0	-69.6	-1.2	-91.2	98842.3	399.0	0.0	17.181257057189942	0.0	0.0	-419.0	1291.6	-83769.2	0.0	0.0	0.0	0.0	2076.0	2044.0	2572.8	0.0	0.0	0.0	0.0	350269158.5
2020-06-30 07:32:01.450	2.0	61.0	-69.8	-3.8	-95.0	98839.3	399.0	0.0	17.163545036315917	0.0	0.0	-418.6	1289.6	-83772.9	0.0	0.0	0.0	0.0	2076.0	2042.0	2574.0	0.0	0.0	0.0	0.0	350319240.8
2020-06-30 07:32:01.500	2.0	61.0	-70.4	-4.0	-96.4	98845.3	399.0	0.0	17.141365242004394	0.0	0.0	-417.2	1280.3	-83776.8	0.0	0.0	0.0	0.0	2076.0	2042.4	2572.0	0.0	0.0	0.0	0.0	350369311.0
2020-06-30 07:32:01.550	2.0	61.0	-70.6	-5.0	-93.0	98843.8	399.0	0.0	17.123768043518066	0.0	0.0	-414.9	1279.4	-83781.5	0.0	0.0	0.0	0.0	2076.0	2043.6	2572.0	0.0	0.0	0.0	0.0	350419317.1
2020-06-30 07:32:01.600	2.0	61.0	-70.0	-4.888888888888889	-94.66666666666667	98841.0	399.0	0.0	17.104834450615776	0.0	0.0	-412.44444444444446	1277.5555555555557	-83786.77777777778	0.0	0.0	0.0	0.0	2076.8888888888887	2044.0	2572.0	0.0	0.0	0.0	0.0	350468583.4444444
2020-06-30 07:32:01.650	2.0	61.0	-72.0	-3.25	-96.25	98843.875	399.0	0.0	17.08622431755066	0.0	0.0	-409.5	1278.5	-83791.125	0.0	0.0	0.0	0.0	2076.0	2044.0	2572.5	0.0	0.0	0.0	0.0	350520679.0
2020-06-30 07:32:01.700	2.0	61.0	-71.0	-4.6	-91.8	98837.8	399.0	0.0	17.070322227478027	0.0	0.0	-407.1	1280.1	-83796.3	0.0	0.0	0.0	0.0	2076.0	2044.0	2572.0	0.0	0.0	0.0	0.0	350569552.0
2020-06-30 07:32:01.750	2.0	61.0	-69.0	-4.6	-95.8	98841.7	399.0	0.0	17.05397300720215	0.0	0.0	-406.0	1281.3	-83800.3	0.0	0.0	0.0	0.0	2076.0	2044.0	2574.4	0.0	0.0	0.0	0.0	350619671.2
2020-06-30 07:32:01.800	2.0	61.0	-70.6	-3.8	-93.8	98845.3	399.0	0.0	17.037693405151366	0.0	0.0	-406.4	1281.7	-83803.0	0.0	0.0	0.0	0.0	2076.0	2044.0	2573.6	0.0	0.0	0.0	0.0	350669686.4
2020-06-30 07:32:01.850	2.0	61.0	-71.0	-1.4	-96.2	98846.5	399.0	0.0	17.021376037597655	0.0	0.0	-406.8	1282.8	-83807.1	0.0	0.0	0.0	0.0	2076.0	2044.0	2572.0	0.0	0.0	0.0	0.0	350719787.0
2020-06-30 07:32:01.900	2.0	61.0	-73.55555555555556	-3.7777777777777777	-95.77777777777777	98841.33333333333	399.0	0.0	17.006171968248154	0.0	0.0	-407.3333333333333	1284.6666666666667	-83811.33333333333	0.0	0.0	0.0	0.0	2076.0	2044.4444444444443	2572.0	0.0	0.0	0.0	0.0	350768530.4444444
2020-06-30 07:32:01.950	2.0	61.0	-73.4	-4.6	-95.0	98844.7	399.0	0.0	16.989432907104494	0.0	0.0	-407.0	1286.9	-83816.5	0.0	0.0	0.0	0.0	2076.0	2044.0	2572.0	0.0	0.0	0.0	0.0	350819988.5
2020-06-30 07:32:02.000	2.0	61.0	-72.2	-3.8	-93.8	98845.0	399.0	0.0	16.973114204406738	0.0	0.0	-406.8	1288.6	-83821.5	0.0	0.0	0.0	0.0	2076.0	2044.0	2572.0	0.0	0.0	0.0	0.0	350869985.4
2020-06-30 07:32:02.050	2.0	61.0	-69.0	-4.6	-91.0	98848.6	399.0	0.0	16.95678653717041	0.0	0.0	-405.4	1289.6	-83825.1	0.0	0.0	0.0	0.0	2076.0	2044.0	2572.0	0.0	0.0	0.0	0.0	350920107.6
2020-06-30 07:32:02.100	2.0	61.0	-70.0	-4.4	-94.0	98845.6	399.0	0.0	16.940553855895995	0.0	0.0	-403.4	1290.0	-83829.0	0.0	0.0	0.0	0.0	2076.0	2044.0	2574.4	0.0	0.0	0.0	0.0	350970189.8
2020-06-30 07:32:02.150	2.0	61.0	-71.4	-4.2	-93.0	98844.1	399.0	0.0	16.922993087768553	0.0	0.0	-401.9	1286.3	-83832.2	0.0	0.0	0.0	0.0	2076.0	2041.2	2572.8	0.0	0.0	0.0	0.0	351020339.4
2020-06-30 07:32:02.200	2.0	61.0	-71.6	-4.0	-95.2	98845.3	399.0	0.0	16.901891136169432	0.0	0.0	-400.5	1279.1	-83835.7	0.0	0.0	0.0	0.0	2076.4	2044.0	2572.0	0.0	0.0	0.0	0.0	351070299.8
2020-06-30 07:32:02.250	2.0	61.0	-70.0	-2.4	-94.8	98846.8	399.0	0.0	16.885609436035157	0.0	0.0	-400.0	1278.7	-83840.0	0.0	0.0	0.0	0.0	2076.0	2044.0	2572.0	0.0	0.0	0.0	0.0	351120425.0
2020-06-30 07:32:02.300	2.0	61.0	-71.6	-3.6	-94.0	98843.5	399.0	0.0	16.86912136077881	0.0	0.0	-397.9	1279.4	-83845.1	0.0	0.0	0.0	0.0	2076.8	2044.0	2572.0	0.0	0.0	0.0	0.0	351170470.7
2020-06-30 07:32:02.350	2.0	61.0	-72.66666666666667	-4.0	-92.66666666666667	98848.0	399.0	0.0	16.85109371609158	0.0	0.0	-395.6666666666667	1280.0	-83849.77777777778	0.0	0.0	0.0	0.0	2076.0	2044.0	2572.8888888888887	0.0	0.0	0.0	0.0	351219207.3333333
2020-06-30 07:32:02.400	2.0	61.0	-72.1	-4.1	-94.3	98848.6	399.0	0.0	16.83459415435791	0.0	0.0	-395.8	1279.0	-83855.6	0.0	0.0	0.0	0.0	2076.0	2044.0	2572.4	0.0	0.0	0.0	0.0	351272149.1
2020-06-30 07:32:02.450	2.0	61.0	-70.66666666666667	-2.2222222222222223	-95.55555555555556	98852.33333333333	399.0	0.0	16.81859482659234	0.0	0.0	-395.55555555555554	1279.4444444444443	-83861.0	0.0	0.0	0.0	0.0	2076.0	2043.5555555555557	2572.4444444444443	0.0	0.0	0.0	0.0	351323292.5555556
2020-06-30 07:32:02.500	2.0	61.0	-69.8	-6.6	-96.2	98853.4	399.0	0.0	16.802117538452148	0.0	0.0	-395.9	1278.1	-83866.6	0.0	0.0	0.0	0.0	2076.0	2043.2	2572.0	0.0	0.0	0.0	0.0	351370809.5
2020-06-30 07:32:02.550	2.0	61.0	-71.6	-5.2	-94.8	98849.2	399.0	0.0	16.785995101928712	0.0	0.0	-395.0	1279.0	-83872.3	0.0	0.0	0.0	0.0	2076.0	2044.0	2574.0	0.0	0.0	0.0	0.0	351420986.5
2020-06-30 07:32:02.600	2.0	61.0	-68.44444444444444	-4.0	-92.88888888888889	98848.0	399.0	0.0	16.770882500542534	0.0	0.0	-394.1111111111111	1280.111111111111	-83876.33333333333	0.0	0.0	0.0	0.0	2076.0	2044.0	2572.8888888888887	0.0	0.0	0.0	0.0	351469563.3333333
2020-06-30 07:32:02.650	2.0	61.0	-69.22222222222223	-3.888888888888889	-95.88888888888889	98849.0	399.0	0.0	16.75543424818251	0.0	0.0	-393.0	1280.888888888889	-83879.66666666667	0.0	0.0	0.0	0.0	2076.0	2044.0	2572.8888888888887	0.0	0.0	0.0	0.0	351519632.6666667
2020-06-30 07:32:02.700	2.0	61.0	-70.88888888888889	-3.3333333333333335	-95.33333333333333	98848.0	399.0	0.0	16.740263409084744	0.0	0.0	-392.1111111111111	1281.7777777777778	-83884.33333333333	0.0	0.0	0.0	0.0	2076.0	2044.0	2572.8888888888887	0.0	0.0	0.0	0.0	351568603.0
2020-06-30 07:32:02.750	2.0	61.0	-71.63636363636364	-3.6363636363636362	-92.72727272727273	98847.72727272728	399.0	0.0	16.724931890314277	0.0	0.0	-389.72727272727275	1280.7272727272727	-83887.72727272728	0.0	0.0	0.0	0.0	2076.0	2044.0	2572.0	0.0	0.0	0.0	0.0	351618665.6363636
2020-06-30 07:32:02.800	2.0	61.0	-68.6	-4.2	-95.4	98848.6	399.0	0.0	16.708858489990234	0.0	0.0	-388.9	1280.5	-83890.5	0.0	0.0	0.0	0.0	2076.0	2044.0	2572.4	0.0	0.0	0.0	0.0	351671264.1
2020-06-30 07:32:02.850	2.0	61.0	-69.66666666666667	-4.111111111111111	-94.11111111111111	98849.66666666667	399.0	0.0	16.69391547309028	0.0	0.0	-388.22222222222223	1281.4444444444443	-83894.77777777778	0.0	0.0	0.0	0.0	2076.0	2044.0	2572.4444444444443	0.0	0.0	0.0	0.0	351719943.1111111
2020-06-30 07:32:02.900	2.0	61.0	-70.0	-4.666666666666667	-93.55555555555556	98849.33333333333	399.0	0.0	16.677717208862305	0.0	0.0	-387.22222222222223	1282.6666666666667	-83900.0	0.0	0.0	0.0	0.0	2076.0	2044.0	2573.777777777778	0.0	0.0	0.0	0.0	351773335.2222222
2020-06-30 07:32:02.950	2.0	61.0	-70.33333333333333	-4.555555555555555	-94.55555555555556	98851.0	399.0	0.0	16.663882361518013	0.0	0.0	-385.6666666666667	1282.2222222222222	-83904.77777777778	0.0	0.0	0.0	0.0	2076.0	2044.0	2572.0	0.0	0.0	0.0	0.0	351818969.2222222
2020-06-30 07:32:03.000	2.0	61.0	-68.7	-5.7	-92.7	98847.1	399.0	0.0	16.64945297241211	0.0	0.0	-386.0	1283.4	-83908.2	0.0	0.0	0.0	0.0	2076.0	2044.0	2572.8	0.0	0.0	0.0	0.0	351866543.1
2020-06-30 07:32:03.050	2.0	61.0	-70.5	-3.7	-93.9	98848.9	399.0	0.0	16.633952713012697	0.0	0.0	-385.9	1283.7	-83911.5	0.0	0.0	0.0	0.0	2076.0	2044.0	2572.0	0.0	0.0	0.0	0.0	351917626.4
2020-06-30 07:32:03.100	2.0	61.0	-72.25	-2.5	-93.25	98845.75	399.0	0.0	16.618800401687622	0.0	0.0	-385.0	1284.0	-83916.375	0.0	0.0	0.0	0.0	2076.0	2044.0	2573.5	0.0	0.0	0.0	0.0	351967940.75
2020-06-30 07:32:03.150	2.0	61.0	-67.0	-5.0	-95.0	98846.5	399.0	0.0	16.60710048675537	0.0	0.0	-383.5	1284.0	-83920.0	0.0	0.0	0.0	0.0	2076.0	2044.0	2576.0	0.0	0.0	0.0	0.0	352006759.5
2020-06-30 07:32:03.200	2.0	61.0	-71.33333333333333	-2.6666666666666665	-94.0	98847.5	399.0	0.0	16.589934984842937	0.0	0.0	-382.1666666666667	1283.3333333333333	-83923.16666666667	0.0	0.0	0.0	0.0	2076.0	2044.0	2572.0	0.0	0.0	0.0	0.0	352064498.3333333
2020-06-30 07:32:03.250	2.0	61.0	-69.22222222222223	-4.333333333333333	-94.77777777777777	98849.33333333333	399.0	0.0	16.573623021443684	0.0	0.0	-380.6666666666667	1283.4444444444443	-83928.11111111111	0.0	0.0	0.0	0.0	2076.0	2044.0	2572.0	0.0	0.0	0.0	0.0	352119001.1111111
2020-06-30 07:32:03.300	2.0	61.0	-71.8	-1.8	-94.4	98851.3	399.0	0.0	16.559256553649902	0.0	0.0	-381.7	1283.7	-83933.0	0.0	0.0	0.0	0.0	2076.0	2044.0	2572.0	0.0	0.0	0.0	0.0	352167034.5
2020-06-30 07:32:03.350	2.0	61.0	-71.27272727272727	-4.0	-98.0	98851.0	399.0	0.0	16.54357285933061	0.0	0.0	-381.3636363636364	1283.7272727272727	-83936.45454545454	0.0	0.0	0.0	0.0	2076.3636363636365	2044.0	2572.0	0.0	0.0	0.0	0.0	352219615.1818182
2020-06-30 07:32:03.400	2.0	61.0	-73.11111111111111	-4.222222222222222	-94.0	98846.66666666667	399.0	0.0	16.52713457743327	0.0	0.0	-379.77777777777777	1284.0	-83941.77777777778	0.0	0.0	0.0	0.0	2076.0	2044.0	2574.222222222222	0.0	0.0	0.0	0.0	352269768.2222222
2020-06-30 07:32:03.450	2.0	61.0	-72.1	-1.5	-95.1	98849.8	399.0	0.0	16.511711502075194	0.0	0.0	-378.7	1284.7	-83948.4	0.0	0.0	0.0	0.0	2076.0	2044.0	2576.0	0.0	0.0	0.0	0.0	352321776.8
2020-06-30 07:32:03.500	2.0	61.0	-69.66666666666667	-2.111111111111111	-93.88888888888889	98845.33333333333	399.0	0.0	16.49755096435547	0.0	0.0	-378.0	1284.6666666666667	-83952.11111111111	0.0	0.0	0.0	0.0	2076.0	2044.0	2572.8888888888887	0.0	0.0	0.0	0.0	352369855.6666667
2020-06-30 07:32:03.550	2.0	61.0	-70.1	-5.3	-94.3	98847.1	399.0	0.0	16.48264980316162	0.0	0.0	-377.7	1286.2	-83956.3	0.0	0.0	0.0	0.0	2076.0	2044.0	2574.0	0.0	0.0	0.0	0.0	352420427.9
2020-06-30 07:32:03.600	2.0	61.0	-71.77777777777777	-3.111111111111111	-93.77777777777777	98844.0	399.22222222222223	0.0	16.46811400519477	0.0	0.0	-377.0	1287.3333333333333	-83960.77777777778	0.0	0.0	0.0	0.0	2076.0	2044.4444444444443	2572.8888888888887	0.0	0.0	0.0	0.0	352470109.2222222
2020-06-30 07:32:03.650	2.0	61.0	-70.36363636363636	-5.090909090909091	-94.54545454545455	98846.09090909091	399.6363636363636	0.0	16.454064282503996	0.0	0.0	-377.0	1288.5454545454545	-83965.63636363637	0.0	0.0	0.0	0.0	2076.0	2044.0	2572.0	0.0	0.0	0.0	0.0	352520099.54545456
2020-06-30 07:32:03.700	2.0	61.0	-70.33333333333333	-5.888888888888889	-92.55555555555556	98852.0	399.3333333333333	0.0	16.43931770324707	0.0	0.0	-376.55555555555554	1288.4444444444443	-83970.0	0.0	0.0	0.0	0.0	2076.0	2044.0	2574.222222222222	0.0	0.0	0.0	0.0	352570152.6666667
2020-06-30 07:32:03.750	2.0	61.0	-72.6	-2.8	-94.2	98848.3	400.0	0.0	16.425759887695314	0.0	0.0	-374.4	1289.6	-83973.5	0.0	0.0	0.0	0.0	2076.0	2044.4	2572.4	0.0	0.0	0.0	0.0	352617748.6
2020-06-30 07:32:03.800	2.0	61.0	-72.0909090909091	-5.0	-93.9090909090909	98848.54545454546	399.90909090909093	0.0	16.410727067427203	0.0	0.0	-374.6363636363636	1291.3636363636363	-83977.09090909091	0.0	0.0	0.0	0.0	2076.0	2044.0	2572.0	0.0	0.0	0.0	0.0	352670387.54545456
2020-06-30 07:32:03.850	2.0	61.0	-67.5	-5.0	-95.0	98845.375	399.875	0.0	16.3967022895813	0.0	0.0	-374.25	1292.875	-83980.25	0.0	0.0	0.0	0.0	2077.0	2044.0	2572.0	0.0	0.0	0.0	0.0	352717937.0
2020-06-30 07:32:03.900	2.0	61.0	-69.5	-4.7	-92.7	98843.8	399.7	0.0	16.37524299621582	0.0	0.0	-369.0	1292.6	-83983.9	0.0	0.0	0.0	0.0	2077.2	2043.6	2572.0	0.0	0.0	0.0	0.0	352766524.7
2020-06-30 07:32:03.950	2.0	61.0	-70.27272727272727	-4.636363636363637	-95.54545454545455	98845.27272727272	399.8181818181818	0.0	16.356469241055574	0.0	0.0	-368.0	1291.0	-83989.09090909091	0.0	0.0	0.0	0.0	2076.0	2044.0	2572.0	0.0	0.0	0.0	0.0	352820581.09090906
2020-06-30 07:32:04.000	2.0	61.0	-73.66666666666667	-5.222222222222222	-95.22222222222223	98845.33333333333	400.0	0.0	16.342183854844833	0.0	0.0	-366.55555555555554	1291.5555555555557	-83993.88888888889	0.0	0.0	0.0	0.0	2076.0	2044.0	2572.0	0.0	0.0	0.0	0.0	352870645.7777778
2020-06-30 07:32:04.050	2.0	61.0	-71.55555555555556	-7.111111111111111	-92.88888888888889	98839.33333333333	400.0	0.0	16.328048282199436	0.0	0.0	-365.6666666666667	1292.6666666666667	-83998.66666666667	0.0	0.0	0.0	0.0	2076.0	2044.0	2572.0	0.0	0.0	0.0	0.0	352920253.7777778
2020-06-30 07:32:04.100	2.0	61.0	-71.66666666666667	-5.0	-93.88888888888889	98842.66666666667	400.0	0.0	16.31420029534234	0.0	0.0	-366.1111111111111	1294.2222222222222	-84002.66666666667	0.0	0.0	0.0	0.0	2076.0	2044.0	2572.0	0.0	0.0	0.0	0.0	352968579.7777778
2020-06-30 07:32:04.150	2.0	61.0	-68.9	-4.1	-95.1	98840.8	400.0	0.0	16.299076271057128	0.0	0.0	-366.5	1293.9	-84007.1	0.0	0.0	0.0	0.0	2076.0	2044.0	2572.0	0.0	0.0	0.0	0.0	353021389.3
2020-06-30 07:32:04.200	2.0	61.0	-69.125	-3.125	-96.125	98842.75	400.0	0.0	16.284523487091064	0.0	0.0	-365.375	1293.0	-84011.875	0.0	0.0	0.0	0.0	2076.0	2044.0	2572.5	0.0	0.0	0.0	0.0	353072852.625
2020-06-30 07:32:04.250	2.0	61.0	-69.11111111111111	-9.11111111111111	-94.22222222222223	98849.33333333333	400.0	0.0	16.271710713704426	0.0	0.0	-366.0	1293.4444444444443	-84014.11111111111	0.0	0.0	0.0	0.0	2076.0	2044.0	2572.0	0.0	0.0	0.0	0.0	353117705.7777778
2020-06-30 07:32:04.300	2.0	61.0	-67.6	-4.2	-95.6	98845.9	400.0	0.0	16.258629417419435	0.0	0.0	-366.3	1296.9	-84017.6	0.0	0.0	0.0	0.0	2076.0	2045.2	2572.0	0.0	0.0	0.0	0.0	353168603.1
2020-06-30 07:32:04.350	2.0	61.0	-70.4	-3.2	-95.0	98843.5	400.0	0.0	16.244977951049805	0.0	0.0	-366.9	1300.8	-84021.3	0.0	0.0	0.0	0.0	2076.0	2044.4	2571.6	0.0	0.0	0.0	0.0	353221728.1
2020-06-30 07:32:04.400	2.0	61.0	-70.75	-3.75	-92.5	98845.0	400.0	0.0	16.233336210250854	0.0	0.0	-369.5	1303.125	-84025.75	0.0	0.0	0.0	0.0	2073.0	2044.0	2572.0	0.0	0.0	0.0	0.0	353273784.25
2020-06-30 07:32:04.450	2.0	61.0	-70.88888888888889	-5.333333333333333	-96.44444444444444	98842.66666666667	400.0	0.0	16.226693047417534	0.0	0.0	-375.8888888888889	1303.3333333333333	-84030.0	0.0	0.0	0.0	0.0	2076.0	2044.0	2573.3333333333335	0.0	0.0	0.0	0.0	353320857.7777778
2020-06-30 07:32:04.500	2.0	61.0	-69.44444444444444	-3.4444444444444446	-95.66666666666667	98848.0	400.0	0.0	16.211869981553818	0.0	0.0	-376.0	1304.0	-84036.11111111111	0.0	0.0	0.0	0.0	2076.0	2044.0	2572.4444444444443	0.0	0.0	0.0	0.0	353371435.6666667
2020-06-30 07:32:04.550	2.0	61.0	-70.3	-2.1	-95.5	98848.3	400.0	0.0	16.197453880310057	0.0	0.0	-375.7	1305.2	-84041.0	0.0	0.0	0.0	0.0	2076.0	2044.0	2570.8	0.0	0.0	0.0	0.0	353420522.5
2020-06-30 07:32:04.600	2.0	61.0	-70.22222222222223	-6.0	-95.77777777777777	98848.33333333333	400.0	0.0	16.18385632832845	0.0	0.0	-376.77777777777777	1304.4444444444443	-84046.11111111111	0.0	0.0	0.0	0.0	2074.6666666666665	2044.0	2572.0	0.0	0.0	0.0	0.0	353471597.7777778
2020-06-30 07:32:04.650	2.0	61.0	-69.22222222222223	-5.0	-96.11111111111111	98850.66666666667	400.0	0.0	16.172890133327908	0.0	0.0	-378.3333333333333	1304.7777777777778	-84052.11111111111	0.0	0.0	0.0	0.0	2076.0	2044.0	2572.0	0.0	0.0	0.0	0.0	353521182.0
2020-06-30 07:32:04.700	2.0	61.0	-72.0	-3.0	-95.75	98848.75	400.0	0.0	16.158260107040405	0.0	0.0	-377.125	1305.125	-84057.0	0.0	0.0	0.0	0.0	2076.0	2044.0	2572.0	0.0	0.0	0.0	0.0	353570552.25
2020-06-30 07:32:04.750	2.0	61.0	-70.3	-4.5	-95.1	98848.6	400.0	0.0	16.143614959716796	0.0	0.0	-376.7	1304.6	-84060.1	0.0	0.0	0.0	0.0	2076.0	2044.4	2572.0	0.0	0.0	0.0	0.0	353620858.3
2020-06-30 07:32:04.800	2.0	61.0	-71.66666666666667	-5.444444444444445	-95.22222222222223	98846.0	400.0	0.0	16.1292298634847	0.0	0.0	-376.0	1307.2222222222222	-84062.88888888889	0.0	0.0	0.0	0.0	2076.0	2044.0	2574.6666666666665	0.0	0.0	0.0	0.0	353671928.7777778
2020-06-30 07:32:04.850	2.0	61.0	-70.63636363636364	-3.727272727272727	-96.0909090909091	98847.18181818182	400.0	0.0	16.114526228471235	0.0	0.0	-376.0	1308.7272727272727	-84066.36363636363	0.0	0.0	0.0	0.0	2076.0	2044.0	2571.6363636363635	0.0	0.0	0.0	0.0	353721998.3636364
2020-06-30 07:32:04.900	2.0	61.0	-72.0	-6.5	-93.5	98846.5	400.0	0.0	16.099220275878906	0.0	0.0	-375.0	1309.0	-84071.125	0.0	0.0	0.0	0.0	2076.5	2044.0	2571.5	0.0	0.0	0.0	0.0	353769553.75
2020-06-30 07:32:04.950	2.0	61.0	-69.16666666666667	-3.1666666666666665	-95.5	98846.5	400.0	0.0	16.084525108337402	0.0	0.0	-373.0833333333333	1308.9166666666667	-84076.33333333333	0.0	0.0	0.0	0.0	2076.0	2045.0	2573.3333333333335	0.0	0.0	0.0	0.0	353819671.1666667
2020-06-30 07:32:05.000	2.0	61.0	-70.0	-6.5	-93.5	98846.125	400.0	0.0	16.070508241653442	0.0	0.0	-371.0	1311.875	-84081.75	0.0	0.0	0.0	0.0	2077.5	2044.0	2572.0	0.0	0.0	0.0	0.0	353870997.875
2020-06-30 07:32:05.050	2.0	61.0	-71.72727272727273	-1.9090909090909092	-94.45454545454545	98845.27272727272	400.0	0.0	16.05196120522239	0.0	0.0	-366.27272727272725	1311.0	-84087.18181818182	0.0	0.0	0.0	0.0	2076.3636363636365	2044.0	2572.0	0.0	0.0	0.0	0.0	353922243.3636364
2020-06-30 07:32:05.100	2.0	61.0	-71.88888888888889	-3.4444444444444446	-94.11111111111111	98844.0	400.0	0.0	16.033416112263996	0.0	0.0	-363.3333333333333	1310.4444444444443	-84092.22222222222	0.0	0.0	0.0	0.0	2076.8888888888887	2044.0	2572.0	0.0	0.0	0.0	0.0	353972431.7777778
2020-06-30 07:32:05.150	2.0	61.0	-71.22222222222223	-3.4444444444444446	-92.33333333333333	98840.33333333333	400.0	0.0	16.019589106241863	0.0	0.0	-363.55555555555554	1309.3333333333333	-84096.44444444444	0.0	0.0	0.0	0.0	2076.0	2044.0	2574.222222222222	0.0	0.0	0.0	0.0	354018506.6666667
2020-06-30 07:32:05.200	2.0	61.0	-69.77777777777777	-5.111111111111111	-92.66666666666667	98840.66666666667	400.0	0.0	15.99781608581543	0.0	0.0	-358.22222222222223	1309.7777777777778	-84102.0	0.0	0.0	0.0	0.0	2078.222222222222	2044.0	2572.0	0.0	0.0	0.0	0.0	354072004.0
2020-06-30 07:32:05.250	2.0	61.0	-72.0	-2.0	-96.8	98843.5	400.0	0.0	15.981273460388184	0.0	0.0	-355.9	1309.3	-84107.0	0.0	0.0	0.0	0.0	2076.4	2044.0	2572.0	0.0	0.0	0.0	0.0	354120113.6
2020-06-30 07:32:05.300	2.0	61.0	-70.3	-1.5	-93.9	98845.0	400.0	0.0	15.962183380126953	0.0	0.0	-350.5	1308.9	-84113.1	0.0	0.0	0.0	0.0	2077.2	2044.0	2572.0	0.0	0.0	0.0	0.0	354170150.3
2020-06-30 07:32:05.350	2.0	61.0	-70.44444444444444	-3.7777777777777777	-90.88888888888889	98844.66666666667	400.0	0.0	15.94697454240587	0.0	0.0	-350.6666666666667	1308.6666666666667	-84117.88888888889	0.0	0.0	0.0	0.0	2076.0	2044.0	2572.0	0.0	0.0	0.0	0.0	354221611.4444444
2020-06-30 07:32:05.400	2.0	61.0	-70.9	-2.5	-94.5	98844.7	400.0	0.0	15.933805847167969	0.0	0.0	-349.7	1307.1	-84121.3	0.0	0.0	0.0	0.0	2076.0	2044.0	2571.6	0.0	0.0	0.0	0.0	354270403.6
2020-06-30 07:32:05.450	2.0	61.0	-71.1	-4.7	-92.9	98845.3	400.0	0.0	15.92034034729004	0.0	0.0	-348.1	1307.0	-84126.1	0.0	0.0	0.0	0.0	2076.0	2044.0	2572.0	0.0	0.0	0.0	0.0	354320428.0
2020-06-30 07:32:05.500	2.0	61.0	-69.55555555555556	-6.666666666666667	-97.55555555555556	98842.33333333333	400.0	0.0	15.904746691385904	0.0	0.0	-345.0	1305.111111111111	-84131.0	0.0	0.0	0.0	0.0	2076.0	2044.0	2572.0	0.0	0.0	0.0	0.0	354372958.3333333
2020-06-30 07:32:05.550	2.0	61.0	-70.77777777777777	-5.222222222222222	-95.88888888888889	98847.66666666667	400.0	0.0	15.89153798421224	0.0	0.0	-346.22222222222223	1304.5555555555557	-84136.66666666667	0.0	0.0	0.0	0.0	2076.0	2044.0	2572.0	0.0	0.0	0.0	0.0	354421901.6666667
2020-06-30 07:32:05.600	2.0	61.0	-73.2	-2.6	-95.8	98844.7	400.0	0.0	15.878532218933106	0.0	0.0	-347.9	1303.2	-84140.0	0.0	0.0	0.0	0.0	2076.0	2044.0	2572.0	0.0	0.0	0.0	0.0	354470632.3
2020-06-30 07:32:05.650	2.0	61.0	-69.4	-3.4	-94.2	98844.4	400.0	0.0	15.865159893035889	0.0	0.0	-348.7	1304.6	-84144.8	0.0	0.0	0.0	0.0	2076.0	2044.0	2572.0	0.0	0.0	0.0	0.0	354520696.5
2020-06-30 07:32:05.700	2.0	61.0	-70.0	-3.142857142857143	-96.0	98843.71428571429	400.0	0.0	15.852621623447963	0.0	0.0	-349.0	1304.0	-84149.42857142857	0.0	0.0	0.0	0.0	2076.0	2044.0	2572.0	0.0	0.0	0.0	0.0	354567578.4285714
2020-06-30 07:32:05.750	2.0	61.0	-69.4	-1.8	-95.4	98841.4	400.0	0.0	15.839806652069091	0.0	0.0	-348.1	1303.0	-84153.5	0.0	0.0	0.0	0.0	2076.0	2044.0	2572.8	0.0	0.0	0.0	0.0	354615875.0
2020-06-30 07:32:05.800	2.0	61.0	-69.27272727272727	-4.363636363636363	-94.72727272727273	98842.54545454546	400.0	0.0	15.825850226662375	0.0	0.0	-347.09090909090907	1302.8181818181818	-84157.36363636363	0.0	0.0	0.0	0.0	2076.0	2044.0	2572.0	0.0	0.0	0.0	0.0	354668459.3636364
2020-06-30 07:32:05.850	2.0	61.0	-73.55555555555556	-2.888888888888889	-93.77777777777777	98838.66666666667	400.0	0.0	15.812009281582302	0.0	0.0	-347.0	1301.6666666666667	-84162.88888888889	0.0	0.0	0.0	0.0	2076.0	2044.0	2572.0	0.0	0.0	0.0	0.0	354720719.4444444
2020-06-30 07:32:05.900	2.0	61.0	-71.125	-2.375	-95.875	98840.5	400.0	0.0	15.798693418502808	0.0	0.0	-347.0	1301.125	-84167.0	0.0	0.0	0.0	0.0	2076.0	2044.0	2572.0	0.0	0.0	0.0	0.0	354771060.5
2020-06-30 07:32:05.950	2.0	61.0	-70.3	-4.1	-94.7	98842.0	400.0	0.0	15.785492610931396	0.0	0.0	-346.6	1300.8	-84170.5	0.0	0.0	0.0	0.0	2076.0	2044.0	2572.4	0.0	0.0	0.0	0.0	354821184.6
2020-06-30 07:32:06.000	2.0	61.0	-70.2	-2.8	-96.0	98838.4	400.0	0.0	15.772427749633788	0.0	0.0	-345.5	1299.6	-84174.1	0.0	0.0	0.0	0.0	2076.0	2044.0	2572.0	0.0	0.0	0.0	0.0	354871245.9
2020-06-30 07:32:06.050	2.0	61.0	-68.8	-2.4	-97.8	98845.6	400.0	0.0	15.759314346313477	0.0	0.0	-344.8	1299.3	-84179.5	0.0	0.0	0.0	0.0	2076.0	2044.0	2572.8	0.0	0.0	0.0	0.0	354921319.0
2020-06-30 07:32:06.100	2.0	61.0	-70.25	-4.0	-96.25	98843.125	400.0	0.0	15.747556805610657	0.0	0.0	-344.875	1299.0	-84184.375	0.0	0.0	0.0	0.0	2076.0	2044.5	2572.0	0.0	0.0	0.0	0.0	354967662.375
2020-06-30 07:32:06.150	2.0	61.0	-68.6	-4.8	-94.6	98843.8	400.0	0.0	15.732525157928468	0.0	0.0	-343.2	1300.1	-84191.5	0.0	0.0	0.0	0.0	2076.4	2043.2	2572.0	0.0	0.0	0.0	0.0	355021441.2
2020-06-30 07:32:06.200	2.0	61.0	-71.0	-0.3333333333333333	-95.0	98843.66666666667	400.0	0.0	15.717340893215603	0.0	0.0	-341.8888888888889	1299.0	-84197.77777777778	0.0	0.0	0.0	0.0	2076.0	2044.0	2572.0	0.0	0.0	0.0	0.0	355074041.8888889
2020-06-30 07:32:06.250	2.0	61.0	-71.5	-4.25	-94.75	98845.375	400.0	0.0	15.705003261566162	0.0	0.0	-342.75	1299.75	-84203.0	0.0	0.0	0.0	0.0	2076.0	2044.0	2572.0	0.0	0.0	0.0	0.0	355121642.5
2020-06-30 07:32:06.300	2.0	61.0	-71.11111111111111	-4.666666666666667	-95.33333333333333	98845.66666666667	400.0	0.0	15.692754745483398	0.0	0.0	-342.77777777777777	1298.888888888889	-84208.33333333333	0.0	0.0	0.0	0.0	2076.0	2044.0	2572.0	0.0	0.0	0.0	0.0	355169168.5555556
2020-06-30 07:32:06.350	2.0	61.0	-71.18181818181819	-3.909090909090909	-95.18181818181819	98844.72727272728	400.1818181818182	0.0	15.679865403608842	0.0	0.0	-343.0	1298.6363636363637	-84214.81818181818	0.0	0.0	0.0	0.0	2076.0	2044.0	2572.7272727272725	0.0	0.0	0.0	0.0	355219276.6363636
2020-06-30 07:32:06.400	2.0	61.0	-69.85714285714286	-3.0	-93.85714285714286	98848.42857142857	400.0	0.0	15.665114266531807	0.0	0.0	-342.85714285714283	1296.7142857142858	-84219.28571428571	0.0	0.0	0.0	0.0	2076.0	2042.857142857143	2573.714285714286	0.0	0.0	0.0	0.0	355272940.0
2020-06-30 07:32:06.450	2.0	61.0	-69.66666666666667	-4.555555555555555	-94.33333333333333	98845.0	400.22222222222223	0.0	15.650605201721191	0.0	0.0	-342.3333333333333	1293.7777777777778	-84223.44444444444	0.0	0.0	0.0	0.0	2076.0	2044.0	2572.0	0.0	0.0	0.0	0.0	355322790.5555556
2020-06-30 07:32:06.500	2.0	61.0	-70.44444444444444	-3.5555555555555554	-97.77777777777777	98846.33333333333	400.44444444444446	0.0	15.638700909084744	0.0	0.0	-342.0	1294.0	-84227.0	0.0	0.0	0.0	0.0	2076.0	2044.0	2572.4444444444443	0.0	0.0	0.0	0.0	355369496.2222222
2020-06-30 07:32:06.550	2.0	61.0	-70.5	-4.1	-94.3	98844.7	400.4	0.0	15.622183418273925	0.0	0.0	-340.2	1294.4	-84231.3	0.0	0.0	0.0	0.0	2078.8	2044.0	2572.0	0.0	0.0	0.0	0.0	355422103.5
2020-06-30 07:32:06.600	2.0	61.0	-71.0	-5.25	-95.75	98839.0	400.0	0.0	15.598974227905273	0.0	0.0	-331.75	1294.75	-84235.625	0.0	0.0	0.0	0.0	2077.0	2044.0	2572.0	0.0	0.0	0.0	0.0	355472171.125
2020-06-30 07:32:06.650	2.0	61.0	-70.0	-4.0	-96.0	98840.5	400.5	0.0	15.586854934692383	0.0	0.0	-331.75	1293.75	-84240.25	0.0	0.0	0.0	0.0	2078.0	2043.0	2572.0	0.0	0.0	0.0	0.0	355516013.5
2020-06-30 07:32:06.700	2.0	61.0	-70.8	-1.8	-95.0	98839.9	400.5	0.0	15.564308547973633	0.0	0.0	-324.4	1291.0	-84244.7	0.0	0.0	0.0	0.0	2076.8	2044.0	2572.4	0.0	0.0	0.0	0.0	355571294.5
2020-06-30 07:32:06.750	2.0	61.0	-69.44444444444444	-4.111111111111111	-93.88888888888889	98840.66666666667	400.44444444444446	0.0	15.551168123881022	0.0	0.0	-323.77777777777777	1289.3333333333333	-84248.77777777778	0.0	0.0	0.0	0.0	2076.0	2044.0	2572.4444444444443	0.0	0.0	0.0	0.0	355623344.8888889
2020-06-30 07:32:06.800	2.0	61.0	-71.22222222222223	-7.0	-93.44444444444444	98842.33333333333	401.0	0.0	15.537583880954319	0.0	0.0	-320.8888888888889	1289.2222222222222	-84255.44444444444	0.0	0.0	0.0	0.0	2078.6666666666665	2044.0	2572.0	0.0	0.0	0.0	0.0	355669992.5555556
2020-06-30 07:32:06.850	2.0	61.0	-70.0	-4.444444444444445	-92.44444444444444	98845.0	401.0	0.0	15.518182966444227	0.0	0.0	-313.77777777777777	1288.4444444444443	-84259.88888888889	0.0	0.0	0.0	0.0	2076.4444444444443	2044.0	2572.0	0.0	0.0	0.0	0.0	355716152.2222222
2020-06-30 07:32:06.900	2.0	61.0	-70.36363636363636	-3.090909090909091	-94.36363636363636	98842.81818181818	401.0	0.0	15.505434209650213	0.0	0.0	-314.27272727272725	1288.8181818181818	-84263.81818181818	0.0	0.0	0.0	0.0	2076.0	2044.0	2572.0	0.0	0.0	0.0	0.0	355770116.1818182
2020-06-30 07:32:06.950	2.0	61.0	-72.1	-2.5	-95.9	98840.5	401.0	0.0	15.495581436157227	0.0	0.0	-314.0	1293.5	-84269.1	0.0	0.0	0.0	0.0	2076.0	2046.0	2573.6	0.0	0.0	0.0	0.0	355822710.6
2020-06-30 07:32:07.000	2.0	61.0	-69.0	-1.8888888888888888	-96.77777777777777	98846.66666666667	401.0	0.0	15.485649638705784	0.0	0.0	-314.0	1296.111111111111	-84272.77777777778	0.0	0.0	0.0	0.0	2076.0	2044.0	2573.3333333333335	0.0	0.0	0.0	0.0	355870320.1111111
2020-06-30 07:32:07.050	2.0	61.0	-70.6	-3.4	-94.6	98840.2	401.0	0.0	15.474561786651611	0.0	0.0	-315.8	1296.1	-84275.9	0.0	0.0	0.0	0.0	2076.0	2044.0	2574.8	0.0	0.0	0.0	0.0	355917882.7
2020-06-30 07:32:07.100	2.0	61.0	-72.0	-2.909090909090909	-94.18181818181819	98836.27272727272	401.0	0.0	15.462297526272861	0.0	0.0	-316.6363636363636	1296.0	-84281.54545454546	0.0	0.0	0.0	0.0	2076.0	2044.0	2572.0	0.0	0.0	0.0	0.0	355970430.72727275
2020-06-30 07:32:07.150	2.0	61.0	-72.7	-4.5	-94.7	98839.6	401.0	0.0	15.450794315338134	0.0	0.0	-315.5	1297.3	-84287.2	0.0	0.0	0.0	0.0	2076.0	2044.8	2573.2	0.0	0.0	0.0	0.0	356023000.6
2020-06-30 07:32:07.200	2.0	61.0	-71.11111111111111	-3.7777777777777777	-95.33333333333333	98840.33333333333	401.0	0.0	15.43991862403022	0.0	0.0	-316.0	1298.5555555555557	-84291.22222222222	0.0	0.0	0.0	0.0	2076.0	2044.0	2572.0	0.0	0.0	0.0	0.0	356072258.2222222
2020-06-30 07:32:07.250	2.0	61.0	-70.0	-2.4	-95.6	98842.6	401.0	0.0	15.42728567123413	0.0	0.0	-314.4	1299.3	-84296.6	0.0	0.0	0.0	0.0	2076.8	2043.2	2572.0	0.0	0.0	0.0	0.0	356123156.4
2020-06-30 07:32:07.300	2.0	61.0	-70.88888888888889	-2.4444444444444446	-95.77777777777777	98840.66666666667	401.0	0.0	15.410862498813206	0.0	0.0	-313.77777777777777	1293.3333333333333	-84302.0	0.0	0.0	0.0	0.0	2075.1111111111113	2042.2222222222222	2572.0	0.0	0.0	0.0	0.0	356170758.8888889
2020-06-30 07:32:07.350	2.0	61.0	-71.9090909090909	-3.909090909090909	-92.63636363636364	98843.09090909091	401.0	0.0	15.400144837119363	0.0	0.0	-316.8181818181818	1290.3636363636363	-84306.36363636363	0.0	0.0	0.0	0.0	2077.4545454545455	2044.0	2572.0	0.0	0.0	0.0	0.0	356220846.8181818
2020-06-30 07:32:07.400	2.0	61.0	-71.22222222222223	-5.0	-92.11111111111111	98841.33333333333	401.0	0.0	15.38345389895969	0.0	0.0	-313.1111111111111	1289.5555555555557	-84310.22222222222	0.0	0.0	0.0	0.0	2076.0	2044.0	2572.0	0.0	0.0	0.0	0.0	356270921.0
2020-06-30 07:32:07.450	2.0	61.0	-73.125	-2.375	-92.375	98840.125	401.0	0.0	15.371909976005554	0.0	0.0	-314.625	1290.0	-84316.625	0.0	0.0	0.0	0.0	2076.0	2044.0	2572.0	0.0	0.0	0.0	0.0	356321593.625
2020-06-30 07:32:07.500	2.0	61.0	-70.33333333333333	-5.222222222222222	-94.77777777777777	98840.66666666667	401.0	0.0	15.360233306884766	0.0	0.0	-315.3333333333333	1290.5555555555557	-84321.0	0.0	0.0	0.0	0.0	2076.0	2044.0	2573.3333333333335	0.0	0.0	0.0	0.0	356372761.4444444
2020-06-30 07:32:07.550	2.0	61.0	-72.25	-6.0	-94.25	98842.75	401.0	0.0	15.348541617393494	0.0	0.0	-316.0	1291.0	-84324.5	0.0	0.0	0.0	0.0	2076.0	2044.0	2572.0	0.0	0.0	0.0	0.0	356423591.125
2020-06-30 07:32:07.600	2.0	61.0	-69.0	-4.555555555555555	-95.44444444444444	98841.0	401.0	0.0	15.336963971455893	0.0	0.0	-316.3333333333333	1292.3333333333333	-84329.0	0.0	0.0	0.0	0.0	2076.4444444444443	2044.0	2572.0	0.0	0.0	0.0	0.0	356471262.2222222
2020-06-30 07:32:07.650	2.0	61.0	-71.36363636363636	-5.545454545454546	-95.0	98842.0	401.0	0.0	15.324531121687455	0.0	0.0	-316.27272727272725	1291.6363636363637	-84334.36363636363	0.0	0.0	0.0	0.0	2076.0	2044.0	2572.0	0.0	0.0	0.0	0.0	356521345.1818182
2020-06-30 07:32:07.700	2.0	61.0	-69.22222222222223	-3.0	-95.44444444444444	98840.0	401.0	0.0	15.31295034620497	0.0	0.0	-318.8888888888889	1291.3333333333333	-84338.55555555556	0.0	0.0	0.0	0.0	2076.0	2044.0	2572.4444444444443	0.0	0.0	0.0	0.0	356571373.3333333
2020-06-30 07:32:07.750	2.0	61.0	-69.81818181818181	-3.272727272727273	-94.54545454545455	98839.27272727272	401.0	0.0	15.301381544633346	0.0	0.0	-320.72727272727275	1291.8181818181818	-84342.63636363637	0.0	0.0	0.0	0.0	2076.0	2044.0	2572.0	0.0	0.0	0.0	0.0	356621462.1818182
2020-06-30 07:32:07.800	2.0	61.0	-70.0	-3.7777777777777777	-93.33333333333333	98839.66666666667	401.0	0.0	15.289400100708008	0.0	0.0	-321.1111111111111	1292.0	-84346.55555555556	0.0	0.0	0.0	0.0	2076.0	2044.0	2572.0	0.0	0.0	0.0	0.0	356673190.1111111
2020-06-30 07:32:07.850	2.0	61.0	-69.7	-4.1	-92.7	98837.2	401.0	0.0	15.273023891448975	0.0	0.0	-318.0	1291.9	-84352.2	0.0	0.0	0.0	0.0	2077.6	2044.0	2572.0	0.0	0.0	0.0	0.0	356724108.3
2020-06-30 07:32:07.900	2.0	61.0	-69.0	-4.75	-94.5	98835.625	401.0	0.0	15.260552287101746	0.0	0.0	-317.5	1291.25	-84356.75	0.0	0.0	0.0	0.0	2076.0	2044.0	2573.0	0.0	0.0	0.0	0.0	356770491.875
2020-06-30 07:32:07.950	2.0	61.0	-70.33333333333333	-2.111111111111111	-91.22222222222223	98840.33333333333	401.0	0.0	15.250069618225098	0.0	0.0	-317.22222222222223	1294.6666666666667	-84360.77777777778	0.0	0.0	0.0	0.0	2076.0	2045.3333333333333	2572.0	0.0	0.0	0.0	0.0	356821759.8888889
2020-06-30 07:32:08.000	2.0	61.0	-68.11111111111111	-2.3333333333333335	-93.22222222222223	98842.33333333333	401.0	0.0	15.240047136942545	0.0	0.0	-316.44444444444446	1297.4444444444443	-84366.77777777778	0.0	0.0	0.0	0.0	2076.0	2044.0	2572.0	0.0	0.0	0.0	0.0	356871883.2222222
2020-06-30 07:32:08.050	2.0	61.0	-72.0	-4.0	-94.4	98839.5	401.0	0.0	15.2290602684021	0.0	0.0	-317.6	1298.6	-84372.0	0.0	0.0	0.0	0.0	2076.0	2044.0	2572.8	0.0	0.0	0.0	0.0	356919414.8
2020-06-30 07:32:08.100	2.0	61.0	-69.125	-2.625	-94.375	98841.625	401.0	0.0	15.217132568359375	0.0	0.0	-320.0	1298.5	-84377.625	0.0	0.0	0.0	0.0	2076.0	2044.0	2572.0	0.0	0.0	0.0	0.0	356970809.375
2020-06-30 07:32:08.150	2.0	61.0	-70.3	-5.3	-94.1	98843.8	401.0	0.0	15.204754257202149	0.0	0.0	-319.6	1298.3	-84383.2	0.0	0.0	0.0	0.0	2076.0	2044.0	2575.2	0.0	0.0	0.0	0.0	357024572.2
2020-06-30 07:32:08.200	2.0	61.0	-68.4	-3.6	-93.8	98837.2	401.0	0.0	15.194165420532226	0.0	0.0	-319.0	1301.1	-84388.3	0.0	0.0	0.0	0.0	2076.0	2044.8	2573.2	0.0	0.0	0.0	0.0	357074746.1
2020-06-30 07:32:08.250	2.0	61.0	-70.88888888888889	-2.2222222222222223	-91.77777777777777	98844.33333333333	401.0	0.0	15.183485137091743	0.0	0.0	-319.3333333333333	1301.5555555555557	-84393.0	0.0	0.0	0.0	0.0	2076.0	2044.0	2574.222222222222	0.0	0.0	0.0	0.0	357122249.5555556
2020-06-30 07:32:08.300	2.0	61.0	-71.2	-4.0	-94.8	98839.0	401.0	0.0	15.173138523101807	0.0	0.0	-318.2	1301.5	-84395.9	0.0	0.0	0.0	0.0	2076.0	2044.8	2572.8	0.0	0.0	0.0	0.0	357169881.7
2020-06-30 07:32:08.350	2.0	61.0	-70.6	-2.2	-93.0	98839.6	401.0	0.0	15.162026405334473	0.0	0.0	-318.2	1301.1	-84400.1	0.0	0.0	0.0	0.0	2076.0	2043.6	2572.0	0.0	0.0	0.0	0.0	357219875.5
2020-06-30 07:32:08.400	2.0	61.0	-71.8	-4.2	-93.8	98836.6	401.0	0.0	15.150419521331788	0.0	0.0	-318.9	1300.8	-84404.4	0.0	0.0	0.0	0.0	2076.0	2044.8	2571.2	0.0	0.0	0.0	0.0	357269967.1
2020-06-30 07:32:08.450	2.0	61.0	-67.66666666666667	-3.0	-96.11111111111111	98842.0	401.0	0.0	15.142109658983019	0.0	0.0	-320.8888888888889	1303.0	-84409.66666666667	0.0	0.0	0.0	0.0	2075.1111111111113	2044.0	2572.0	0.0	0.0	0.0	0.0	357320847.7777778
2020-06-30 07:32:08.500	2.0	61.0	-68.54545454545455	-6.181818181818182	-92.0	98840.63636363637	401.0	0.0	15.132370602000844	0.0	0.0	-322.72727272727275	1303.6363636363637	-84415.72727272728	0.0	0.0	0.0	0.0	2076.0	2044.0	2569.818181818182	0.0	0.0	0.0	0.0	357372674.54545456
2020-06-30 07:32:08.550	2.0	61.0	-70.22222222222223	-2.888888888888889	-92.66666666666667	98841.66666666667	401.0	0.0	15.120616912841797	0.0	0.0	-323.22222222222223	1304.2222222222222	-84421.33333333333	0.0	0.0	0.0	0.0	2076.0	2044.0	2572.8888888888887	0.0	0.0	0.0	0.0	357422735.7777778
2020-06-30 07:32:08.600	2.0	61.0	-71.0	-5.4	-93.8	98838.9	401.0	0.0	15.109582233428956	0.0	0.0	-323.6	1302.3	-84425.5	0.0	0.0	0.0	0.0	2076.0	2044.0	2572.4	0.0	0.0	0.0	0.0	357470422.0
2020-06-30 07:32:08.650	2.0	61.0	-74.2	-4.6	-92.2	98838.7	401.0	0.0	15.09789161682129	0.0	0.0	-323.6	1301.5	-84431.3	0.0	0.0	0.0	0.0	2076.0	2044.0	2572.0	0.0	0.0	0.0	0.0	357520394.4
2020-06-30 07:32:08.700	2.0	61.0	-68.8	-2.0	-93.6	98839.3	401.0	0.0	15.086183071136475	0.0	0.0	-324.8	1301.3	-84435.8	0.0	0.0	0.0	0.0	2076.0	2044.0	2572.0	0.0	0.0	0.0	0.0	357570428.0
2020-06-30 07:32:08.750	2.0	61.0	-67.8	-3.0	-92.2	98838.7	401.0	0.0	15.074604511260986	0.0	0.0	-324.0	1299.8	-84440.9	0.0	0.0	0.0	0.0	2076.0	2044.0	2572.4	0.0	0.0	0.0	0.0	357620531.6
2020-06-30 07:32:08.800	2.0	61.0	-70.55555555555556	-2.5555555555555554	-92.33333333333333	98835.66666666667	401.0	0.0	15.061868773566353	0.0	0.0	-321.8888888888889	1299.0	-84445.77777777778	0.0	0.0	0.0	0.0	2076.0	2044.0	2573.3333333333335	0.0	0.0	0.0	0.0	357671430.2222222
2020-06-30 07:32:08.850	2.0	61.0	-70.55555555555556	-5.0	-95.22222222222223	98834.0	401.0	0.0	15.050486988491482	0.0	0.0	-321.3333333333333	1299.4444444444443	-84448.88888888889	0.0	0.0	0.0	0.0	2076.0	2044.0	2573.777777777778	0.0	0.0	0.0	0.0	357718152.8888889
2020-06-30 07:32:08.900	2.0	61.0	-70.63636363636364	-3.5454545454545454	-93.72727272727273	98838.54545454546	401.0	0.0	15.038910605690695	0.0	0.0	-322.8181818181818	1300.0	-84454.63636363637	0.0	0.0	0.0	0.0	2076.0	2044.0	2572.0	0.0	0.0	0.0	0.0	357768263.0
2020-06-30 07:32:08.950	2.0	61.0	-71.0	-3.8	-91.8	98834.8	401.0	0.0	15.026913261413574	0.0	0.0	-322.1	1299.1	-84459.7	0.0	0.0	0.0	0.0	2076.0	2044.0	2572.0	0.0	0.0	0.0	0.0	357820968.2
2020-06-30 07:32:09.000	2.0	61.0	-70.4	-3.2	-94.0	98837.9	401.0	0.0	15.015300846099853	0.0	0.0	-322.7	1299.9	-84464.7	0.0	0.0	0.0	0.0	2076.0	2044.0	2572.4	0.0	0.0	0.0	0.0	357870916.2
2020-06-30 07:32:09.050	2.0	61.0	-67.55555555555556	-4.222222222222222	-92.22222222222223	98839.33333333333	401.0	0.0	15.003788312276205	0.0	0.0	-320.55555555555554	1299.4444444444443	-84469.0	0.0	0.0	0.0	0.0	2076.0	2044.0	2572.8888888888887	0.0	0.0	0.0	0.0	357921850.7777778
2020-06-30 07:32:09.100	2.0	61.0	-69.33333333333333	-2.0	-93.33333333333333	98834.0	401.0	0.0	14.992347187466091	0.0	0.0	-319.44444444444446	1300.4444444444443	-84473.88888888889	0.0	0.0	0.0	0.0	2076.0	2044.0	2572.0	0.0	0.0	0.0	0.0	357971899.5555556
2020-06-30 07:32:09.150	2.0	61.0	-70.0	-3.6	-94.0	98837.1	401.0	0.0	14.981066417694091	0.0	0.0	-320.6	1299.7	-84480.4	0.0	0.0	0.0	0.0	2076.0	2044.0	2572.0	0.0	0.0	0.0	0.0	358021181.7
2020-06-30 07:32:09.200	2.0	61.0	-71.88888888888889	-3.6666666666666665	-93.44444444444444	98835.66666666667	401.0	0.0	14.976307233174643	0.0	0.0	-324.6666666666667	1298.0	-84485.33333333333	0.0	0.0	0.0	0.0	2072.4444444444443	2044.0	2572.0	0.0	0.0	0.0	0.0	358072058.3333333
2020-06-30 07:32:09.250	2.0	61.0	-71.6	-4.0	-90.8	98840.7	401.0	0.0	14.972350978851319	0.0	0.0	-331.1	1298.5	-84489.9	0.0	0.0	0.0	0.0	2076.0	2044.0	2572.8	0.0	0.0	0.0	0.0	358121398.4
2020-06-30 07:32:09.300	2.0	61.0	-70.22222222222223	-5.111111111111111	-92.66666666666667	98837.33333333333	401.0	0.0	14.960424529181587	0.0	0.0	-332.1111111111111	1297.888888888889	-84494.66666666667	0.0	0.0	0.0	0.0	2076.0	2044.0	2572.8888888888887	0.0	0.0	0.0	0.0	358172220.3333333
2020-06-30 07:32:09.350	2.0	61.0	-69.55555555555556	-2.888888888888889	-96.44444444444444	98838.44444444444	401.0	0.0	14.949500719706217	0.0	0.0	-333.0	1297.7777777777778	-84499.44444444444	0.0	0.0	0.0	0.0	2076.0	2044.0	2572.0	0.0	0.0	0.0	0.0	358218990.1111111
2020-06-30 07:32:09.400	2.0	61.0	-70.8	-2.8	-92.6	98840.7	401.0	0.0	14.938299942016602	0.0	0.0	-333.5	1298.0	-84503.1	0.0	0.0	0.0	0.0	2076.0	2044.0	2572.0	0.0	0.0	0.0	0.0	358266585.8
2020-06-30 07:32:09.450	2.0	61.0	-72.2	-5.2	-93.4	98838.3	401.0	0.0	14.926197624206543	0.0	0.0	-333.6	1298.5	-84506.8	0.0	0.0	0.0	0.0	2076.0	2044.0	2574.8	0.0	0.0	0.0	0.0	358318151.2
2020-06-30 07:32:09.500	2.0	61.0	-66.57142857142857	-5.142857142857143	-90.85714285714286	98836.85714285714	401.2857142857143	0.0	14.913245337350029	0.0	0.0	-333.0	1298.857142857143	-84511.0	0.0	0.0	0.0	0.0	2076.0	2044.0	2572.0	0.0	0.0	0.0	0.0	358373508.4285714
2020-06-30 07:32:09.550	2.0	61.0	-68.0	-4.8	-95.6	98837.6	401.2	0.0	14.901921939849853	0.0	0.0	-333.1	1298.4	-84514.8	0.0	0.0	0.0	0.0	2076.0	2044.0	2572.8	0.0	0.0	0.0	0.0	358421825.6
2020-06-30 07:32:09.600	2.0	61.0	-70.0	-4.222222222222222	-92.0	98835.44444444444	401.22222222222223	0.0	14.892528745863173	0.0	0.0	-334.55555555555554	1297.888888888889	-84519.22222222222	0.0	0.0	0.0	0.0	2075.1111111111113	2044.0	2572.4444444444443	0.0	0.0	0.0	0.0	358471116.5555556
2020-06-30 07:32:09.650	2.0	61.0	-69.22222222222223	-4.333333333333333	-97.0	98837.11111111111	401.55555555555554	0.0	14.881929715474447	0.0	0.0	-333.77777777777777	1296.3333333333333	-84523.33333333333	0.0	0.0	0.0	0.0	2076.0	2044.0	2574.6666666666665	0.0	0.0	0.0	0.0	358521138.2222222
2020-06-30 07:32:09.700	2.0	61.0	-68.8	-3.6	-94.0	98838.0	401.3	0.0	14.870088863372803	0.0	0.0	-331.8	1295.3	-84527.8	0.0	0.0	0.0	0.0	2076.0	2044.0	2572.8	0.0	0.0	0.0	0.0	358572030.1
2020-06-30 07:32:09.750	2.0	61.0	-70.4	-4.4	-95.6	98835.7	402.0	0.0	14.858535194396973	0.0	0.0	-330.9	1294.5	-84532.1	0.0	0.0	0.0	0.0	2076.0	2044.0	2573.6	0.0	0.0	0.0	0.0	358622109.5
2020-06-30 07:32:09.800	2.0	61.0	-68.8	-2.8	-95.2	98838.4	402.0	0.0	14.847024154663085	0.0	0.0	-329.3	1294.8	-84536.1	0.0	0.0	0.0	0.0	2076.0	2044.0	2572.0	0.0	0.0	0.0	0.0	358672249.7
2020-06-30 07:32:09.850	2.0	61.0	-71.88888888888889	-1.8888888888888888	-92.33333333333333	98842.0	402.0	0.0	14.836123042636448	0.0	0.0	-329.0	1294.5555555555557	-84539.55555555556	0.0	0.0	0.0	0.0	2076.0	2044.0	2572.4444444444443	0.0	0.0	0.0	0.0	358719794.0
2020-06-30 07:32:09.900	2.0	61.0	-68.63636363636364	-3.727272727272727	-93.36363636363636	98840.45454545454	402.0	0.0	14.82536758076061	0.0	0.0	-329.90909090909093	1293.8181818181818	-84543.27272727272	0.0	0.0	0.0	0.0	2075.6363636363635	2044.0	2572.3636363636365	0.0	0.0	0.0	0.0	358769860.90909094
2020-06-30 07:32:09.950	2.0	61.0	-68.6	-3.8	-94.2	98839.3	402.0	0.0	14.814133548736573	0.0	0.0	-332.0	1292.6	-84548.7	0.0	0.0	0.0	0.0	2076.0	2044.0	2572.0	0.0	0.0	0.0	0.0	358822439.0
2020-06-30 07:32:10.000	2.0	61.0	-71.2	-4.0	-92.4	98837.9	402.0	0.0	14.802769756317138	0.0	0.0	-329.9	1292.7	-84552.5	0.0	0.0	0.0	0.0	2076.0	2044.0	2572.0	0.0	0.0	0.0	0.0	358872527.6
2020-06-30 07:32:10.050	2.0	61.0	-70.8	-2.4	-92.8	98839.9	402.0	0.0	14.791361618041993	0.0	0.0	-330.2	1291.8	-84556.3	0.0	0.0	0.0	0.0	2076.0	2044.0	2572.0	0.0	0.0	0.0	0.0	358922588.5
2020-06-30 07:32:10.100	2.0	61.0	-70.55555555555556	-1.8888888888888888	-95.0	98840.11111111111	402.0	0.0	14.780503061082628	0.0	0.0	-330.0	1291.5555555555557	-84560.33333333333	0.0	0.0	0.0	0.0	2076.0	2044.0	2572.0	0.0	0.0	0.0	0.0	358970166.7777778
2020-06-30 07:32:10.150	2.0	61.0	-68.88888888888889	-2.4444444444444446	-94.22222222222223	98836.33333333333	402.0	0.0	14.769176801045736	0.0	0.0	-329.6666666666667	1290.7777777777778	-84565.66666666667	0.0	0.0	0.0	0.0	2076.0	2044.0	2572.0	0.0	0.0	0.0	0.0	359020202.1111111
2020-06-30 07:32:10.200	2.0	61.0	-70.9	-4.9	-96.3	98837.7	402.0	0.0	14.758423805236816	0.0	0.0	-329.2	1289.8	-84569.5	0.0	0.0	0.0	0.0	2076.0	2044.0	2572.0	0.0	0.0	0.0	0.0	359067824.8
2020-06-30 07:32:10.250	2.0	61.0	-70.8	-1.6	-95.4	98839.5	402.0	0.0	14.747986888885498	0.0	0.0	-330.7	1289.0	-84575.4	0.0	0.0	0.0	0.0	2075.6	2044.0	2572.0	0.0	0.0	0.0	0.0	359117977.4
2020-06-30 07:32:10.300	2.0	61.0	-69.6	-4.4	-93.6	98841.4	402.0	0.0	14.737340545654297	0.0	0.0	-330.8	1289.7	-84581.2	0.0	0.0	0.0	0.0	2076.0	2044.0	2574.8	0.0	0.0	0.0	0.0	359167974.4
2020-06-30 07:32:10.350	2.0	61.0	-69.18181818181819	-2.4545454545454546	-92.81818181818181	98839.90909090909	402.0	0.0	14.725475397976963	0.0	0.0	-330.45454545454544	1290.0	-84586.72727272728	0.0	0.0	0.0	0.0	2076.0	2044.0	2576.0	0.0	0.0	0.0	0.0	359220541.6363636
2020-06-30 07:32:10.400	2.0	61.0	-73.0	-3.8	-92.2	98835.6	402.0	0.0	14.71370038986206	0.0	0.0	-330.6	1288.1	-84590.8	0.0	0.0	0.0	0.0	2076.0	2044.0	2573.2	0.0	0.0	0.0	0.0	359273165.5
2020-06-30 07:32:10.450	2.0	61.0	-69.44444444444444	-1.4444444444444444	-94.77777777777777	98838.0	402.0	0.0	14.70300981733534	0.0	0.0	-330.1111111111111	1287.888888888889	-84594.88888888889	0.0	0.0	0.0	0.0	2076.0	2044.0	2572.8888888888887	0.0	0.0	0.0	0.0	359320729.1111111
2020-06-30 07:32:10.500	2.0	61.0	-69.88888888888889	-2.3333333333333335	-93.44444444444444	98834.66666666667	402.0	0.0	14.69173706902398	0.0	0.0	-330.3333333333333	1286.6666666666667	-84600.11111111111	0.0	0.0	0.0	0.0	2076.0	2044.0	2572.0	0.0	0.0	0.0	0.0	359370815.2222222
2020-06-30 07:32:10.550	2.0	61.0	-69.44444444444444	-5.222222222222222	-94.33333333333333	98835.66666666667	402.0	0.0	14.679499838087294	0.0	0.0	-330.6666666666667	1284.111111111111	-84605.22222222222	0.0	0.0	0.0	0.0	2076.0	2044.0	2572.0	0.0	0.0	0.0	0.0	359425872.3333333
2020-06-30 07:32:10.600	2.0	61.0	-70.77777777777777	-2.5555555555555554	-94.55555555555556	98840.0	402.0	0.0	14.670216136508518	0.0	0.0	-330.6666666666667	1284.888888888889	-84608.88888888889	0.0	0.0	0.0	0.0	2074.6666666666665	2044.0	2572.0	0.0	0.0	0.0	0.0	359470970.5555556
2020-06-30 07:32:10.650	2.0	61.0	-71.5	-3.3	-94.9	98836.2	402.0	0.0	14.663488960266113	0.0	0.0	-334.8	1284.5	-84613.1	0.0	0.0	0.0	0.0	2076.0	2044.0	2572.0	0.0	0.0	0.0	0.0	359518596.9
2020-06-30 07:32:10.700	2.0	61.0	-70.42857142857143	-2.4285714285714284	-94.14285714285714	98838.0	402.0	0.0	14.652330807277135	0.0	0.0	-335.85714285714283	1283.5714285714287	-84618.57142857143	0.0	0.0	0.0	0.0	2076.0	2044.0	2572.0	0.0	0.0	0.0	0.0	359567513.0
2020-06-30 07:32:10.750	2.0	61.0	-70.0	-3.3333333333333335	-93.55555555555556	98841.33333333333	402.0	0.0	14.640290684170193	0.0	0.0	-335.1111111111111	1282.4444444444443	-84623.44444444444	0.0	0.0	0.0	0.0	2076.0	2044.0	2572.0	0.0	0.0	0.0	0.0	359621157.5555556
2020-06-30 07:32:10.800	2.0	61.0	-68.6	-5.0	-92.2	98837.8	402.0	0.0	14.628490447998047	0.0	0.0	-334.7	1281.9	-84627.8	0.0	0.0	0.0	0.0	2076.0	2044.0	2574.8	0.0	0.0	0.0	0.0	359673784.9
2020-06-30 07:32:10.850	2.0	61.0	-70.2	-0.6	-94.2	98833.2	402.0	0.0	14.617800998687745	0.0	0.0	-334.8	1281.0	-84631.2	0.0	0.0	0.0	0.0	2076.0	2044.4	2575.2	0.0	0.0	0.0	0.0	359723891.6
2020-06-30 07:32:10.900	2.0	61.0	-68.77777777777777	-5.0	-96.11111111111111	98830.44444444444	402.0	0.0	14.607386589050293	0.0	0.0	-336.22222222222223	1280.7777777777778	-84635.22222222222	0.0	0.0	0.0	0.0	2075.5555555555557	2044.0	2572.8888888888887	0.0	0.0	0.0	0.0	359771473.7777778
2020-06-30 07:32:10.950	2.0	61.0	-69.5	-3.5	-93.7	98831.6	402.0	0.0	14.598174381256104	0.0	0.0	-337.9	1279.8	-84639.1	0.0	0.0	0.0	0.0	2076.0	2044.0	2573.6	0.0	0.0	0.0	0.0	359818941.9
2020-06-30 07:32:11.000	2.0	61.0	-71.8	-3.0	-93.8	98839.8	402.0	0.0	14.585819816589355	0.0	0.0	-338.6	1278.0	-84644.0	0.0	0.0	0.0	0.0	2076.0	2044.0	2572.0	0.0	0.0	0.0	0.0	359874102.3
2020-06-30 07:32:11.050	2.0	61.0	-69.5	-4.5	-94.5	98839.875	402.0	0.0	14.575031161308289	0.0	0.0	-338.75	1277.375	-84649.125	0.0	0.0	0.0	0.0	2076.0	2045.0	2573.0	0.0	0.0	0.0	0.0	359922233.125
2020-06-30 07:32:11.100	2.0	61.0	-70.2	-4.6	-92.6	98838.6	402.0	0.0	14.567355251312256	0.0	0.0	-337.0	1284.3	-84652.9	0.0	0.0	0.0	0.0	2076.0	2046.0	2572.8	0.0	0.0	0.0	0.0	359974273.2
2020-06-30 07:32:11.150	2.0	61.0	-70.66666666666667	-2.2222222222222223	-92.44444444444444	98839.33333333333	402.0	0.0	14.558629565768772	0.0	0.0	-339.1111111111111	1286.6666666666667	-84655.33333333333	0.0	0.0	0.0	0.0	2075.1111111111113	2044.0	2572.0	0.0	0.0	0.0	0.0	360026777.0
2020-06-30 07:32:11.200	2.0	61.0	-70.375	-4.375	-94.625	98842.875	402.0	0.0	14.549096584320068	0.0	0.0	-339.125	1285.125	-84659.0	0.0	0.0	0.0	0.0	2076.0	2044.0	2572.5	0.0	0.0	0.0	0.0	360073127.375
2020-06-30 07:32:11.250	2.0	61.0	-71.375	-2.625	-93.875	98839.5	402.0	0.0	14.542453169822693	0.0	0.0	-341.0	1284.875	-84663.0	0.0	0.0	0.0	0.0	2075.0	2045.0	2574.0	0.0	0.0	0.0	0.0	360118903.625
2020-06-30 07:32:11.300	2.0	61.0	-69.75	-2.75	-95.75	98842.875	402.0	0.0	14.533045887947083	0.0	0.0	-343.75	1283.5	-84666.75	0.0	0.0	0.0	0.0	2076.0	2044.0	2572.0	0.0	0.0	0.0	0.0	360179557.25
2020-06-30 07:32:11.350	2.0	61.0	-70.22222222222223	-6.666666666666667	-95.11111111111111	98845.0	402.0	0.0	14.523284594217936	0.0	0.0	-344.0	1284.0	-84669.0	0.0	0.0	0.0	0.0	2076.0	2044.0	2572.0	0.0	0.0	0.0	0.0	360222181.0
2020-06-30 07:32:11.400	2.0	61.0	-71.63636363636364	-3.272727272727273	-92.72727272727273	98844.81818181818	402.0	0.0	14.51184350794012	0.0	0.0	-342.54545454545456	1284.5454545454545	-84673.63636363637	0.0	0.0	0.0	0.0	2076.0	2044.0	2571.6363636363635	0.0	0.0	0.0	0.0	360272235.6363636
2020-06-30 07:32:11.450	2.0	61.0	-70.4	-5.2	-94.0	98842.8	402.0	0.0	14.499919414520264	0.0	0.0	-341.2	1283.9	-84679.3	0.0	0.0	0.0	0.0	2076.0	2044.0	2572.0	0.0	0.0	0.0	0.0	360324819.3
2020-06-30 07:32:11.500	2.0	61.0	-71.2	-4.0	-96.8	98841.3	402.0	0.0	14.488608074188232	0.0	0.0	-340.7	1282.8	-84684.0	0.0	0.0	0.0	0.0	2076.0	2044.0	2575.2	0.0	0.0	0.0	0.0	360374935.4
2020-06-30 07:32:11.550	2.0	61.0	-70.85714285714286	-0.8571428571428571	-94.85714285714286	98841.85714285714	402.0	0.0	14.480115481785365	0.0	0.0	-342.0	1282.0	-84689.0	0.0	0.0	0.0	0.0	2074.8571428571427	2044.0	2572.5714285714284	0.0	0.0	0.0	0.0	360421141.85714287
2020-06-30 07:32:11.600	2.0	61.0	-71.11111111111111	-2.888888888888889	-93.77777777777777	98839.33333333333	402.0	0.0	14.471743795606825	0.0	0.0	-343.1111111111111	1281.2222222222222	-84694.0	0.0	0.0	0.0	0.0	2076.0	2044.888888888889	2573.3333333333335	0.0	0.0	0.0	0.0	360470929.8888889
2020-06-30 07:32:11.650	2.0	61.0	-68.28571428571429	-4.285714285714286	-93.42857142857143	98842.28571428571	402.0	0.0	14.463262149265834	0.0	0.0	-342.42857142857144	1284.0	-84698.42857142857	0.0	0.0	0.0	0.0	2076.0	2044.5714285714287	2575.4285714285716	0.0	0.0	0.0	0.0	360515454.71428573
2020-06-30 07:32:11.700	2.0	61.0	-69.57142857142857	-6.428571428571429	-93.57142857142857	98839.71428571429	402.0	0.0	14.451776368277413	0.0	0.0	-340.85714285714283	1282.4285714285713	-84702.85714285714	0.0	0.0	0.0	0.0	2076.0	2044.5714285714287	2575.4285714285716	0.0	0.0	0.0	0.0	360567665.71428573
2020-06-30 07:32:11.750	2.0	61.0	-70.3	-4.9	-94.5	98838.6	402.0	0.0	14.441808700561523	0.0	0.0	-339.1	1285.8	-84706.9	0.0	0.0	0.0	0.0	2076.0	2044.8	2572.0	0.0	0.0	0.0	0.0	360620342.6
2020-06-30 07:32:11.800	2.0	61.0	-72.2	-6.2	-92.6	98837.4	402.0	0.0	14.431229591369629	0.0	0.0	-337.4	1286.5	-84711.0	0.0	0.0	0.0	0.0	2076.0	2044.0	2572.0	0.0	0.0	0.0	0.0	360670315.1
2020-06-30 07:32:11.850	2.0	61.0	-72.125	-6.125	-97.625	98838.375	402.0	0.0	14.419695973396301	0.0	0.0	-336.5	1286.625	-84714.25	0.0	0.0	0.0	0.0	2076.0	2044.0	2572.0	0.0	0.0	0.0	0.0	360721725.0
2020-06-30 07:32:11.900	2.0	61.0	-70.11111111111111	-3.2222222222222223	-95.88888888888889	98837.33333333333	402.0	0.0	14.408702002631294	0.0	0.0	-336.0	1286.7777777777778	-84718.0	0.0	0.0	0.0	0.0	2076.0	2044.0	2572.0	0.0	0.0	0.0	0.0	360771354.8888889
2020-06-30 07:32:11.950	2.0	61.0	-69.5	-4.1	-95.3	98838.6	402.0	0.0	14.397784423828124	0.0	0.0	-335.0	1286.4	-84723.7	0.0	0.0	0.0	0.0	2076.0	2044.0	2572.0	0.0	0.0	0.0	0.0	360820596.0
2020-06-30 07:32:12.000	2.0	61.0	-71.1	-3.7	-95.1	98836.8	402.0	0.0	14.388630294799805	0.0	0.0	-333.4	1289.7	-84729.0	0.0	0.0	0.0	0.0	2076.4	2046.4	2572.0	0.0	0.0	0.0	0.0	360870641.7
2020-06-30 07:32:12.050	2.0	61.0	-71.9	-6.5	-92.1	98837.7	402.0	0.0	14.377459526062012	0.0	0.0	-332.3	1292.4	-84733.4	0.0	0.0	0.0	0.0	2076.8	2044.0	2574.0	0.0	0.0	0.0	0.0	360920772.8
2020-06-30 07:32:12.100	2.0	61.0	-72.0	0.4444444444444444	-93.77777777777777	98838.0	402.0	0.0	14.3630919986301	0.0	0.0	-330.0	1290.888888888889	-84737.22222222222	0.0	0.0	0.0	0.0	2076.0	2044.0	2572.4444444444443	0.0	0.0	0.0	0.0	360973289.6666667
2020-06-30 07:32:12.150	2.0	61.0	-72.2	-3.8	-93.8	98835.9	402.0	0.0	14.35285587310791	0.0	0.0	-329.9	1289.7	-84740.5	0.0	0.0	0.0	0.0	2076.0	2044.0	2572.4	0.0	0.0	0.0	0.0	361020998.6
2020-06-30 07:32:12.200	2.0	61.0	-67.3	-3.7	-92.7	98839.2	402.0	0.0	14.341857624053954	0.0	0.0	-330.4	1289.2	-84745.1	0.0	0.0	0.0	0.0	2076.0	2044.0	2572.0	0.0	0.0	0.0	0.0	361070989.5
2020-06-30 07:32:12.250	2.0	61.0	-73.7	-3.5	-93.9	98838.3	402.2	0.0	14.331046772003173	0.0	0.0	-330.6	1288.7	-84749.2	0.0	0.0	0.0	0.0	2076.0	2044.0	2573.2	0.0	0.0	0.0	0.0	361121059.7
2020-06-30 07:32:12.300	2.0	61.0	-69.9	-5.1	-93.1	98838.0	402.0	0.0	14.320082759857177	0.0	0.0	-331.4	1289.0	-84754.5	0.0	0.0	0.0	0.0	2076.0	2044.0	2572.0	0.0	0.0	0.0	0.0	361171093.3
2020-06-30 07:32:12.350	2.0	61.0	-70.55555555555556	-4.555555555555555	-94.55555555555556	98840.33333333333	402.44444444444446	0.0	14.30944432152642	0.0	0.0	-331.0	1288.0	-84758.66666666667	0.0	0.0	0.0	0.0	2076.0	2044.0	2572.4444444444443	0.0	0.0	0.0	0.0	361220377.2222222
2020-06-30 07:32:12.400	2.0	61.0	-73.4	-1.4	-91.8	98841.0	402.8	0.0	14.298461151123046	0.0	0.0	-329.3	1286.6	-84762.9	0.0	0.0	0.0	0.0	2076.0	2044.0	2572.0	0.0	0.0	0.0	0.0	361271261.0
2020-06-30 07:32:12.450	2.0	61.0	-70.3	-4.5	-92.5	98843.7	402.8	0.0	14.28770809173584	0.0	0.0	-328.8	1285.6	-84767.7	0.0	0.0	0.0	0.0	2076.0	2044.0	2572.8	0.0	0.0	0.0	0.0	361321459.5
2020-06-30 07:32:12.500	2.0	61.0	-69.6	-4.4	-94.4	98841.6	402.8	0.0	14.277027034759522	0.0	0.0	-327.4	1284.7	-84770.8	0.0	0.0	0.0	0.0	2076.0	2044.0	2572.0	0.0	0.0	0.0	0.0	361371407.6
2020-06-30 07:32:12.550	2.0	61.0	-71.0	-5.25	-91.25	98840.625	402.75	0.0	14.267212271690369	0.0	0.0	-326.375	1283.75	-84774.625	0.0	0.0	0.0	0.0	2076.0	2044.0	2572.0	0.0	0.0	0.0	0.0	361417811.875
2020-06-30 07:32:12.600	2.0	61.0	-68.625	-4.875	-91.375	98839.5	402.875	0.0	14.255564212799072	0.0	0.0	-325.625	1283.0	-84781.0	0.0	0.0	0.0	0.0	2076.0	2044.0	2572.0	0.0	0.0	0.0	0.0	361472869.375
2020-06-30 07:32:12.650	2.0	61.0	-71.5	-6.1	-93.3	98837.4	403.0	0.0	14.245335388183594	0.0	0.0	-324.7	1280.7	-84786.7	0.0	0.0	0.0	0.0	2076.0	2044.0	2572.0	0.0	0.0	0.0	0.0	361521703.6
2020-06-30 07:32:12.700	2.0	61.0	-69.77777777777777	-2.2222222222222223	-93.11111111111111	98838.0	403.0	0.0	14.235362264845106	0.0	0.0	-325.0	1278.7777777777778	-84790.88888888889	0.0	0.0	0.0	0.0	2076.0	2044.0	2572.8888888888887	0.0	0.0	0.0	0.0	361569223.5555556
2020-06-30 07:32:12.750	2.0	61.0	-70.11111111111111	-5.888888888888889	-92.77777777777777	98837.0	403.0	0.0	14.224917623731825	0.0	0.0	-325.22222222222223	1277.6666666666667	-84795.66666666667	0.0	0.0	0.0	0.0	2076.0	2044.0	2572.4444444444443	0.0	0.0	0.0	0.0	361619326.5555556
2020-06-30 07:32:12.800	2.0	61.0	-70.36363636363636	-5.090909090909091	-91.81818181818181	98833.63636363637	403.0	0.0	14.214141325517135	0.0	0.0	-324.1818181818182	1274.090909090909	-84799.90909090909	0.0	0.0	0.0	0.0	2076.0	2043.6363636363637	2572.7272727272725	0.0	0.0	0.0	0.0	361669518.90909094
2020-06-30 07:32:12.850	2.0	61.0	-71.11111111111111	-4.666666666666667	-91.11111111111111	98837.66666666667	403.0	0.0	14.2036501566569	0.0	0.0	-323.44444444444446	1273.0	-84804.55555555556	0.0	0.0	0.0	0.0	2076.0	2044.0	2573.777777777778	0.0	0.0	0.0	0.0	361719485.3333333
2020-06-30 07:32:12.900	2.0	61.0	-71.8	-4.8	-94.6	98842.2	403.0	0.0	14.192918872833252	0.0	0.0	-322.5	1273.6	-84809.3	0.0	0.0	0.0	0.0	2076.0	2044.0	2574.4	0.0	0.0	0.0	0.0	361772149.1
2020-06-30 07:32:12.950	2.0	61.0	-72.5	-3.7	-91.9	98837.1	403.0	0.0	14.182847881317139	0.0	0.0	-322.4	1273.6	-84814.3	0.0	0.0	0.0	0.0	2076.0	2044.4	2572.0	0.0	0.0	0.0	0.0	361822185.5
2020-06-30 07:32:13.000	2.0	61.0	-66.4	-3.8	-92.8	98840.4	403.0	0.0	14.173143768310547	0.0	0.0	-321.6	1274.1	-84819.3	0.0	0.0	0.0	0.0	2076.0	2044.8	2574.0	0.0	0.0	0.0	0.0	361872271.2
2020-06-30 07:32:13.050	2.0	61.0	-70.66666666666667	-3.5555555555555554	-92.66666666666667	98837.33333333333	403.0	0.0	14.164175563388401	0.0	0.0	-320.6666666666667	1276.6666666666667	-84825.77777777778	0.0	0.0	0.0	0.0	2076.0	2044.0	2572.8888888888887	0.0	0.0	0.0	0.0	361922017.0
2020-06-30 07:32:13.100	2.0	61.0	-71.2	-1.8	-93.4	98838.0	403.0	0.0	14.156922626495362	0.0	0.0	-320.7	1278.3	-84831.5	0.0	0.0	0.0	0.0	2073.6	2044.8	2576.0	0.0	0.0	0.0	0.0	361972433.0
2020-06-30 07:32:13.150	2.0	61.0	-71.2	-2.6	-92.0	98839.8	403.0	0.0	14.154197788238525	0.0	0.0	-325.1	1278.0	-84837.3	0.0	0.0	0.0	0.0	2076.0	2044.0	2572.4	0.0	0.0	0.0	0.0	362022475.6
2020-06-30 07:32:13.200	2.0	61.0	-71.7	-3.3	-93.7	98835.6	403.0	0.0	14.144075870513916	0.0	0.0	-325.0	1276.4	-84841.2	0.0	0.0	0.0	0.0	2076.0	2044.8	2572.0	0.0	0.0	0.0	0.0	362072597.8
2020-06-30 07:32:13.250	2.0	61.0	-70.2	-2.6	-90.6	98837.4	403.0	0.0	14.134719562530517	0.0	0.0	-325.4	1277.8	-84845.6	0.0	0.0	0.0	0.0	2076.0	2044.0	2572.0	0.0	0.0	0.0	0.0	362122652.8
2020-06-30 07:32:13.300	2.0	61.0	-70.9	-3.1	-91.3	98839.8	403.0	0.0	14.124407768249512	0.0	0.0	-325.6	1276.8	-84849.1	0.0	0.0	0.0	0.0	2076.0	2044.0	2572.0	0.0	0.0	0.0	0.0	362172726.0
2020-06-30 07:32:13.350	2.0	61.0	-69.0	-2.7777777777777777	-92.77777777777777	98841.66666666667	403.0	0.0	14.113807572258843	0.0	0.0	-326.22222222222223	1274.6666666666667	-84853.66666666667	0.0	0.0	0.0	0.0	2076.0	2044.0	2572.0	0.0	0.0	0.0	0.0	362224178.2222222
2020-06-30 07:32:13.400	2.0	61.0	-71.22222222222223	-1.6666666666666667	-90.55555555555556	98838.66666666667	403.0	0.0	14.105050722757975	0.0	0.0	-328.22222222222223	1274.2222222222222	-84858.77777777778	0.0	0.0	0.0	0.0	2076.0	2046.2222222222222	2571.1111111111113	0.0	0.0	0.0	0.0	362270419.2222222
2020-06-30 07:32:13.450	2.0	61.0	-67.6	-2.4	-93.2	98841.6	403.0	0.0	14.097392463684082	0.0	0.0	-327.9	1277.9	-84863.3	0.0	0.0	0.0	0.0	2076.0	2044.0	2572.0	0.0	0.0	0.0	0.0	362318005.0
2020-06-30 07:32:13.500	2.0	61.0	-72.22222222222223	-1.3333333333333333	-91.11111111111111	98840.66666666667	403.0	0.0	14.087589263916016	0.0	0.0	-327.44444444444446	1278.4444444444443	-84866.77777777778	0.0	0.0	0.0	0.0	2076.0	2044.0	2572.4444444444443	0.0	0.0	0.0	0.0	362365518.6666667
2020-06-30 07:32:13.550	2.0	61.0	-68.88888888888889	-3.7777777777777777	-91.77777777777777	98843.33333333333	403.0	0.0	14.076558854844835	0.0	0.0	-326.55555555555554	1277.888888888889	-84870.55555555556	0.0	0.0	0.0	0.0	2076.0	2044.0	2572.0	0.0	0.0	0.0	0.0	362419046.5555556
2020-06-30 07:32:13.600	2.0	61.0	-68.28571428571429	-0.8571428571428571	-89.71428571428571	98841.85714285714	403.0	0.0	14.067199979509626	0.0	0.0	-326.57142857142856	1278.4285714285713	-84872.71428571429	0.0	0.0	0.0	0.0	2076.0	2044.0	2572.0	0.0	0.0	0.0	0.0	362464263.5714286
2020-06-30 07:32:13.650	2.0	61.0	-69.875	-2.125	-90.375	98839.5	403.0	0.0	14.055222749710083	0.0	0.0	-328.5	1277.5	-84875.625	0.0	0.0	0.0	0.0	2076.0	2044.0	2572.0	0.0	0.0	0.0	0.0	362522025.375
2020-06-30 07:32:13.700	2.0	61.0	-69.88888888888889	-5.0	-89.22222222222223	98843.33333333333	403.0	0.0	14.04651567671034	0.0	0.0	-328.22222222222223	1279.0	-84879.22222222222	0.0	0.0	0.0	0.0	2076.0	2044.888888888889	2572.0	0.0	0.0	0.0	0.0	362568738.6666667
2020-06-30 07:32:13.750	2.0	61.0	-67.88888888888889	-4.333333333333333	-93.44444444444444	98840.33333333333	403.0	0.0	14.037280824449327	0.0	0.0	-328.0	1278.3333333333333	-84883.77777777778	0.0	0.0	0.0	0.0	2076.4444444444443	2044.0	2571.5555555555557	0.0	0.0	0.0	0.0	362617590.4444444
2020-06-30 07:32:13.800	2.0	61.0	-68.0	-2.0	-91.66666666666667	98839.5	403.0	0.0	14.025234858194986	0.0	0.0	-327.3333333333333	1276.6666666666667	-84889.0	0.0	0.0	0.0	0.0	2076.0	2044.6666666666667	2571.3333333333335	0.0	0.0	0.0	0.0	362669402.5
2020-06-30 07:32:13.850	2.0	61.0	-71.0909090909091	-2.5454545454545454	-91.63636363636364	98843.72727272728	403.0	0.0	14.015003377741033	0.0	0.0	-329.1818181818182	1276.6363636363637	-84894.63636363637	0.0	0.0	0.0	0.0	2076.0	2044.0	2572.0	0.0	0.0	0.0	0.0	362721102.09090906
2020-06-30 07:32:13.900	2.0	61.0	-70.6	-4.2	-90.2	98843.4	403.0	0.0	14.005861282348633	0.0	0.0	-329.8	1277.0	-84899.6	0.0	0.0	0.0	0.0	2076.0	2044.0	2572.0	0.0	0.0	0.0	0.0	362765124.0
2020-06-30 07:32:13.950	2.0	61.0	-67.875	-0.375	-92.375	98843.25	403.0	0.0	13.994774580001831	0.0	0.0	-328.5	1278.625	-84905.25	0.0	0.0	0.0	0.0	2076.0	2046.0	2572.0	0.0	0.0	0.0	0.0	362822543.625
2020-06-30 07:32:14.000	2.0	61.0	-70.5	-5.166666666666667	-90.16666666666667	98839.0	403.0	0.0	13.98620319366455	0.0	0.0	-328.0	1281.8333333333333	-84911.0	0.0	0.0	0.0	0.0	2076.0	2044.0	2572.0	0.0	0.0	0.0	0.0	362872227.5
2020-06-30 07:32:14.050	2.0	61.0	-69.1	-3.3	-89.7	98838.6	403.0	0.0	13.976681900024413	0.0	0.0	-328.2	1280.9	-84916.9	0.0	0.0	0.0	0.0	2076.0	2044.0	2573.6	0.0	0.0	0.0	0.0	362918450.5
2020-06-30 07:32:14.100	2.0	61.0	-72.66666666666667	-3.7777777777777777	-92.66666666666667	98834.33333333333	403.0	0.0	13.966164694892036	0.0	0.0	-327.55555555555554	1280.0	-84920.33333333333	0.0	0.0	0.0	0.0	2076.4444444444443	2044.0	2572.0	0.0	0.0	0.0	0.0	362966545.5555556
2020-06-30 07:32:14.150	2.0	61.0	-69.0909090909091	-3.6363636363636362	-92.72727272727273	98838.0	403.0	0.0	13.955901839516379	0.0	0.0	-325.54545454545456	1281.3636363636363	-84924.63636363637	0.0	0.0	0.0	0.0	2076.0	2045.090909090909	2572.3636363636365	0.0	0.0	0.0	0.0	363016576.27272725
2020-06-30 07:32:14.200	2.0	61.0	-69.4	-3.8	-90.2	98842.8	403.0	0.0	13.946114444732666	0.0	0.0	-324.8	1282.7	-84927.7	0.0	0.0	0.0	0.0	2076.0	2044.0	2572.4	0.0	0.0	0.0	0.0	363069210.2
2020-06-30 07:32:14.250	2.0	61.0	-69.4	-4.6	-93.0	98838.3	403.0	0.0	13.935907649993897	0.0	0.0	-324.9	1282.2	-84931.6	0.0	0.0	0.0	0.0	2076.0	2044.4	2572.0	0.0	0.0	0.0	0.0	363119201.3
2020-06-30 07:32:14.300	2.0	61.0	-68.2	-4.2	-91.0	98838.3	403.0	0.0	13.928189849853515	0.0	0.0	-325.3	1287.6	-84937.6	0.0	0.0	0.0	0.0	2076.0	2046.0	2574.4	0.0	0.0	0.0	0.0	363169307.8
2020-06-30 07:32:14.350	2.0	61.0	-71.81818181818181	-4.0	-94.72727272727273	98840.45454545454	403.0	0.0	13.918687040155584	0.0	0.0	-325.09090909090907	1290.0	-84944.18181818182	0.0	0.0	0.0	0.0	2076.0	2044.3636363636363	2571.2727272727275	0.0	0.0	0.0	0.0	363221909.27272725
2020-06-30 07:32:14.400	2.0	61.0	-68.88888888888889	-4.666666666666667	-92.44444444444444	98846.66666666667	403.0	0.0	13.908700201246473	0.0	0.0	-324.6666666666667	1291.3333333333333	-84950.22222222222	0.0	0.0	0.0	0.0	2076.0	2044.0	2569.777777777778	0.0	0.0	0.0	0.0	363271999.4444444
2020-06-30 07:32:14.450	2.0	61.0	-68.6	-5.4	-90.2	98842.2	403.0	0.0	13.898918914794923	0.0	0.0	-324.9	1291.4	-84955.8	0.0	0.0	0.0	0.0	2076.0	2044.0	2572.0	0.0	0.0	0.0	0.0	363319555.4
2020-06-30 07:32:14.500	2.0	61.0	-70.8	-5.2	-90.0	98847.6	403.0	0.0	13.890976524353027	0.0	0.0	-327.1	1289.8	-84960.0	0.0	0.0	0.0	0.0	2073.6	2044.0	2572.4	0.0	0.0	0.0	0.0	363369613.1
2020-06-30 07:32:14.550	2.0	61.0	-69.8	-3.0	-95.0	98843.7	403.0	0.0	13.889942073822022	0.0	0.0	-333.3	1288.5	-84964.0	0.0	0.0	0.0	0.0	2075.2	2044.0	2572.4	0.0	0.0	0.0	0.0	363419726.0
2020-06-30 07:32:14.600	2.0	61.0	-71.33333333333333	-4.222222222222222	-93.33333333333333	98842.0	403.0	0.0	13.87686538696289	0.0	0.0	-330.8888888888889	1287.0	-84968.11111111111	0.0	0.0	0.0	0.0	2077.777777777778	2044.0	2572.0	0.0	0.0	0.0	0.0	363467298.3333333
