time	State	Battery_level	Magnetometer_x	Magnetometer_y	Magnetometer_z	Pressure	Temperature	Wind_speed	Wind_angle	Wind_compensation:pitch	Wind_compensation:roll	Pitch_y	Roll_x	Yaw_z	Altitude	Velocity_x	Velocity_y	Velocity_z	Acceleration_x	Acceleration_y	Acceleration_z	Motor_1_power	Motor_2_power	Motor_3_power	Motor_4_power	time_board
2020-06-30 08:32:13.650	2.0	77.0	6.2727272727272725	-55.0	-70.27272727272727	98864.72727272728	427.0	0.0	0.0	0.0	0.0	414.09090909090907	-264.6363636363636	-717.4545454545455	0.0	0.0	0.0	0.0	2076.3636363636365	2045.090909090909	2572.0	0.0	0.0	0.0	0.0	28733348.09090909
2020-06-30 08:32:13.700	2.0	77.0	6.555555555555555	-56.55555555555556	-69.44444444444444	98863.66666666667	427.0	0.0	0.0	0.0	0.0	419.1111111111111	-265.55555555555554	-717.6666666666666	0.0	0.0	0.0	0.0	2080.0	2044.0	2572.0	0.0	0.0	0.0	0.0	28783443.333333332
2020-06-30 08:32:13.750	2.0	77.0	7.6	-53.6	-70.8	98865.6	427.0	0.0	0.0	0.0	0.0	426.2	-265.8	-717.6	0.0	0.0	0.0	0.0	2077.6	2044.0	2572.0	0.0	0.0	0.0	0.0	28831026.8
2020-06-30 08:32:13.800	2.0	77.0	8.9	-56.1	-71.7	98865.0	427.0	0.0	0.0	0.0	0.0	424.8	-266.7	-717.8	0.0	0.0	0.0	0.0	2076.0	2044.0	2572.0	0.0	0.0	0.0	0.0	28881072.4
2020-06-30 08:32:13.850	2.0	77.0	9.1	-55.3	-70.1	98867.1	427.0	0.0	0.0	0.0	0.0	422.8	-267.3	-718.0	0.0	0.0	0.0	0.0	2076.0	2044.0	2573.6	0.0	0.0	0.0	0.0	28931081.6
2020-06-30 08:32:13.900	2.0	77.0	6.454545454545454	-58.09090909090909	-71.9090909090909	98866.09090909091	427.0	0.0	0.0	0.0	0.0	417.8181818181818	-269.09090909090907	-716.8181818181819	0.0	0.0	0.0	0.0	2076.0	2044.0	2572.0	0.0	0.0	0.0	0.0	28983717.0
2020-06-30 08:32:13.950	2.0	77.0	8.444444444444445	-56.22222222222222	-67.33333333333333	98863.0	427.0	0.0	0.0	0.0	0.0	411.8888888888889	-270.44444444444446	-715.4444444444445	0.0	0.0	0.0	0.0	2076.0	2044.0	2572.0	0.0	0.0	0.0	0.0	29033745.111111112
2020-06-30 08:32:14.000	2.0	77.0	8.545454545454545	-55.27272727272727	-70.18181818181819	98869.63636363637	427.0	0.0	0.0	0.0	0.0	408.1818181818182	-265.8181818181818	-713.0909090909091	0.0	0.0	0.0	0.0	2076.0	2047.6363636363637	2572.0	0.0	0.0	0.0	0.0	29083856.272727273
2020-06-30 08:32:14.050	2.0	77.0	6.2	-56.2	-68.6	98867.4	427.0	0.0	0.0	0.0	0.0	403.9	-254.9	-710.4	0.0	0.0	0.0	0.0	2076.0	2045.6	2571.2	0.0	0.0	0.0	0.0	29136440.6
2020-06-30 08:32:14.100	2.0	77.0	7.2	-55.6	-69.6	98863.8	427.0	0.0	0.0	0.0	0.0	399.1	-254.3	-709.6	0.0	0.0	0.0	0.0	2076.0	2044.0	2572.0	0.0	0.0	0.0	0.0	29186480.2
2020-06-30 08:32:14.150	2.0	77.0	7.333333333333333	-56.44444444444444	-68.22222222222223	98868.0	427.0	0.0	0.0	0.0	0.0	400.55555555555554	-256.44444444444446	-710.1111111111111	0.0	0.0	0.0	0.0	2079.1111111111113	2044.0	2572.0	0.0	0.0	0.0	0.0	29234109.888888888
2020-06-30 08:32:14.200	2.0	77.0	7.636363636363637	-54.36363636363637	-69.0909090909091	98868.0	427.0	0.0	0.0	0.0	0.0	402.72727272727275	-258.45454545454544	-711.0	0.0	0.0	0.0	0.0	2077.4545454545455	2044.0	2572.0	0.0	0.0	0.0	0.0	29284154.272727273
2020-06-30 08:32:14.250	2.0	77.0	8.0	-55.111111111111114	-71.11111111111111	98864.66666666667	427.0	0.0	0.0	0.0	0.0	404.1111111111111	-259.6666666666667	-710.5555555555555	0.0	0.0	0.0	0.0	2076.8888888888887	2044.888888888889	2572.0	0.0	0.0	0.0	0.0	29334234.888888888
2020-06-30 08:32:14.300	2.0	77.0	5.1	-55.3	-68.9	98868.0	427.0	0.0	0.0	0.0	0.0	407.8	-251.7	-710.8	0.0	0.0	0.0	0.0	2077.2	2047.2	2572.0	0.0	0.0	0.0	0.0	29382860.8
2020-06-30 08:32:14.350	2.0	77.0	6.0	-57.77777777777778	-69.33333333333333	98870.0	427.0	0.0	0.0	0.0	0.0	405.55555555555554	-244.22222222222223	-708.0	0.0	0.0	0.0	0.0	2076.0	2044.4444444444443	2572.0	0.0	0.0	0.0	0.0	29434407.111111112
2020-06-30 08:32:14.400	2.0	77.0	7.4	-56.4	-69.2	98865.6	427.0	0.0	0.0	0.0	0.0	403.2	-241.9	-705.9	0.0	0.0	0.0	0.0	2078.0	2044.4	2572.8	0.0	0.0	0.0	0.0	29481920.8
2020-06-30 08:32:14.450	2.0	77.0	7.1	-54.7	-70.9	98866.8	427.0	0.0	0.0	0.0	0.0	408.1	-238.4	-704.6	0.0	0.0	0.0	0.0	2077.6	2046.0	2572.8	0.0	0.0	0.0	0.0	29532045.9
2020-06-30 08:32:14.500	2.0	77.0	8.0	-54.6	-69.6	98869.2	427.0	0.0	0.0	0.0	0.0	406.5	-236.6	-704.2	0.0	0.0	0.0	0.0	2076.0	2044.0	2572.0	0.0	0.0	0.0	0.0	29582082.6
2020-06-30 08:32:14.550	2.0	77.0	7.666666666666667	-56.333333333333336	-68.77777777777777	98866.0	427.0	0.0	0.0	0.0	0.0	407.6666666666667	-238.44444444444446	-702.5555555555555	0.0	0.0	0.0	0.0	2077.777777777778	2044.0	2572.0	0.0	0.0	0.0	0.0	29629678.888888888
2020-06-30 08:32:14.600	2.0	77.0	6.9	-54.3	-70.1	98866.8	427.0	0.0	0.0	0.0	0.0	406.3	-238.8	-701.5	0.0	0.0	0.0	0.0	2076.0	2044.0	2572.0	0.0	0.0	0.0	0.0	29680736.7
2020-06-30 08:32:14.650	2.0	77.0	7.4	-54.8	-71.6	98868.6	427.0	0.0	0.0	0.0	0.0	404.0	-236.3	-702.0	0.0	0.0	0.0	0.0	2076.4	2046.0	2572.0	0.0	0.0	0.0	0.0	29732357.3
2020-06-30 08:32:14.700	2.0	77.0	7.6	-55.2	-68.8	98871.0	427.0	0.0	0.0	0.0	0.0	404.5	-233.6	-702.4	0.0	0.0	0.0	0.0	2076.8	2044.8	2572.0	0.0	0.0	0.0	0.0	29782412.2
2020-06-30 08:32:14.750	2.0	77.0	5.6	-56.4	-68.4	98868.0	427.0	0.0	0.0	0.0	0.0	403.2	-227.7	-701.5	0.0	0.0	0.0	0.0	2076.0	2048.0	2574.4	0.0	0.0	0.0	0.0	29832485.5
2020-06-30 08:32:14.800	2.0	77.0	8.818181818181818	-53.18181818181818	-69.72727272727273	98867.72727272728	427.0	0.0	0.0	0.0	0.0	403.72727272727275	-220.45454545454547	-701.0	0.0	0.0	0.0	0.0	2079.2727272727275	2044.7272727272727	2572.0	0.0	0.0	0.0	0.0	29885161.818181816
2020-06-30 08:32:14.850	2.0	77.0	7.0	-54.6	-69.4	98862.3	427.0	0.0	0.0	0.0	0.0	411.5	-221.8	-699.5	0.0	0.0	0.0	0.0	2077.6	2044.0	2572.4	0.0	0.0	0.0	0.0	29937636.9
2020-06-30 08:32:14.900	2.0	77.0	6.333333333333333	-54.111111111111114	-69.88888888888889	98864.0	427.0	0.0	0.0	0.0	0.0	414.77777777777777	-222.55555555555554	-697.8888888888889	0.0	0.0	0.0	0.0	2080.0	2044.4444444444443	2572.0	0.0	0.0	0.0	0.0	29985205.222222224
2020-06-30 08:32:14.950	2.0	77.0	8.0	-54.8	-71.2	98866.2	427.0	0.0	0.0	0.0	0.0	423.0	-220.6	-695.4	0.0	0.0	0.0	0.0	2080.0	2044.8	2572.0	0.0	0.0	0.0	0.0	30032744.8
2020-06-30 08:32:15.000	2.0	77.0	6.7	-56.9	-68.3	98868.6	427.0	0.0	0.0	0.0	0.0	431.8	-220.7	-692.6	0.0	0.0	0.0	0.0	2080.0	2044.0	2572.0	0.0	0.0	0.0	0.0	30082894.3
2020-06-30 08:32:15.050	2.0	77.0	8.1	-55.1	-68.7	98868.3	427.0	0.0	0.0	0.0	0.0	441.7	-223.3	-691.3	0.0	0.0	0.0	0.0	2080.0	2044.0	2573.2	0.0	0.0	0.0	0.0	30132973.7
2020-06-30 08:32:15.100	2.0	77.0	7.2	-56.4	-69.6	98868.3	427.0	0.0	0.0	0.0	0.0	443.9	-225.7	-689.2	0.0	0.0	0.0	0.0	2076.8	2044.0	2572.0	0.0	0.0	0.0	0.0	30183004.3
2020-06-30 08:32:15.150	2.0	77.0	7.3	-55.7	-69.5	98868.3	427.0	0.0	0.0	0.0	0.0	441.5	-226.8	-688.2	0.0	0.0	0.0	0.0	2076.0	2044.4	2572.0	0.0	0.0	0.0	0.0	30233047.0
2020-06-30 08:32:15.200	2.0	77.0	8.666666666666666	-56.22222222222222	-70.44444444444444	98863.33333333333	427.0	0.0	0.0	0.0	0.0	440.0	-226.66666666666666	-687.0	0.0	0.0	0.0	0.0	2076.4444444444443	2044.4444444444443	2572.0	0.0	0.0	0.0	0.0	30283484.111111112
2020-06-30 08:32:15.250	2.0	77.0	6.7	-53.9	-68.7	98865.9	427.0	0.0	0.0	0.0	0.0	438.3	-228.1	-685.4	0.0	0.0	0.0	0.0	2076.0	2044.0	2572.0	0.0	0.0	0.0	0.0	30333214.9
2020-06-30 08:32:15.300	2.0	77.0	10.6	-55.4	-68.6	98866.2	427.0	0.0	0.0	0.0	0.0	435.4	-229.6	-683.4	0.0	0.0	0.0	0.0	2076.0	2044.0	2572.0	0.0	0.0	0.0	0.0	30370885.6
2020-06-30 08:32:15.350	2.0	77.0	12.0	-55.0	-71.5	98870.25	427.0	0.0	0.0	0.0	0.0	433.5	-230.625	-682.375	0.0	0.0	0.0	0.0	2077.5	2044.0	2572.0	0.0	0.0	0.0	0.0	30403663.125
2020-06-30 08:32:15.400	2.0	77.0	5.909090909090909	-54.81818181818182	-69.36363636363636	98865.54545454546	427.0	0.0	0.0	0.0	0.0	437.45454545454544	-233.27272727272728	-682.2727272727273	0.0	0.0	0.0	0.0	2078.5454545454545	2044.0	2572.3636363636365	0.0	0.0	0.0	0.0	30476048.636363637
2020-06-30 08:32:15.450	2.0	77.0	6.6	-54.4	-70.4	98864.4	427.0	0.0	0.0	0.0	0.0	442.4	-235.9	-682.0	0.0	0.0	0.0	0.0	2077.2	2044.0	2572.0	0.0	0.0	0.0	0.0	30533611.5
2020-06-30 08:32:15.500	2.0	77.0	6.5	-56.9	-69.1	98864.7	427.0	0.0	0.0	0.0	0.0	440.3	-238.2	-681.9	0.0	0.0	0.0	0.0	2076.4	2044.8	2571.6	0.0	0.0	0.0	0.0	30583611.6
2020-06-30 08:32:15.550	2.0	77.0	7.333333333333333	-55.333333333333336	-72.44444444444444	98864.33333333333	427.0	0.0	0.0	0.0	0.0	438.77777777777777	-237.77777777777777	-682.2222222222222	0.0	0.0	0.0	0.0	2076.0	2044.0	2573.777777777778	0.0	0.0	0.0	0.0	30631204.777777776
2020-06-30 08:32:15.600	2.0	77.0	7.4	-55.4	-70.6	98865.9	427.0	0.0	0.0	0.0	0.0	442.0	-237.1	-681.6	0.0	0.0	0.0	0.0	2079.2	2045.2	2572.0	0.0	0.0	0.0	0.0	30678789.8
2020-06-30 08:32:15.650	2.0	77.0	8.636363636363637	-53.72727272727273	-69.9090909090909	98868.27272727272	427.09090909090907	0.0	0.0	0.0	0.0	449.45454545454544	-237.1818181818182	-680.6363636363636	0.0	0.0	0.0	0.0	2078.909090909091	2044.0	2572.0	0.0	0.0	0.0	0.0	30731378.181818184
2020-06-30 08:32:15.700	2.0	77.0	8.0	-55.4	-71.4	98869.8	427.1	0.0	0.0	0.0	0.0	453.9	-238.2	-679.4	0.0	0.0	0.0	0.0	2078.8	2044.0	2572.4	0.0	0.0	0.0	0.0	30783944.2
2020-06-30 08:32:15.750	2.0	77.0	8.714285714285714	-55.57142857142857	-68.42857142857143	98867.14285714286	427.0	0.0	0.0	0.0	0.0	458.14285714285717	-238.42857142857142	-679.7142857142857	0.0	0.0	0.0	0.0	2080.0	2044.0	2572.0	0.0	0.0	0.0	0.0	30828630.14285714
2020-06-30 08:32:15.800	2.0	77.0	7.4	-54.6	-69.8	98862.0	427.0	0.0	0.0	0.0	0.0	464.2	-239.4	-680.2	0.0	0.0	0.0	0.0	2078.0	2044.0	2572.0	0.0	0.0	0.0	0.0	30884051.1
2020-06-30 08:32:15.850	2.0	77.0	8.555555555555555	-53.666666666666664	-69.66666666666667	98865.0	427.1111111111111	0.0	0.0	0.0	0.0	470.77777777777777	-239.66666666666666	-679.3333333333334	0.0	0.0	0.0	0.0	2079.1111111111113	2045.7777777777778	2572.0	0.0	0.0	0.0	0.0	30936082.222222224
2020-06-30 08:32:15.900	2.0	77.0	9.8	-55.4	-67.2	98863.2	427.1	0.0	0.0	0.0	0.0	478.4	-231.9	-679.3	0.0	0.0	0.0	0.0	2080.0	2045.6	2572.0	0.0	0.0	0.0	0.0	30984188.4
2020-06-30 08:32:15.950	2.0	77.0	7.9	-55.7	-68.5	98863.2	427.0	0.0	0.0	0.0	0.0	487.5	-232.1	-680.7	0.0	0.0	0.0	0.0	2080.0	2044.0	2572.0	0.0	0.0	0.0	0.0	31034301.3
2020-06-30 08:32:16.000	2.0	77.0	7.1	-53.1	-71.1	98866.8	427.5	0.0	0.0	0.0	0.0	494.6	-233.7	-679.8	0.0	0.0	0.0	0.0	2080.0	2044.0	2572.4	0.0	0.0	0.0	0.0	31084337.7
2020-06-30 08:32:16.050	2.0	77.0	8.5	-52.9	-72.5	98869.8	427.5	0.0	0.0	0.0	0.0	498.9	-234.7	-679.7	0.0	0.0	0.0	0.0	2077.2	2045.2	2574.8	0.0	0.0	0.0	0.0	31134453.8
2020-06-30 08:32:16.100	2.0	77.0	6.333333333333333	-54.111111111111114	-69.22222222222223	98865.0	427.22222222222223	0.0	0.0	0.0	0.0	497.0	-228.22222222222223	-680.0	0.0	0.0	0.0	0.0	2076.4444444444443	2045.3333333333333	2572.8888888888887	0.0	0.0	0.0	0.0	31181996.222222224
2020-06-30 08:32:16.150	2.0	77.0	7.363636363636363	-56.45454545454545	-70.81818181818181	98868.27272727272	427.3636363636364	0.0	0.0	0.0	0.0	496.6363636363636	-223.1818181818182	-679.5454545454545	0.0	0.0	0.0	0.0	2076.7272727272725	2047.6363636363637	2572.0	0.0	0.0	0.0	0.0	31232063.363636363
2020-06-30 08:32:16.200	2.0	77.0	8.777777777777779	-55.888888888888886	-68.55555555555556	98874.66666666667	427.8888888888889	0.0	0.0	0.0	0.0	494.8888888888889	-217.22222222222223	-679.0	0.0	0.0	0.0	0.0	2078.222222222222	2044.4444444444443	2572.8888888888887	0.0	0.0	0.0	0.0	31282110.666666668
2020-06-30 08:32:16.250	2.0	77.0	7.2727272727272725	-55.63636363636363	-67.81818181818181	98872.36363636363	428.0	0.0	0.0	0.0	0.0	495.6363636363636	-211.8181818181818	-677.0909090909091	0.0	0.0	0.0	0.0	2076.0	2046.909090909091	2572.7272727272725	0.0	0.0	0.0	0.0	31332213.818181816
2020-06-30 08:32:16.300	2.0	77.0	5.555555555555555	-55.333333333333336	-71.55555555555556	98858.0	427.3333333333333	0.0	0.0	0.0	0.0	492.44444444444446	-207.44444444444446	-677.3333333333334	0.0	0.0	0.0	0.0	2077.777777777778	2044.0	2576.0	0.0	0.0	0.0	0.0	31382401.777777776
2020-06-30 08:32:16.350	2.0	77.0	6.25	-53.25	-67.75	98863.125	427.25	0.0	0.0	0.0	0.0	496.875	-209.125	-676.75	0.0	0.0	0.0	0.0	2078.0	2044.0	2573.5	0.0	0.0	0.0	0.0	31424865.25
2020-06-30 08:32:16.400	2.0	77.0	8.0	-56.0	-70.0	98868.0	427.8	0.0	0.0	0.0	0.0	495.1	-211.2	-675.6	0.0	0.0	0.0	0.0	2076.0	2044.4	2572.4	0.0	0.0	0.0	0.0	31477932.2
2020-06-30 08:32:16.450	5.75	77.0	6.0	-53.0	-71.5	98870.25	428.0	0.0	0.0	0.0	0.0	123.75	-52.75	-673.5	0.0	-0.03538636304438114	-6.733948469161987	0.0	2079.0	2047.0	2576.0	52.5	52.5	52.5	52.5	31537917.5
2020-06-30 08:32:16.500	7.0	77.0	9.0	-54.2	-71.4	98864.4	427.6	0.0	0.0	0.0	0.0	2.6	-0.9	-672.2	0.0	0.10823235735297203	-5.658301472663879	0.0	2078.8	2046.4	2575.2	70.0	70.0	70.0	70.0	31580068.5
2020-06-30 08:32:16.550	7.0	77.0	6.2	-57.0	-67.8	98869.5	428.0	0.0	0.0	0.0	0.0	4.6	-6.5	-672.3	0.0	0.10941877625882626	-1.4221049547195435	0.0	2077.6	2044.8	2572.8	70.0	70.0	70.0	70.0	31630144.8
2020-06-30 08:32:16.600	7.0	77.0	8.363636363636363	-52.36363636363637	-69.0909090909091	98868.27272727272	428.0	0.0	0.0	0.0	0.0	-0.2727272727272727	-9.909090909090908	-672.0	0.0	-0.5632490434429862	-0.2489845925434069	0.0	2076.0	2046.1818181818182	2574.181818181818	70.0	70.0	70.0	70.0	31682722.09090909
2020-06-30 08:32:16.650	7.0	77.8	7.0	-54.4	-70.6	98864.4	427.8	0.0	0.0	0.0	0.0	-1.8	-8.6	-671.9	0.0	-0.12286353558301925	-0.2100318744778633	0.0	2079.6	2044.8	2574.8	70.0	70.0	70.0	70.0	31735308.3
2020-06-30 08:32:16.700	7.0	79.0	6.444444444444445	-54.666666666666664	-70.88888888888889	98867.33333333333	428.0	0.0	0.0	0.0	0.0	1.2222222222222223	-14.0	-671.0	0.0	0.413709604077869	0.4255760643217299	0.0	2078.6666666666665	2044.0	2573.3333333333335	70.0	70.0	70.0	70.0	31782924.666666668
2020-06-30 08:32:16.750	7.0	79.0	9.4	-54.2	-69.8	98867.4	428.0	0.0	0.0	0.0	0.0	-1.8	-18.7	-670.6	0.0	-0.2371659278869629	0.5245218873023987	0.0	2076.0	2044.0	2574.0	70.0	70.0	70.0	70.0	31830440.9
2020-06-30 08:32:16.800	7.0	79.0	4.909090909090909	-53.09090909090909	-68.54545454545455	98863.63636363637	428.0	0.0	0.0	0.0	0.0	-4.454545454545454	-22.363636363636363	-670.4545454545455	0.0	-0.17369663105769592	0.4068171869624745	0.0	2079.2727272727275	2044.3636363636363	2572.0	70.0	70.0	70.0	70.0	31883047.818181816
2020-06-30 08:32:16.850	7.0	79.0	5.111111111111111	-53.333333333333336	-70.0	98870.0	428.0	0.0	0.0	0.0	0.0	-1.0	-24.77777777777778	-670.0	0.0	0.5170401434103647	0.31218303740024567	0.0	2078.6666666666665	2045.3333333333333	2572.0	70.0	70.0	70.0	70.0	31933074.444444444
2020-06-30 08:32:16.900	7.0	79.0	8.818181818181818	-56.09090909090909	-70.63636363636364	98866.90909090909	428.0	0.0	0.0	0.0	0.0	-2.5454545454545454	-18.818181818181817	-669.8181818181819	0.0	0.0653965798291293	-0.625531101768667	0.0	2077.090909090909	2048.0	2571.2727272727275	70.0	70.0	70.0	70.0	31983187.181818184
2020-06-30 08:32:16.950	7.0	79.0	20.555555555555557	-54.77777777777778	-69.88888888888889	98869.0	428.0	0.0	0.0	0.0	0.0	-6.666666666666667	-10.666666666666666	-666.7777777777778	0.0	-0.35656001501613194	-1.0329793956544664	0.0	2076.8888888888887	2047.111111111111	2569.777777777778	70.0	70.0	70.0	70.0	32033229.777777776
2020-06-30 08:32:17.000	7.0	79.0	23.454545454545453	-56.54545454545455	-68.72727272727273	98865.54545454546	428.0	0.0	0.0	0.0	0.0	0.2727272727272727	-17.09090909090909	-695.1818181818181	0.0	0.5418770421635021	-0.38448672894049774	0.0	2081.4545454545455	2044.3636363636363	2571.2727272727275	70.0	70.0	70.0	70.0	32083323.636363637
2020-06-30 08:32:17.050	7.0	79.0	25.77777777777778	-43.55555555555556	-69.55555555555556	98868.66666666667	428.0	0.0	0.0	0.0	0.0	7.222222222222222	-16.666666666666668	-714.1111111111111	0.0	1.0076982114050124	-0.047259454098012715	0.0	2082.6666666666665	2045.7777777777778	2574.222222222222	70.0	70.0	70.0	70.0	32133384.888888888
2020-06-30 08:32:17.100	7.0	79.0	18.90909090909091	-50.18181818181818	-72.9090909090909	98864.72727272728	428.0	0.0	0.0	0.0	0.0	22.363636363636363	-23.09090909090909	-730.3636363636364	0.0	1.9380005598068237	0.3875909535722299	0.0	2082.5454545454545	2044.7272727272727	2573.090909090909	70.0	70.0	70.0	70.0	32183449.0
2020-06-30 08:32:17.150	7.0	79.0	16.88888888888889	-49.333333333333336	-66.88888888888889	98866.0	428.0	0.0	0.0	0.0	0.0	32.55555555555556	-24.77777777777778	-710.5555555555555	0.0	1.10129890176985	-0.009183313904537095	0.0	2080.8888888888887	2044.4444444444443	2574.222222222222	70.0	70.0	70.0	70.0	32233536.888888888
2020-06-30 08:32:17.200	7.0	79.0	17.0	-52.2	-67.8	98866.2	428.0	0.0	0.0	0.0	0.0	42.0	-28.1	-713.5	0.0	0.9630404233932495	0.2808114096522331	0.0	2082.4	2044.0	2574.0	70.0	70.0	70.0	70.0	32281063.4
2020-06-30 08:32:17.250	7.0	79.0	15.0	-45.22222222222222	-73.22222222222223	98867.33333333333	428.0	0.0	0.0	0.0	0.0	47.44444444444444	-31.11111111111111	-716.8888888888889	0.0	0.8626554972595639	0.3878473887840907	0.0	2080.8888888888887	2044.4444444444443	2572.8888888888887	70.0	70.0	70.0	70.0	32333285.333333332
2020-06-30 08:32:17.300	7.0	79.0	23.88888888888889	-52.77777777777778	-78.77777777777777	98865.0	428.0	0.0	0.0	0.0	0.0	47.22222222222222	-28.22222222222222	-715.7777777777778	0.0	0.33704439136717057	-0.29307592742972904	0.0	2080.4444444444443	2046.2222222222222	2572.8888888888887	71.77777777777777	71.77777777777777	71.77777777777777	71.77777777777777	32383737.666666668
2020-06-30 08:32:17.350	7.0	79.0	28.6	-53.8	-81.0	98867.7	428.0	0.0	0.0	0.0	0.0	46.0	-28.8	-712.8	0.0	0.053202784759923814	-0.24679344296455383	0.0	2079.6	2045.2	2574.8	72.0	72.0	72.0	72.0	32431377.6
2020-06-30 08:32:17.400	7.0	79.0	15.090909090909092	-48.0	-67.27272727272727	98868.0	428.0	0.0	0.0	0.0	0.0	46.90909090909091	-26.818181818181817	-714.6363636363636	0.0	0.3448472506451336	-0.3395318172194741	0.0	2082.5454545454545	2045.8181818181818	2573.818181818182	72.0	72.0	72.0	72.0	32483897.272727273
2020-06-30 08:32:17.450	7.0	79.0	16.0	-48.22222222222222	-65.55555555555556	98871.33333333333	428.0	0.0	0.0	0.0	0.0	51.22222222222222	-28.444444444444443	-715.2222222222222	0.0	0.5333609382311503	-0.2690051119360659	0.0	2081.3333333333335	2044.4444444444443	2574.222222222222	72.0	72.0	72.0	72.0	32534036.666666668
2020-06-30 08:32:17.500	7.0	79.0	20.0	-46.4	-72.0	98866.8	428.0	0.0	0.0	0.0	0.0	52.3	-28.4	-707.0	0.0	0.4574500240385532	-0.26580743212252855	0.0	2079.6	2047.2	2572.4	72.0	72.0	72.0	72.0	32581542.5
2020-06-30 08:32:17.550	7.0	79.0	19.6	-54.8	-71.2	98871.9	428.0	0.0	0.0	0.0	0.0	44.2	-23.5	-704.2	0.0	0.10479615423828363	-0.4226589469239116	0.0	2080.8	2046.4	2572.8	72.0	72.0	72.0	72.0	32631634.0
2020-06-30 08:32:17.600	7.0	79.0	15.8	-51.4	-67.4	98877.9	428.0	0.0	0.0	0.0	0.0	41.6	-13.6	-692.7	0.0	0.318514428474009	-0.21866213381290436	0.0	2084.8	2043.6	2575.2	72.0	72.0	72.0	72.0	32681710.5
2020-06-30 08:32:17.650	7.0	79.6	21.2	-45.2	-68.4	98873.1	428.0	0.0	0.0	0.0	0.0	40.1	-9.5	-709.0	0.0	1.192510113120079	0.19962463825941085	0.0	2084.4	2042.4	2575.6	72.0	72.0	72.0	72.0	32731829.2
2020-06-30 08:32:17.700	7.0	82.0	18.22222222222222	-43.333333333333336	-70.22222222222223	98872.0	428.0	0.0	0.0	0.0	0.0	58.77777777777778	-25.0	-719.6666666666666	0.0	1.1331986851162381	0.226863042347961	0.0	2079.1111111111113	2048.4444444444443	2573.777777777778	72.0	72.0	72.0	72.0	32779354.0
2020-06-30 08:32:17.750	7.0	82.0	19.416666666666668	-47.583333333333336	-69.58333333333333	98872.5	428.0	0.0	0.0	0.0	0.0	72.16666666666667	-28.75	-722.25	0.0	0.7647047812740008	-0.3138661279032628	0.0	2085.3333333333335	2043.0	2574.6666666666665	72.0	72.0	72.0	72.0	32831941.75
2020-06-30 08:32:17.800	7.0	82.0	18.0	-48.6	-70.8	98873.1	428.0	0.0	0.0	0.0	0.0	73.6	-19.2	-713.1	0.0	0.4950427062809467	0.22536451146006584	0.0	2077.6	2046.0	2571.6	72.0	72.0	72.0	72.0	32887047.8
2020-06-30 08:32:17.850	7.0	82.0	17.1	-46.1	-68.7	98871.3	428.0	0.0	0.0	0.0	0.0	72.3	-7.1	-708.9	0.0	0.16557262390851973	0.16396936029195786	0.0	2082.0	2045.2	2574.0	72.0	72.0	72.0	72.0	32937127.2
2020-06-30 08:32:17.900	7.0	82.0	21.875	-47.375	-68.875	98871.0	428.0	0.0	0.0	0.0	0.0	75.0	-25.875	-703.0	0.0	0.028577283024787896	0.5094132293015718	0.0	2087.5	2042.0	2574.0	72.0	72.0	72.0	72.0	32982169.625
2020-06-30 08:32:17.950	7.0	82.0	20.09090909090909	-45.54545454545455	-71.54545454545455	98875.63636363637	428.0	0.0	0.0	0.0	0.0	78.63636363636364	-25.363636363636363	-694.5454545454545	0.0	0.26008126816966315	0.17520048740235242	0.0	2083.2727272727275	2045.4545454545455	2571.2727272727275	72.0	72.0	72.0	72.0	33029745.818181816
2020-06-30 08:32:18.000	7.0	82.0	19.8	-42.6	-69.4	98873.1	428.0	0.0	0.0	0.0	0.0	84.9	-16.0	-692.1	0.0	0.3264064437709749	-0.035444115102291104	0.0	2081.2	2044.0	2572.8	72.0	72.0	72.0	72.0	33082369.4
2020-06-30 08:32:18.050	7.0	82.0	18.4	-43.6	-69.6	98873.7	428.0	0.0	0.0	0.0	0.0	82.6	-18.7	-697.4	0.0	0.07329542711377143	0.11173231899738312	0.0	2080.4	2046.0	2574.0	74.4	74.8	75.2	74.6	33132375.6
2020-06-30 08:32:18.100	7.0	82.0	19.8	-47.8	-68.6	98872.5	428.0	0.0	0.0	0.0	0.0	75.7	-0.1	-723.8	0.0	0.03855874240398407	0.053918166644871236	0.0	2083.2	2045.6	2574.0	77.1	80.1	77.1	80.4	33182485.5
2020-06-30 08:32:18.150	7.0	82.0	18.6	-46.2	-71.0	98877.9	428.0	0.0	0.0	0.0	0.0	90.3	-13.3	-803.6	0.0	0.8430787265300751	0.6330762770026922	0.0	2085.6	2043.2	2572.8	78.7	86.5	78.8	87.0	33232537.4
2020-06-30 08:32:18.200	7.0	82.0	17.22222222222222	-46.55555555555556	-68.55555555555556	98872.66666666667	428.0	0.0	0.0	0.0	0.0	93.44444444444444	-28.77777777777778	-918.6666666666666	0.0	0.6279224881695377	0.46239442709419465	0.0	2079.5555555555557	2043.5555555555557	2572.8888888888887	81.66666666666667	91.22222222222223	81.88888888888889	91.77777777777777	33280137.222222224
2020-06-30 08:32:18.250	7.0	82.0	18.5	-45.7	-69.9	98877.0	428.0	0.0	0.0	0.0	0.0	84.6	-26.6	-1012.0	0.0	-0.6815555647015572	-0.4241575926542282	0.0	2079.2	2044.8	2572.4	86.3	94.6	86.6	95.2	33331734.7
2020-06-30 08:32:18.300	7.0	82.0	19.2	-48.4	-69.6	98872.2	428.0	0.0	0.0	0.0	0.0	69.3	-3.6	-1050.3	0.0	-1.1085105419158936	0.5400269277393818	0.0	2085.6	2044.0	2572.4	90.9	97.8	91.7	98.5	33382799.8
2020-06-30 08:32:18.350	7.0	82.0	18.4	-46.4	-69.6	98872.8	428.0	0.0	0.0	0.0	0.0	95.4	-38.6	-1066.4	0.0	0.39792962074279786	0.869930911064148	0.0	2086.4	2044.0	2575.6	96.1	100.9	96.4	101.6	33432848.7
2020-06-30 08:32:18.400	7.0	82.0	18.8	-47.6	-70.4	98878.5	428.0	0.0	0.0	0.0	0.0	77.8	-12.5	-1088.8	0.0	0.5506542034447193	0.3263161167502403	0.0	2082.0	2042.8	2571.6	99.8	105.6	100.0	105.3	33482946.3
2020-06-30 08:32:18.450	7.0	82.0	18.833333333333332	-47.5	-70.16666666666667	98881.0	428.0	0.0	0.0	0.0	0.0	67.33333333333333	-14.666666666666666	-1172.5	0.0	0.6688433736562729	0.5865364869435629	0.0	2081.3333333333335	2047.3333333333333	2577.3333333333335	99.83333333333333	111.5	100.33333333333333	112.83333333333333	33527968.833333332
2020-06-30 08:32:18.500	7.0	82.0	18.8	-49.2	-65.2	98870.7	428.0	0.0	0.0	0.0	0.0	62.5	-39.0	-1211.3	0.0	-1.9141632460057736	-0.47054207529872655	0.0	2080.0	2040.8	2576.0	106.2	113.5	106.6	114.5	33580208.9
2020-06-30 08:32:18.550	7.0	82.0	15.4	-47.4	-62.2	98876.4	428.0	0.0	0.0	0.0	0.0	88.2	-84.3	-1254.5	0.0	-0.7578408565372229	0.8087221324443817	0.0	2084.0	2034.4	2573.6	110.4	118.0	110.4	119.8	33633193.4
2020-06-30 08:32:18.600	7.0	82.0	17.181818181818183	-45.36363636363637	-65.54545454545455	98871.0	428.0	0.0	0.0	0.0	0.0	87.9090909090909	-119.36363636363636	-1183.1818181818182	0.0	-0.1801969503814524	1.5230695415626874	0.0	2085.4545454545455	2041.8181818181818	2570.181818181818	119.81818181818181	118.45454545454545	119.27272727272727	117.18181818181819	33685740.63636363
2020-06-30 08:32:18.650	7.0	82.0	19.625	-45.625	-67.625	98877.75	428.0	0.0	0.0	0.0	0.0	147.125	-132.625	-1132.25	0.0	2.1230408288538456	1.6454241946339607	0.0	2086.5	2041.0	2580.5	122.25	123.375	122.375	124.25	33733485.875
2020-06-30 08:32:18.700	7.0	79.0	17.636363636363637	-49.45454545454545	-67.81818181818181	98883.54545454546	428.0	0.0	0.0	0.0	0.0	78.63636363636364	-91.63636363636364	-1008.0909090909091	0.0	1.9153829596259377	-0.7090886357155713	0.0	2084.3636363636365	2048.0	2559.2727272727275	129.45454545454547	123.0909090909091	129.0	124.0	33780897.18181818
2020-06-30 08:32:18.750	7.0	79.0	19.444444444444443	-49.666666666666664	-68.11111111111111	98873.0	428.0	0.0	0.0	0.0	0.0	158.0	-167.88888888888889	-830.4444444444445	0.0	-0.7347579221758578	-1.0136063761181302	0.0	2083.5555555555557	2041.7777777777778	2594.6666666666665	136.0	122.88888888888889	136.77777777777777	127.0	33831017.0
2020-06-30 08:32:18.800	7.0	79.0	16.818181818181817	-45.90909090909091	-69.0	98877.81818181818	428.0	0.0	0.0	0.0	0.0	137.8181818181818	-179.1818181818182	-613.2727272727273	0.0	-2.4759979735721243	-0.9110242290930315	0.0	2076.7272727272725	2043.2727272727273	2572.7272727272725	142.27272727272728	127.63636363636364	141.45454545454547	126.36363636363636	33881019.72727273
2020-06-30 08:32:18.850	7.0	79.0	19.2	-48.4	-67.6	98883.6	428.0	0.0	0.0	0.0	0.0	7.2	-37.3	-398.0	0.0	-0.7126395225524902	0.39834981560707095	0.0	2082.4	2040.0	2567.2	146.7	130.5	147.4	129.9	33933678.7
2020-06-30 08:32:18.900	7.0	79.0	18.6	-49.0	-69.0	98884.5	428.0	0.0	0.0	0.0	0.0	83.2	-82.7	-198.6	0.0	-1.2840552806854248	0.10616526901721954	0.0	2082.0	2043.6	2582.4	151.2	132.6	151.4	135.7	33983684.9
2020-06-30 08:32:18.950	7.0	79.0	17.0	-49.4	-68.2	98877.6	428.0	0.0	0.0	0.0	0.0	78.4	-148.8	80.3	0.0	-1.761301976442337	-1.1414401888847352	0.0	2076.8	2042.4	2575.2	161.1	132.5	160.4	132.6	34033822.1
2020-06-30 08:32:19.000	7.0	79.0	18.0	-48.0	-67.2	98875.2	428.0	0.0	0.0	0.0	0.0	18.4	-137.4	429.0	0.0	-1.5685097992420196	-1.526381015777588	0.0	2076.8	2053.6	2573.2	170.4	132.8	167.2	132.4	34083843.5
2020-06-30 08:32:19.050	7.0	79.0	20.555555555555557	-48.333333333333336	-67.66666666666667	98886.0	428.0	0.0	0.0	0.0	0.0	-16.444444444444443	-81.77777777777777	748.4444444444445	0.0	1.365336881743537	-4.102338790893555	0.0	2086.222222222222	2049.3333333333335	2576.4444444444443	170.88888888888889	137.22222222222223	172.66666666666666	137.66666666666666	34134229.44444445
2020-06-30 08:32:19.100	7.0	79.0	18.88888888888889	-49.77777777777778	-67.55555555555556	98879.33333333333	428.0	0.0	0.0	0.0	0.0	-14.666666666666666	-181.44444444444446	970.0	0.0	-0.2501572933461931	-3.15748659769694	0.0	2083.1111111111113	2050.6666666666665	2572.8888888888887	175.11111111111111	142.66666666666666	170.77777777777777	146.0	34181497.777777776
2020-06-30 08:32:19.150	7.0	79.0	20.0	-48.90909090909091	-67.0909090909091	98882.72727272728	428.0	0.0	0.0	0.0	0.0	76.36363636363636	-361.54545454545456	1046.4545454545455	0.0	-1.2290257567709142	-6.173586932095614	0.0	2070.909090909091	2057.090909090909	2587.6363636363635	173.8181818181818	150.45454545454547	171.63636363636363	153.72727272727272	34231589.0
2020-06-30 08:32:19.200	7.0	79.0	20.77777777777778	-50.55555555555556	-68.77777777777777	98883.0	428.0	0.0	0.0	0.0	0.0	-163.66666666666666	-562.2222222222222	1074.6666666666667	0.0	-0.5633636804090606	-6.043249871995714	0.0	2080.8888888888887	2048.8888888888887	2613.3333333333335	181.66666666666666	155.66666666666666	171.33333333333334	157.66666666666666	34284481.11111111
2020-06-30 08:32:19.250	7.0	79.0	20.0	-48.888888888888886	-66.66666666666667	98886.66666666667	428.0	0.0	0.0	0.0	0.0	-642.0	-1036.111111111111	1092.0	0.0	2.1553836133744984	-7.392021867964003	0.0	2076.8888888888887	2041.7777777777778	2613.3333333333335	188.22222222222223	161.33333333333334	169.88888888888889	163.11111111111111	34331756.0
2020-06-30 08:32:19.300	7.0	79.0	20.0	-52.22222222222222	-66.22222222222223	98883.66666666667	428.0	0.0	0.0	0.0	0.0	-1033.3333333333333	-1466.7777777777778	1027.7777777777778	0.0	4.730521572960748	-9.254104190402561	0.0	2073.777777777778	2051.5555555555557	2628.0	188.0	168.22222222222223	170.66666666666666	170.0	34378539.55555555
2020-06-30 08:32:19.350	7.0	79.0	20.90909090909091	-51.45454545454545	-67.0909090909091	98875.63636363637	428.0	0.0	0.0	0.0	0.0	-1422.0	-1599.909090909091	911.6363636363636	0.0	8.06568280133334	-11.679055387323553	0.0	2084.3636363636365	2039.6363636363637	2645.090909090909	191.72727272727272	175.0909090909091	174.0909090909091	172.63636363636363	34431939.72727273
2020-06-30 08:32:19.400	7.0	79.0	17.0	-53.4	-66.2	98873.1	428.0	0.0	0.0	0.0	0.0	-1892.6	-1538.3	892.7	0.0	13.008283710479736	-10.447739505767823	0.0	2082.8	2033.2	2648.8	197.8	176.3	179.3	167.6	34484521.0
2020-06-30 08:32:19.450	7.0	79.0	16.555555555555557	-55.0	-67.44444444444444	98865.66666666667	428.0	0.0	0.0	0.0	0.0	-2315.4444444444443	-1324.0	1014.0	0.0	18.78468958536784	-6.287931548224555	0.0	2095.1111111111113	2032.0	2632.0	201.77777777777777	174.88888888888889	184.22222222222223	164.0	34532073.44444445
2020-06-30 08:32:19.500	7.0	79.0	14.8	-57.4	-68.0	98859.3	428.0	0.0	0.0	0.0	0.0	-2546.7	-1234.9	1055.2	0.0	23.247015953063965	-3.3920289278030396	0.0	2092.8	2026.0	2616.4	201.1	176.0	182.6	169.0	34579662.6
2020-06-30 08:32:19.550	7.0	79.0	13.727272727272727	-56.63636363636363	-66.27272727272727	98867.45454545454	428.0	0.0	0.0	0.0	0.0	-2430.818181818182	-1238.2727272727273	1021.0	0.0	23.446096246892754	-5.60920973257585	0.0	2081.818181818182	2038.5454545454545	2615.2727272727275	197.0	177.9090909090909	184.27272727272728	173.72727272727272	34632223.90909091
2020-06-30 08:32:19.600	7.0	79.0	10.875	-56.125	-66.375	98866.125	428.0	0.0	0.0	0.0	0.0	-1952.375	-1096.25	959.5	0.0	20.5158748626709	-5.6123127937316895	0.0	2099.5	2032.5	2597.5	192.625	178.875	186.125	179.25	34681109.875
2020-06-30 08:32:19.650	7.0	79.0	9.181818181818182	-57.90909090909091	-69.72727272727273	98864.45454545454	428.0	0.0	0.0	0.0	0.0	-1456.3636363636363	-1172.7272727272727	921.7272727272727	0.0	15.350814819335938	-4.047520420768044	0.0	2079.6363636363635	2027.6363636363637	2588.0	197.27272727272728	176.27272727272728	187.63636363636363	180.0	34732385.27272727
2020-06-30 08:32:19.700	7.0	70.0	8.88888888888889	-57.77777777777778	-69.33333333333333	98862.33333333333	428.0	5.3690450133419494e-05	54.67737325032552	0.0	0.0	-1104.4444444444443	-1295.5555555555557	15144.666666666666	0.0	13.524480925665962	-6.033920235104031	0.0	2085.3333333333335	2037.7777777777778	2590.222222222222	196.44444444444446	178.33333333333334	188.66666666666666	182.0	34782558.333333336
2020-06-30 08:32:19.750	7.0	70.0	5.222222222222222	-59.0	-68.77777777777777	98860.66666666667	428.0	0.0002829224411268822	122.69333733452692	0.0	0.0	-845.1111111111111	-1077.4444444444443	26519.88888888889	0.0	8.319853835635715	-6.708813667297363	0.0	2080.0	2044.888888888889	2582.222222222222	196.11111111111111	180.77777777777777	192.22222222222223	180.22222222222223	34834831.777777776
2020-06-30 08:32:19.800	7.0	70.0	3.75	-60.25	-67.75	98864.625	428.0	0.0006662272571702488	112.66354274749756	0.0	0.0	-635.125	-707.25	26492.375	150.0	16.745228826999664	-1.9314734861254692	0.0	2082.5	2037.0	2583.5	192.625	180.625	192.125	179.25	34880221.75
2020-06-30 08:32:19.850	7.0	70.0	1.1	-66.9	-71.9	98858.1	428.0	0.0013334143324755133	97.87791595458984	0.0	0.0	-61.0	-692.8	26393.0	243.0	93.99385147094726	17.73803472518921	0.0	2096.8	2033.2	2628.4	222.8	211.7	219.4	217.6	34930294.3
2020-06-30 08:32:19.900	7.0	70.0	-1.1111111111111112	-61.333333333333336	-72.0	98861.0	428.0	0.001891632176314791	96.49784257676866	0.0	0.0	878.2222222222222	-1113.5555555555557	26346.666666666668	251.22222222222223	115.94815487331815	23.033296161227756	0.0	2090.6666666666665	2030.2222222222222	2700.4444444444443	240.88888888888889	218.44444444444446	239.11111111111111	232.33333333333334	34981848.44444445
2020-06-30 08:32:19.950	7.0	70.0	2.3636363636363638	-59.81818181818182	-74.36363636363636	98857.63636363637	428.0	0.002629328646104444	93.90292843905362	0.0	0.0	2053.0	-1529.6363636363637	26474.81818181818	265.72727272727275	94.03466658158736	22.900785099376332	0.0	2089.090909090909	2037.090909090909	2701.4545454545455	242.36363636363637	207.27272727272728	249.36363636363637	230.0	35033011.18181818
2020-06-30 08:32:20.000	7.0	70.0	1.25	-57.25	-77.75	98857.125	428.0	0.0032762984046712518	90.01726627349854	0.0	0.0	3275.625	-1473.125	26690.625	285.625	61.99125862121582	23.07461905479431	0.0	2092.0	2042.0	2674.0	233.25	199.25	253.75	222.25	35080531.5
2020-06-30 08:32:20.050	7.0	70.0	-2.2	-55.8	-79.4	98857.8	428.0	0.003879208816215396	89.57075424194336	0.0	0.0	4463.1	-817.1	26903.6	315.5	12.999273300170898	26.17363586425781	0.0	2083.6	2034.8	2648.8	217.6	190.4	251.3	214.4	35130157.0
2020-06-30 08:32:20.100	7.0	70.0	-4.6	-53.2	-80.0	98860.8	428.0	0.004447820317000151	94.23412628173828	0.0	0.0	5185.1	-186.0	27044.5	352.7	-64.15174560546875	38.78644905090332	0.0	2075.2	2031.6	2614.0	207.1	184.4	242.5	206.7	35180733.9
2020-06-30 08:32:20.150	7.0	70.0	-10.625	-54.875	-82.125	98858.25	428.0	0.00527361169224605	93.80807876586914	0.0	0.0	4775.0	-89.625	27083.75	399.75	-92.47436714172363	53.188103675842285	0.0	2068.5	2023.5	2589.5	201.75	182.375	219.875	198.25	35232650.125
2020-06-30 08:32:20.200	7.0	70.0	-8.2	-57.6	-82.2	98851.2	428.0	0.0063801038078963755	82.87630844116211	0.0	0.0	3489.5	-666.5	26986.1	445.3	1.5075550079345703	27.36760540008545	0.0	2078.8	2029.6	2576.4	204.0	185.5	196.6	194.0	35280834.4
2020-06-30 08:32:20.250	7.0	70.0	-6.4	-60.4	-84.0	98859.3	428.0	0.007067255862057209	83.36257476806641	0.0	0.0	2242.2	-1331.4	26943.8	494.6	81.02883605957031	-4.4080102920532225	0.0	2083.6	2036.4	2554.8	207.3	179.8	191.9	185.3	35330910.8
2020-06-30 08:32:20.300	7.0	70.0	-5.9	-59.1	-82.7	98858.7	428.0	0.007834407780319453	89.92583770751953	0.0	0.0	1591.1	-1656.9	26885.2	541.4	42.79893455505371	6.159296035766602	0.0	2088.4	2034.0	2543.2	197.2	175.5	187.8	183.0	35380965.8
2020-06-30 08:32:20.350	7.0	70.0	-6.0	-56.36363636363637	-84.72727272727273	98855.18181818182	428.0	0.008600932630625639	91.08907040682706	0.0	0.0	1215.5454545454545	-1785.909090909091	26833.090909090908	589.7272727272727	24.534032474864613	14.30371145768599	0.0	2089.4545454545455	2041.090909090909	2484.0	152.72727272727272	130.0909090909091	145.72727272727272	136.63636363636363	35433593.09090909
2020-06-30 08:32:20.400	7.0	70.0	-7.444444444444445	-61.0	-83.0	98859.66666666667	428.0	0.009264063090085983	94.87623257107205	0.0	0.0	868.6666666666666	-1795.111111111111	26782.444444444445	624.7777777777778	13.65759711795383	24.62385516696506	0.0	2056.4444444444443	2034.2222222222222	2387.1111111111113	141.77777777777777	123.0	134.55555555555554	127.66666666666667	35483703.0
2020-06-30 08:32:20.450	7.0	70.0	-7.9	-61.9	-84.3	98863.8	428.0	0.009630671422928571	100.1276611328125	0.0	0.0	588.6	-1802.7	26725.2	650.2	-12.541119170188903	28.210448265075684	0.0	2075.6	2033.2	2380.8	145.8	128.7	140.6	133.7	35531252.4
2020-06-30 08:32:20.500	7.0	70.0	-6.9	-61.7	-82.9	98860.8	428.0	0.010134715866297484	106.33631210327148	0.0	0.0	271.1	-1771.9	26625.7	669.1	-47.669210052490236	25.292708587646484	0.0	2069.6	2036.0	2408.0	155.0	138.7	150.2	143.8	35581264.6
2020-06-30 08:32:20.550	7.0	70.0	-6.888888888888889	-63.333333333333336	-84.66666666666667	98858.66666666667	428.0	0.010521304483215014	110.13865576850043	0.0	0.0	-25.666666666666668	-1663.0	26576.333333333332	682.3333333333334	-70.51893785264757	13.375156243642172	0.0	2067.5555555555557	2037.3333333333333	2442.6666666666665	162.44444444444446	146.77777777777777	158.88888888888889	150.77777777777777	35630621.55555555
2020-06-30 08:32:20.600	7.0	70.0	-6.5	-65.5	-83.9	98860.5	428.0	0.010983583051711321	113.10579986572266	0.0	0.0	-318.0	-1456.5	26510.1	691.1	-82.06675567626954	-6.155649352073669	0.0	2074.4	2032.4	2467.2	169.4	153.2	165.9	157.1	35681429.6
2020-06-30 08:32:20.650	7.0	70.0	-12.1	-65.7	-85.1	98857.2	428.0	0.011297606676816941	114.56055374145508	0.0	0.0	-619.1	-1268.9	26479.5	695.1	-73.1035255432129	-27.505161571502686	0.0	2082.8	2033.2	2497.2	175.3	161.5	169.3	164.3	35731527.3
2020-06-30 08:32:20.700	7.0	62.0	-8.2	-68.0	-84.6	98859.9	428.0	0.011873522214591503	115.28239059448242	0.0	0.0	-897.6	-1071.8	26428.6	694.5	-69.69257354736328	-37.25559349060059	0.0	2082.8	2033.2	2523.6	184.7	165.9	177.8	167.3	35781557.7
2020-06-30 08:32:20.750	7.0	60.0	-6.666666666666667	-66.88888888888889	-84.66666666666667	98859.66666666667	428.0	0.012271056158675088	115.40955861409505	0.0	0.0	-1215.7777777777778	-712.7777777777778	26422.666666666668	694.6666666666666	-58.205526987711586	-42.24597930908203	0.0	2078.222222222222	2032.888888888889	2535.5555555555557	186.77777777777777	171.33333333333334	181.33333333333334	167.33333333333334	35834143.222222224
2020-06-30 08:32:20.800	7.0	60.0	-10.8	-67.6	-82.6	98857.8	428.0	0.012728920485824347	114.97104263305664	0.0	0.0	-1411.9	-318.1	26415.8	688.8	-42.147151947021484	-46.9987735748291	0.0	2088.4	2033.2	2556.0	191.6	178.0	186.2	173.0	35881792.7
2020-06-30 08:32:20.850	7.0	60.0	-10.3	-67.5	-82.3	98859.3	428.0	0.013187385071069002	114.15573043823242	0.0	0.0	-1444.2	-118.3	26396.0	682.0	-25.760218238830568	-50.722404861450194	0.0	2091.2	2029.6	2582.0	195.7	180.9	189.3	179.0	35931792.6
2020-06-30 08:32:20.900	7.0	60.0	-9.909090909090908	-69.0	-82.63636363636364	98863.63636363637	428.0	0.013828716494820335	113.46806266091086	0.0	0.0	-1339.6363636363637	-56.45454545454545	26342.090909090908	674.1818181818181	-14.478378469293768	-45.8652624650435	0.0	2079.6363636363635	2037.090909090909	2589.4545454545455	198.63636363636363	184.8181818181818	192.27272727272728	182.27272727272728	35984391.09090909
2020-06-30 08:32:20.950	7.0	60.0	-11.333333333333334	-68.66666666666667	-85.11111111111111	98857.66666666667	428.0	0.014923395899434885	112.33375888400607	0.0	0.0	-1254.888888888889	-47.77777777777778	26311.666666666668	668.7777777777778	-6.067281934950087	-30.85819074842665	0.0	2096.0	2029.7777777777778	2594.6666666666665	199.33333333333334	185.77777777777777	192.66666666666666	183.88888888888889	36034430.11111111
2020-06-30 08:32:21.000	7.0	60.0	-10.5	-68.3	-83.9	98856.6	428.0	0.015767856128513814	110.93300399780273	0.0	0.0	-1175.8	-188.2	26291.6	662.4	1.7158798322081565	-22.625477409362794	0.0	2087.2	2030.4	2598.0	202.8	185.7	194.5	185.1	36082052.2
2020-06-30 08:32:21.050	7.0	60.0	-9.555555555555555	-69.77777777777777	-83.33333333333333	98855.0	428.0	0.016956268085373774	109.50340864393446	0.0	0.0	-1042.0	-416.77777777777777	26237.88888888889	661.2222222222222	12.688441700405544	-14.163312276204428	0.0	2082.222222222222	2028.0	2605.3333333333335	199.22222222222223	183.77777777777777	190.44444444444446	184.77777777777777	36131774.44444445
2020-06-30 08:32:21.100	7.0	60.0	-8.777777777777779	-67.44444444444444	-83.22222222222223	98863.0	428.0	0.01811568687359492	108.63252682156033	0.0	0.0	-879.2222222222222	-611.4444444444445	26240.11111111111	655.5555555555555	19.483842107984756	-6.89160958925883	0.0	2085.3333333333335	2030.2222222222222	2600.8888888888887	202.33333333333334	184.88888888888889	194.22222222222223	185.55555555555554	36183030.44444445
2020-06-30 08:32:21.150	7.0	60.0	-7.875	-69.125	-80.875	98853.375	428.0	0.01937562902458012	107.88259029388428	0.0	0.0	-746.125	-770.625	26239.5	651.5	28.628348112106323	2.364088721573353	0.0	2098.5	2033.5	2609.0	203.875	184.625	195.625	186.5	36227199.0
2020-06-30 08:32:21.200	7.0	60.0	-9.166666666666666	-66.33333333333333	-84.16666666666667	98852.0	428.0	0.020442503194014233	107.05967267354329	0.0	0.0	-464.0	-968.0833333333334	26222.5	650.8333333333334	34.38102118174235	-2.5659141490856805	0.0	2084.0	2033.6666666666667	2600.0	200.58333333333334	181.66666666666666	193.0	185.91666666666666	36281956.416666664
2020-06-30 08:32:21.250	7.0	60.0	-8.0	-65.25	-84.5	98859.0	428.0	0.02188050327822566	106.38020038604736	0.0	0.0	-209.5	-1101.125	26207.0	649.875	37.257625579833984	2.740410342812538	0.0	2086.5	2030.5	2591.5	199.75	181.5	192.875	186.25	36332999.625
2020-06-30 08:32:21.300	7.0	60.0	-8.2	-65.2	-83.0	98857.5	428.0	0.023275051452219486	105.89581909179688	0.0	0.0	-70.9	-1240.2	26204.9	648.9	38.092359924316405	12.839960718154908	0.0	2081.2	2030.4	2596.8	200.8	181.4	192.7	185.3	36382494.7
2020-06-30 08:32:21.350	7.0	60.0	-6.0	-67.14285714285714	-85.14285714285714	98856.85714285714	428.0	0.02475814308438982	105.55971309116909	0.0	0.0	-20.571428571428573	-1440.2857142857142	26201.428571428572	649.0	37.363037109375	21.683455875941686	0.0	2076.0	2026.2857142857142	2601.1428571428573	201.0	180.42857142857142	190.42857142857142	186.28571428571428	36425000.28571428
2020-06-30 08:32:21.400	7.0	60.0	-5.545454545454546	-63.72727272727273	-84.27272727272727	98859.0	428.0	0.025921591472896664	104.51281391490589	0.0	0.0	121.54545454545455	-1803.6363636363637	26197.454545454544	653.1818181818181	44.54579093239524	9.115507364273071	0.0	2093.090909090909	2029.8181818181818	2590.5454545454545	198.72727272727272	175.54545454545453	188.1818181818182	184.8181818181818	36481092.45454545
2020-06-30 08:32:21.450	7.0	60.0	-7.0	-62.714285714285715	-85.28571428571429	98859.42857142857	428.0	0.027619236814124242	104.43638174874441	0.0	0.0	392.42857142857144	-1986.857142857143	26167.285714285714	655.4285714285714	46.40336390904018	7.586956739425659	0.0	2077.714285714286	2036.5714285714287	2577.1428571428573	195.85714285714286	175.71428571428572	188.0	186.42857142857142	36532326.28571428
2020-06-30 08:32:21.500	7.0	60.0	-2.888888888888889	-65.77777777777777	-84.88888888888889	98858.0	428.0	0.02885772639678584	104.96464453803168	0.0	0.0	660.3333333333334	-2165.222222222222	26191.777777777777	659.3333333333334	34.433739556206596	0.7034561634063721	0.0	2088.8888888888887	2022.2222222222222	2575.5555555555557	197.33333333333334	170.77777777777777	187.77777777777777	184.0	36583126.0
2020-06-30 08:32:21.550	7.0	60.0	-4.6	-63.8	-83.4	98860.5	428.0	0.029704939387738705	104.88924179077148	0.0	0.0	731.8	-2290.7	26233.0	662.8	28.36722583770752	-17.604086017608644	0.0	2085.2	2032.0	2573.6	197.9	169.6	187.8	181.7	36632866.9
2020-06-30 08:32:21.600	7.0	60.0	-6.0	-65.25	-84.75	98854.5	428.0	0.031122302170842886	105.06570529937744	0.0	0.0	705.375	-2252.25	26275.0	667.75	22.807507514953613	-23.96420407295227	0.0	2078.0	2030.5	2568.0	196.75	168.125	186.375	179.875	36682917.875
2020-06-30 08:32:21.650	7.0	60.0	-7.111111111111111	-63.55555555555556	-84.66666666666667	98855.0	428.0	0.032072064777215324	104.94003465440538	0.0	0.0	633.7777777777778	-2141.5555555555557	26346.666666666668	673.0	19.710173500908745	-33.992851681179474	0.0	2077.3333333333335	2031.5555555555557	2572.0	195.88888888888889	167.33333333333334	185.44444444444446	177.11111111111111	36733316.55555555
2020-06-30 08:32:21.700	7.0	55.1	-6.3	-63.7	-84.9	98857.2	428.0	0.03346240185201168	105.1551727294922	0.0	0.0	593.9	-1945.7	26356.4	675.3	16.315927696228027	-38.50269660949707	0.0	2084.0	2028.0	2565.2	194.8	169.6	186.6	179.3	36783050.1
2020-06-30 08:32:21.750	7.0	53.0	-6.888888888888889	-63.333333333333336	-83.77777777777777	98854.33333333333	428.0	0.03468802115983433	105.17348056369357	0.0	0.0	598.7777777777778	-1686.888888888889	26394.0	676.4444444444445	10.867620574103462	-43.97431988186307	0.0	2084.8888888888887	2027.5555555555557	2566.6666666666665	196.11111111111111	170.11111111111111	189.66666666666666	178.22222222222223	36830671.0
2020-06-30 08:32:21.800	7.0	53.0	-5.0	-66.0909090909091	-86.63636363636364	98859.0	428.0	0.03639853373169899	105.7409993951971	0.0	0.0	510.6363636363636	-1459.4545454545455	26433.090909090908	677.8181818181819	4.802258794957941	-40.666521245783024	0.0	2079.6363636363635	2026.1818181818182	2576.7272727272725	197.1818181818182	171.0	189.8181818181818	178.54545454545453	36880684.09090909
2020-06-30 08:32:21.850	7.0	53.0	-6.9	-65.7	-84.3	98859.0	428.0	0.037469403073191646	106.0276382446289	0.0	0.0	381.7	-1267.1	26495.5	679.6	0.3306960999965668	-44.91287040710449	0.0	2086.8	2026.8	2574.8	198.2	170.3	189.8	176.7	36933370.4
2020-06-30 08:32:21.900	7.0	53.0	-8.1	-65.1	-84.1	98856.6	428.2	0.03919881619513035	106.18925552368164	0.0	0.0	121.1	-1282.1	26543.7	681.1	-1.292929546535015	-35.956156158447264	0.0	2088.8	2026.8	2581.2	199.9	171.3	186.8	177.6	36983361.4
2020-06-30 08:32:21.950	7.0	53.0	-7.5	-67.1	-83.9	98856.0	428.0	0.04048305973410606	105.91423568725585	0.0	0.0	-115.2	-1510.6	26507.7	683.0	-0.466333857178688	-31.823574829101563	0.0	2084.0	2030.4	2581.6	197.5	173.1	181.8	182.0	37033425.4
2020-06-30 08:32:22.000	7.0	53.0	-3.2	-65.2	-84.4	98858.4	428.0	0.04160179644823074	105.55432357788087	0.0	0.0	-230.0	-1818.9	26428.3	684.4	3.2290554150938986	-35.33942756652832	0.0	2087.2	2036.4	2576.0	197.1	173.0	180.7	184.0	37083532.1
2020-06-30 08:32:22.050	3.1	53.0	-3.9	-65.3	-84.7	98854.2	428.0	0.04262017607688904	104.96801376342773	0.0	0.0	-175.5	-2064.0	26332.6	686.4	12.91538200378418	-41.52374839782715	0.0	2089.6	2031.6	2570.0	187.5	166.9	176.0	178.8	37133523.0
2020-06-30 08:32:22.100	4.111111111111111	53.0	-5.666666666666667	-67.44444444444444	-82.55555555555556	98859.0	428.22222222222223	0.043540222777260676	104.83719380696614	0.0	0.0	-63.0	-2320.222222222222	26200.88888888889	687.6666666666666	18.329932530721027	-47.73830922444662	0.0	2084.8888888888887	2031.5555555555557	2564.4444444444443	189.88888888888889	170.44444444444446	174.77777777777777	185.66666666666666	37181128.11111111
2020-06-30 08:32:22.150	3.888888888888889	53.0	-4.666666666666667	-63.333333333333336	-84.22222222222223	98861.66666666667	428.1111111111111	0.04407995897862646	104.68710327148438	0.0	0.0	-2.888888888888889	-2380.3333333333335	26102.0	690.6666666666666	16.720364570617676	-64.45407316419814	0.0	2075.5555555555557	2036.0	2566.222222222222	189.11111111111111	166.88888888888889	174.0	180.0	37231851.666666664
2020-06-30 08:32:22.200	3.0	53.0	-5.111111111111111	-66.44444444444444	-83.33333333333333	98863.0	428.3333333333333	0.04469264340069559	104.47237141927083	0.0	0.0	50.77777777777778	-2103.1111111111113	26069.555555555555	692.1111111111111	16.037124103969997	-81.3833965725369	0.0	2091.5555555555557	2031.111111111111	2562.6666666666665	191.88888888888889	172.66666666666666	184.33333333333334	181.0	37281300.222222224
2020-06-30 08:32:22.250	4.222222222222222	53.0	-6.333333333333333	-66.77777777777777	-82.11111111111111	98857.33333333333	428.0	0.045220437149206795	104.20253414577908	0.0	0.0	-16.88888888888889	-1910.0	26002.0	693.7777777777778	16.237703959147137	-103.04351382785373	0.0	2078.6666666666665	2025.7777777777778	2578.6666666666665	193.88888888888889	174.0	177.88888888888889	185.55555555555554	37330247.333333336
2020-06-30 08:32:22.300	3.909090909090909	53.0	-3.4545454545454546	-66.36363636363636	-87.63636363636364	98857.90909090909	428.0	0.04514901881868189	103.74885975230823	0.0	0.0	-124.27272727272727	-1653.6363636363637	25971.727272727272	694.9090909090909	15.660673401572488	-130.47977724942294	0.0	2085.4545454545455	2029.4545454545455	2572.0	193.1818181818182	168.72727272727272	178.0909090909091	179.63636363636363	37381455.45454545
2020-06-30 08:32:22.350	3.0	53.0	-7.3	-66.1	-83.7	98857.2	428.3	0.04627744443714619	103.57948608398438	0.0	0.0	-116.4	-1061.4	25963.4	696.2	21.45685157775879	-137.15699310302733	0.0	2082.0	2026.8	2574.4	191.1	179.3	187.9	181.7	37433956.4
2020-06-30 08:32:22.400	3.888888888888889	53.0	-6.777777777777778	-68.11111111111111	-83.44444444444444	98863.0	428.1111111111111	0.04726854256457753	103.8768539428711	0.0	0.0	-156.88888888888889	-815.6666666666666	25915.444444444445	697.4444444444445	17.823858896891277	-129.8604041205512	0.0	2084.8888888888887	2023.111111111111	2591.5555555555557	196.44444444444446	179.22222222222223	186.0	185.22222222222223	37481573.666666664
2020-06-30 08:32:22.450	3.8181818181818183	53.0	-6.636363636363637	-66.45454545454545	-84.27272727272727	98857.09090909091	428.0	0.04728861085393212	103.42104408957742	0.0	0.0	-166.9090909090909	-629.9090909090909	25897.909090909092	698.1818181818181	21.932903809980914	-145.39380160245028	0.0	2088.0	2032.3636363636363	2578.5454545454545	195.63636363636363	172.63636363636363	183.63636363636363	181.8181818181818	37531637.90909091
2020-06-30 08:32:22.500	3.0	53.0	-8.555555555555555	-67.44444444444444	-83.0	98859.33333333333	428.22222222222223	0.04835794452163908	103.52991061740451	0.0	0.0	-59.77777777777778	-186.0	25901.88888888889	698.1111111111111	24.891887452867294	-140.82034640842014	0.0	2083.1111111111113	2024.4444444444443	2580.8888888888887	192.66666666666666	183.0	191.55555555555554	184.88888888888889	37581796.777777776
2020-06-30 08:32:22.550	3.0	53.0	-6.8	-64.4	-84.4	98860.5	428.2	0.049472568184137346	103.7036636352539	0.0	0.0	-70.1	-91.5	25890.4	699.9	20.76518611907959	-124.80057296752929	0.0	2085.2	2022.8	2596.0	199.7	183.2	194.5	184.9	37629274.9
2020-06-30 08:32:22.600	3.0	53.0	-8.5	-68.25	-84.0	98856.75	428.25	0.050782366655766964	103.1160135269165	0.0	0.0	-109.125	-50.0	25903.5	703.75	26.894145011901855	-121.0653429031372	0.0	2079.0	2026.0	2601.5	200.625	182.75	195.375	186.5	37682521.25
2020-06-30 08:32:22.650	3.0	53.0	-10.0	-68.54545454545455	-85.0909090909091	98856.27272727272	428.72727272727275	0.05194827338511294	102.93809994784269	0.0	0.0	-89.81818181818181	-112.27272727272727	25892.272727272728	708.0909090909091	27.872183539650656	-110.16714130748402	0.0	2094.909090909091	2024.3636363636363	2606.5454545454545	199.27272727272728	184.72727272727272	193.0	188.72727272727272	37731874.72727273
2020-06-30 08:32:22.700	3.0	49.111111111111114	-8.444444444444445	-69.77777777777777	-84.66666666666667	98860.66666666667	428.44444444444446	0.05315649757782618	102.46824476453993	0.0	0.0	-101.0	-232.33333333333334	25884.88888888889	714.8888888888889	31.338272094726562	-106.45592498779297	0.0	2087.1111111111113	2025.3333333333333	2601.3333333333335	199.77777777777777	182.77777777777777	192.44444444444446	188.44444444444446	37781998.88888889
2020-06-30 08:32:22.750	3.0	46.0	-6.333333333333333	-68.11111111111111	-85.88888888888889	98861.66666666667	428.3333333333333	0.053760908957984715	102.39984639485677	0.0	0.0	-113.22222222222223	-365.55555555555554	25918.666666666668	724.0	27.374542448255752	-109.1178470187717	0.0	2084.0	2027.111111111111	2597.777777777778	201.77777777777777	179.66666666666666	193.55555555555554	185.22222222222223	37830413.333333336
2020-06-30 08:32:22.800	3.0	46.0	-9.636363636363637	-66.0	-85.45454545454545	98859.54545454546	428.72727272727275	0.05527900599620559	102.37163890491833	0.0	0.0	-171.72727272727272	-521.0	25912.727272727272	732.4545454545455	28.130267923528496	-103.55353684858842	0.0	2084.7272727272725	2024.7272727272727	2594.181818181818	199.45454545454547	181.9090909090909	189.72727272727272	188.72727272727272	37882129.45454545
2020-06-30 08:32:22.850	3.0	46.0	-6.444444444444445	-66.66666666666667	-84.22222222222223	98858.0	428.1111111111111	0.056151157865921654	101.92854393853082	0.0	0.0	-117.55555555555556	-687.1111111111111	25894.222222222223	738.7777777777778	33.72018623352051	-106.97837999131944	0.0	2087.5555555555557	2026.6666666666667	2588.0	200.88888888888889	181.22222222222223	192.55555555555554	189.66666666666666	37935502.333333336
2020-06-30 08:32:22.900	3.0	46.0	-7.2	-68.0	-85.8	98860.5	428.9	0.05721660815179348	101.66745300292969	0.0	0.0	75.0	-748.2	25895.3	747.5	36.85170631408691	-108.18574829101563	0.0	2086.0	2032.0	2592.4	199.3	180.4	193.4	190.2	37984829.3
2020-06-30 08:32:22.950	3.0	46.0	-5.75	-66.25	-87.5	98858.625	428.75	0.05792356701567769	101.68187522888184	0.0	0.0	234.75	-678.5	25890.5	757.25	32.15880060195923	-108.99222183227539	0.0	2083.0	2022.0	2589.0	198.625	180.5	193.875	189.0	38031711.125
2020-06-30 08:32:23.000	3.0	46.0	-5.375	-68.375	-84.375	98856.375	428.75	0.05918371956795454	101.53782558441162	0.0	0.0	337.125	-582.375	25854.25	767.125	29.27645969390869	-104.64614868164062	0.0	2059.5	2035.5	2588.5	196.625	182.0	193.125	190.375	38081374.625
2020-06-30 08:32:23.050	3.0	46.0	-8.272727272727273	-65.72727272727273	-84.0909090909091	98861.72727272728	429.0	0.060521143742583015	101.48377574573864	0.0	0.0	422.1818181818182	-460.3636363636364	25819.545454545456	776.5454545454545	25.983512705022637	-96.79035672274503	0.0	2077.818181818182	2024.0	2588.0	197.45454545454547	182.8181818181818	193.72727272727272	190.36363636363637	38132526.18181818
2020-06-30 08:32:23.100	3.0	46.0	-9.444444444444445	-65.44444444444444	-86.33333333333333	98851.0	428.44444444444446	0.062329180952575475	101.39027743869357	0.0	0.0	479.22222222222223	-441.22222222222223	25779.11111111111	784.5555555555555	24.372365951538086	-76.93551550971137	0.0	2100.4444444444443	2029.3333333333333	2597.777777777778	198.33333333333334	182.88888888888889	193.44444444444446	193.33333333333334	38183277.88888889
2020-06-30 08:32:23.150	3.0	46.0	-8.333333333333334	-65.66666666666667	-86.77777777777777	98861.33333333333	428.6666666666667	0.06236739705006281	100.90458594428168	0.0	0.0	594.0	-541.5555555555555	25730.11111111111	796.7777777777778	18.672246509128147	-94.02549150254991	0.0	2084.4444444444443	2025.3333333333333	2594.6666666666665	196.0	182.44444444444446	191.22222222222223	194.66666666666666	38232716.333333336
2020-06-30 08:32:23.200	3.0	46.0	-7.4	-66.2	-88.6	98854.5	428.8	0.06316162645816803	100.56328735351562	0.0	0.0	705.4	-621.7	25667.9	813.9	15.478721714019775	-104.72504653930665	0.0	2090.0	2032.8	2582.8	193.8	180.3	190.6	192.3	38280224.1
2020-06-30 08:32:23.250	3.0	46.0	-7.6	-66.0	-87.6	98855.1	428.6	0.06353632658720017	100.41630935668945	0.0	0.0	811.1	-592.4	25640.3	827.7	9.61287784576416	-116.02668762207031	0.0	2083.2	2030.0	2582.4	195.2	178.7	191.7	192.0	38330337.0
2020-06-30 08:32:23.300	3.0	46.0	-8.8	-67.6	-87.2	98855.7	428.6	0.06526380851864814	100.6787338256836	0.0	0.0	867.8	-733.6	25617.1	839.6	4.481907320022583	-98.06074371337891	0.0	2080.0	2028.8	2588.8	196.3	179.1	190.4	194.0	38380398.2
2020-06-30 08:32:23.350	3.0	46.0	-7.875	-67.875	-86.375	98855.625	428.875	0.06611886061728	100.33399295806885	0.0	0.0	909.125	-959.0	25578.5	853.125	3.617038309574127	-83.32420539855957	0.0	2091.0	2032.0	2589.0	196.75	178.75	189.0	195.75	38430514.875
2020-06-30 08:32:23.400	3.0	46.0	-9.0	-65.5	-87.5	98852.625	428.5	0.0664393613114953	100.27092266082764	0.0	0.0	926.875	-1155.375	25552.625	865.625	-1.0030064284801483	-77.62710952758789	0.0	2083.0	2039.0	2586.5	197.0	176.625	189.125	195.125	38470553.875
2020-06-30 08:32:23.450	3.0	46.0	-6.5	-66.5	-86.83333333333333	98858.5	428.5	0.06511917213598888	99.67385991414388	0.0	0.0	939.6666666666666	-1396.0	25580.0	879.3333333333334	-11.512905915578207	-107.58203760782878	0.0	2086.6666666666665	2032.0	2584.0	200.66666666666666	174.83333333333334	190.66666666666666	193.5	38520543.0
2020-06-30 08:32:23.500	3.0	46.0	-4.2	-69.0	-86.2	98855.4	429.0	0.06422450840473175	99.22994995117188	0.0	0.0	869.6	-1507.2	25625.6	892.2	-15.810110473632813	-141.05674743652344	0.0	2092.0	2053.6	2580.0	200.8	174.2	190.4	191.6	38560210.6
2020-06-30 08:32:23.550	3.0	46.0	-4.153846153846154	-66.0	-90.46153846153847	98855.30769230769	428.9230769230769	0.06492386872951801	99.1658947284405	0.0	0.0	671.0769230769231	-1564.1538461538462	25687.46153846154	916.4615384615385	-23.22721716073843	-154.25858248197116	0.0	2088.0	2030.1538461538462	2584.3076923076924	200.23076923076923	173.3846153846154	189.23076923076923	189.84615384615384	38627541.92307692
2020-06-30 08:32:23.600	3.0	46.0	-4.7	-68.9	-88.5	98852.4	428.9	0.06474851593375205	99.04014663696289	0.0	0.0	508.8	-1614.5	25733.6	933.1	-29.268106842041014	-163.62393035888672	0.0	2082.0	2031.6	2589.6	201.2	174.5	189.2	191.0	38685878.9
2020-06-30 08:32:23.650	3.0	46.0	-4.875	-67.875	-88.625	98845.125	428.5	0.06397339515388012	98.48284244537354	0.0	0.0	437.75	-1632.875	25766.625	949.75	-32.779377937316895	-186.92625617980957	0.0	2088.5	2037.0	2584.5	200.5	172.5	188.0	190.25	38730906.75
2020-06-30 08:32:23.700	3.0	42.888888888888886	-4.0	-67.77777777777777	-88.44444444444444	98848.66666666667	429.0	0.06311096085442437	97.70694224039714	0.0	0.0	319.55555555555554	-1548.2222222222222	25828.88888888889	966.6666666666666	-33.95704862806532	-204.14699978298611	0.0	2088.4444444444443	2032.4444444444443	2582.6666666666665	201.22222222222223	173.55555555555554	190.33333333333334	187.55555555555554	38785260.88888889
2020-06-30 08:32:23.750	3.0	39.0	-4.222222222222222	-67.77777777777777	-87.11111111111111	98849.0	429.0	0.06363873928785324	97.19893307156033	0.0	0.0	228.22222222222223	-1340.2222222222222	25880.88888888889	984.1111111111111	-27.075922860039604	-207.39215426974826	0.0	2085.777777777778	2026.6666666666667	2584.0	200.55555555555554	172.88888888888889	190.44444444444446	186.33333333333334	38833600.777777776
2020-06-30 08:32:23.800	3.0	39.0	-5.444444444444445	-69.22222222222223	-89.66666666666667	98848.0	428.8888888888889	0.06315525538391537	96.9074469672309	0.0	0.0	146.44444444444446	-1126.5555555555557	25934.555555555555	999.4444444444445	-30.713474697536892	-216.65584818522134	0.0	2084.8888888888887	2032.0	2583.1111111111113	199.77777777777777	174.11111111111111	190.22222222222223	186.0	38880892.777777776
2020-06-30 08:32:23.850	3.0	39.0	-5.6	-70.8	-89.2	98848.2	429.0	0.06299856342375279	96.54527359008789	0.0	0.0	123.5	-966.9	25944.6	1018.2	-31.383226203918458	-224.54568939208986	0.0	2086.8	2032.8	2574.0	197.2	174.1	188.6	187.3	38931200.7
2020-06-30 08:32:23.900	3.0	39.0	-7.666666666666667	-70.55555555555556	-90.11111111111111	98847.66666666667	429.0	0.06189537172516187	95.72222391764323	0.0	0.0	121.77777777777777	-681.0	25961.555555555555	1036.5555555555557	-25.542346318562824	-232.69927978515625	0.0	2081.777777777778	2032.4444444444443	2572.8888888888887	196.44444444444446	174.33333333333334	190.55555555555554	183.88888888888889	38979895.11111111
2020-06-30 08:32:23.950	3.0	39.0	-7.8	-66.2	-91.0	98846.4	429.0	0.06193130947649479	95.579296875	0.0	0.0	85.2	-269.4	25954.6	1054.3	-23.871846771240236	-233.4373306274414	0.0	2078.0	2028.0	2572.0	194.4	176.9	190.6	183.2	39031356.3
2020-06-30 08:32:24.000	3.0	39.0	-11.333333333333334	-69.11111111111111	-91.33333333333333	98849.0	429.0	0.06214709993865755	95.26823001437717	0.0	0.0	-36.55555555555556	197.22222222222223	25933.555555555555	1073.0	-18.037153244018555	-222.4621785481771	0.0	2098.6666666666665	2025.3333333333333	2561.3333333333335	192.44444444444446	178.88888888888889	189.33333333333334	181.88888888888889	39081115.333333336
2020-06-30 08:32:24.050	3.0	39.0	-7.8	-69.8	-89.4	98851.8	429.0	0.062321363016963005	94.82836532592773	0.0	0.0	-147.2	573.4	25892.5	1090.6	-12.012656688690186	-210.65424041748048	0.0	2092.8	2024.8	2564.8	191.7	179.9	189.2	182.1	39131511.8
2020-06-30 08:32:24.100	3.0	39.0	-8.125	-70.875	-87.125	98845.875	429.0	0.0613476512953639	94.44649028778076	0.0	0.0	-258.0	844.625	25860.875	1104.25	-16.37744128704071	-218.33577156066895	0.0	2101.5	2019.0	2564.0	194.0	180.75	190.875	181.875	39180381.375
2020-06-30 08:32:24.150	3.0	39.0	-9.909090909090908	-69.0	-87.72727272727273	98851.90909090909	429.0	0.06167024306275628	93.99267508766867	0.0	0.0	-401.3636363636364	1015.2727272727273	25849.909090909092	1120.3636363636363	-7.261591564525258	-214.72019958496094	0.0	2080.7272727272725	2027.6363636363637	2574.5454545454545	194.0909090909091	181.72727272727272	190.72727272727272	182.36363636363637	39234130.36363637
2020-06-30 08:32:24.200	3.0	39.0	-11.88888888888889	-66.33333333333333	-88.33333333333333	98850.33333333333	429.0	0.06177404191758898	93.89383782280817	0.0	0.0	-467.8888888888889	1041.2222222222222	25844.777777777777	1136.2222222222222	-4.181224425633748	-203.1486121283637	0.0	2093.3333333333335	2029.3333333333333	2574.222222222222	195.44444444444446	179.55555555555554	191.0	182.22222222222223	39284226.666666664
2020-06-30 08:32:24.250	3.0	39.0	-10.8	-69.2	-88.0	98853.0	429.0	0.06172091625630856	93.58400344848633	0.0	0.0	-456.4	1049.4	25850.3	1151.9	-0.49360562562942506	-193.4017562866211	0.0	2083.6	2025.6	2574.8	194.2	180.0	191.1	182.1	39331817.1
2020-06-30 08:32:24.300	3.0	39.0	-12.222222222222221	-71.33333333333333	-90.22222222222223	98851.0	429.0	0.0617012737525834	93.44126213921442	0.0	0.0	-403.6666666666667	998.7777777777778	25864.222222222223	1166.5555555555557	3.1029970248540244	-184.4180874294705	0.0	2068.8888888888887	2027.5555555555557	2583.1111111111113	195.33333333333334	178.77777777777777	192.0	182.0	39380455.11111111
2020-06-30 08:32:24.350	3.0	39.0	-13.2	-68.8	-86.4	98848.8	429.0	0.06244509965181351	93.75292358398437	0.0	0.0	-419.5	903.4	25849.2	1183.6	-1.6087974667549134	-162.0049575805664	0.0	2082.8	2030.0	2578.4	194.4	180.2	189.1	182.8	39431936.2
