time	State	Battery_level	Magnetometer_x	Magnetometer_y	Magnetometer_z	Pressure	Temperature	Wind_speed	Wind_angle	Wind_compensation:pitch	Wind_compensation:roll	Pitch_y	Roll_x	Yaw_z	Altitude	Velocity_x	Velocity_y	Velocity_z	Acceleration_x	Acceleration_y	Acceleration_z	Motor_1_power	Motor_2_power	Motor_3_power	Motor_4_power	time_board
2020-06-30 07:29:34.000	2.0	65.0	29.0	7.545454545454546	-82.63636363636364	98831.45454545454	344.0	1.40583357571845e-41	-52.20732532848012	0.0	0.0	-2514.2727272727275	-1058.6363636363637	52935.0	0.0	0.0	0.0	0.0	2068.0	2041.8181818181818	2577.818181818182	0.0	0.0	0.0	0.0	202875537.72727272
2020-06-30 07:29:34.050	2.0	65.0	29.6	7.2	-85.2	98837.6	344.0	1.3335737095439988e-41	-52.2017635345459	0.0	0.0	-2512.5	-1055.2	52916.1	0.0	0.0	0.0	0.0	2068.0	2042.8	2576.8	0.0	0.0	0.0	0.0	202927648.2
2020-06-30 07:29:34.100	2.0	65.0	28.2	8.2	-87.8	98834.5	344.0	1.2676286038128728e-41	-52.19672889709473	0.0	0.0	-2512.5	-1053.5	52897.9	0.0	0.0	0.0	0.0	2068.0	2044.0	2577.2	0.0	0.0	0.0	0.0	202977776.6
2020-06-30 07:29:34.150	2.0	65.0	29.0	9.8	-86.2	98837.1	344.0	1.2049905624575535e-41	-52.19056282043457	0.0	0.0	-2513.0	-1046.4	52879.5	0.0	0.0	0.0	0.0	2068.0	2043.2	2575.6	0.0	0.0	0.0	0.0	203027740.0
2020-06-30 07:29:34.200	2.0	65.0	26.8	7.6	-87.2	98838.2	344.0	1.1454634036930352e-41	-52.18712043762207	0.0	0.0	-2513.8	-1047.5	52860.6	0.0	0.0	0.0	0.0	2068.0	2040.0	2576.0	0.0	0.0	0.0	0.0	203077727.8
2020-06-30 07:29:34.250	2.0	65.0	28.444444444444443	9.11111111111111	-82.88888888888889	98837.66666666667	344.0	1.0915959337260953e-41	-52.184132470024956	0.0	0.0	-2514.6666666666665	-1050.2222222222222	52845.0	0.0	0.0	0.0	0.0	2068.0	2043.5555555555557	2576.0	0.0	0.0	0.0	0.0	203125274.0
2020-06-30 07:29:34.300	2.0	65.0	29.4	9.4	-84.0	98839.7	344.0	1.0402959539454577e-41	-52.17829704284668	0.0	0.0	-2515.0	-1045.3	52827.8	0.0	0.0	0.0	0.0	2067.2	2044.0	2576.0	0.0	0.0	0.0	0.0	203172872.4
2020-06-30 07:29:34.350	2.0	65.0	27.555555555555557	6.444444444444445	-84.88888888888889	98838.0	344.0	9.913563835780603e-42	-52.17232471042209	0.0	0.0	-2518.0	-1038.4444444444443	52810.0	0.0	0.0	0.0	0.0	2068.0	2044.0	2576.0	0.0	0.0	0.0	0.0	203220326.2222222
2020-06-30 07:29:34.400	2.0	65.0	29.0	7.909090909090909	-83.72727272727273	98836.72727272728	344.0	9.423732172584395e-42	-52.16626566106623	0.0	0.0	-2518.5454545454545	-1031.7272727272727	52790.63636363636	0.0	0.0	0.0	0.0	2068.0	2044.0	2576.0	0.0	0.0	0.0	0.0	203270437.9090909
2020-06-30 07:29:34.450	2.0	65.0	29.1	8.9	-84.7	98837.0	344.0	8.935239527920763e-42	-52.15993804931641	0.0	0.0	-2518.8	-1026.2	52771.0	0.0	0.0	0.0	0.0	2068.0	2044.0	2576.0	0.0	0.0	0.0	0.0	203322979.3
2020-06-30 07:29:34.500	2.0	65.0	30.7	7.5	-87.3	98836.5	344.0	8.493550251965581e-42	-52.155860137939456	0.0	0.0	-2519.7	-1026.7	52752.7	0.0	0.0	0.0	0.0	2068.0	2040.0	2576.4	0.0	0.0	0.0	0.0	203373064.5
2020-06-30 07:29:34.550	2.0	65.0	28.11111111111111	7.0	-85.44444444444444	98833.55555555556	344.0	8.094522729257621e-42	-52.15345933702257	0.0	0.0	-2521.1111111111113	-1030.888888888889	52735.555555555555	0.0	0.0	0.0	0.0	2068.0	2043.111111111111	2576.0	0.0	0.0	0.0	0.0	203420565.66666666
2020-06-30 07:29:34.600	2.0	65.0	28.625	7.625	-85.125	98834.125	344.0	7.66527776216479e-42	-52.14721918106079	0.0	0.0	-2520.75	-1025.375	52716.5	0.0	0.0	0.0	0.0	2068.0	2043.5	2577.5	0.0	0.0	0.0	0.0	203474353.375
2020-06-30 07:29:34.650	2.0	65.0	28.1	6.7	-87.3	98833.4	344.0	7.266152927063474e-42	-52.14320297241211	0.0	0.0	-2519.2	-1025.8	52696.8	0.0	0.0	0.0	0.0	2068.0	2042.0	2576.4	0.0	0.0	0.0	0.0	203527193.8
2020-06-30 07:29:34.700	2.0	65.0	28.333333333333332	8.777777777777779	-86.11111111111111	98832.33333333333	344.0	6.917276319395405e-42	-52.13837814331055	0.0	0.0	-2518.3333333333335	-1022.4444444444445	52679.22222222222	0.0	0.0	0.0	0.0	2068.0	2043.111111111111	2579.1111111111113	0.0	0.0	0.0	0.0	203575700.0
2020-06-30 07:29:34.750	2.0	65.0	29.5	7.3	-86.3	98835.8	344.0	6.585822522633776e-42	-52.133719253540036	0.0	0.0	-2518.3	-1020.3	52661.5	0.0	0.0	0.0	0.0	2067.6	2043.6	2575.2	0.0	0.0	0.0	0.0	203624221.2
2020-06-30 07:29:34.800	2.0	65.0	27.4	9.4	-83.0	98837.0	344.0	6.23493738716684e-42	-52.128872299194335	0.0	0.0	-2519.6	-1019.8	52641.7	0.0	0.0	0.0	0.0	2068.0	2040.4	2575.6	0.0	0.0	0.0	0.0	203678396.1
2020-06-30 07:29:34.850	2.0	65.0	25.142857142857142	4.571428571428571	-86.85714285714286	98832.42857142857	344.0	5.96332570768171e-42	-52.127040318080354	0.0	0.0	-2519.714285714286	-1024.7142857142858	52625.857142857145	0.0	0.0	0.0	0.0	2068.0	2041.142857142857	2575.4285714285716	0.0	0.0	0.0	0.0	203722315.85714287
2020-06-30 07:29:34.900	2.0	65.0	27.2	6.6	-83.4	98837.3	344.0	5.6625069644901534e-42	-52.12274703979492	0.0	0.0	-2520.5	-1022.6	52609.3	0.0	0.0	0.0	0.0	2068.0	2043.6	2576.0	0.0	0.0	0.0	0.0	203773327.1
2020-06-30 07:29:34.950	2.0	65.0	29.454545454545453	7.454545454545454	-85.27272727272727	98834.27272727272	344.0	5.3688839799063094e-42	-52.11659240722656	0.0	0.0	-2520.818181818182	-1016.3636363636364	52588.90909090909	0.0	0.0	0.0	0.0	2068.0	2044.0	2576.7272727272725	0.0	0.0	0.0	0.0	203825941.27272728
2020-06-30 07:29:35.000	2.0	65.0	27.625	8.125	-85.625	98833.625	344.0	5.110010012468486e-42	-52.110976696014404	0.0	0.0	-2520.75	-1012.625	52570.0	0.0	0.0	0.0	0.0	2068.0	2043.0	2575.5	0.0	0.0	0.0	0.0	203874724.875
2020-06-30 07:29:35.050	2.0	65.0	29.0	8.0	-88.0	98835.2	344.0	4.8636267099785753e-42	-52.10817642211914	0.0	0.0	-2522.8	-1016.6	52552.4	0.0	0.0	0.0	0.0	2068.0	2041.6	2575.6	0.0	0.0	0.0	0.0	203923495.1
2020-06-30 07:29:35.100	2.0	65.0	29.7	8.3	-84.1	98834.3	344.0	4.623304023346869e-42	-52.10330924987793	0.0	0.0	-2522.8	-1014.2	52533.3	0.0	0.0	0.0	0.0	2068.0	2044.0	2574.8	0.0	0.0	0.0	0.0	203973495.0
2020-06-30 07:29:35.150	2.0	65.0	28.444444444444443	7.333333333333333	-88.22222222222223	98836.22222222222	344.0	4.4058380716665946e-42	-52.09874725341797	0.0	0.0	-2522.1111111111113	-1012.4444444444445	52515.333333333336	0.0	0.0	0.0	0.0	2068.0	2041.3333333333333	2576.0	0.0	0.0	0.0	0.0	204021114.33333334
2020-06-30 07:29:35.200	2.0	65.0	28.333333333333332	9.0	-86.33333333333333	98834.58333333333	344.0	4.177737821640388e-42	-52.0966157913208	0.0	0.0	-2522.8333333333335	-1018.1666666666666	52496.0	0.0	0.0	0.0	0.0	2068.0	2040.3333333333333	2576.0	0.0	0.0	0.0	0.0	204073717.16666666
2020-06-30 07:29:35.250	2.0	65.0	28.6	7.8	-84.6	98838.8	344.0	3.951101150010254e-42	-52.09402008056641	0.0	0.0	-2522.9	-1023.6	52475.9	0.0	0.0	0.0	0.0	2068.0	2041.6	2576.0	0.0	0.0	0.0	0.0	204128643.4
2020-06-30 07:29:35.300	2.0	65.0	31.8	6.6	-86.6	98837.8	344.0	3.7559002739298075e-42	-52.08957138061523	0.0	0.0	-2522.0	-1020.8	52457.1	0.0	0.0	0.0	0.0	2068.0	2043.6	2576.0	0.0	0.0	0.0	0.0	204178713.5
2020-06-30 07:29:35.350	2.0	65.0	28.88888888888889	8.666666666666666	-82.0	98836.0	344.0	3.5790719777149525e-42	-52.084337870279946	0.0	0.0	-2521.777777777778	-1016.0	52439.0	0.0	0.0	0.0	0.0	2068.0	2044.0	2576.0	0.0	0.0	0.0	0.0	204226212.7777778
2020-06-30 07:29:35.400	2.0	65.0	27.6	9.2	-85.2	98835.2	344.0	3.410760462166605e-42	-52.07911911010742	0.0	0.0	-2522.4	-1011.4	52420.9	0.0	0.0	0.0	0.0	2067.6	2042.4	2577.6	0.0	0.0	0.0	0.0	204273797.2
2020-06-30 07:29:35.450	2.0	65.0	27.8	7.0	-86.2	98832.0	344.0	3.2260693245685936e-42	-52.07417640686035	0.0	0.0	-2522.6	-1009.7	52400.3	0.0	0.0	0.0	0.0	2068.0	2043.6	2579.6	0.0	0.0	0.0	0.0	204328811.1
2020-06-30 07:29:35.500	2.0	65.0	28.8	5.6	-86.0	98836.4	344.0	3.0668818190212945e-42	-52.06909446716308	0.0	0.0	-2522.3	-1007.3	52383.3	0.0	0.0	0.0	0.0	2068.0	2042.0	2579.2	0.0	0.0	0.0	0.0	204378884.5
2020-06-30 07:29:35.550	2.0	65.0	25.333333333333332	8.0	-84.0	98836.0	344.0	2.967015948463746e-42	-52.06748962402344	0.0	0.0	-2522.0	-1010.6666666666666	52372.0	0.0	0.0	0.0	0.0	2068.0	2041.3333333333333	2577.3333333333335	0.0	0.0	0.0	0.0	204411366.0
2020-06-30 07:29:35.600	7.0	65.0	29.444444444444443	7.666666666666667	-86.11111111111111	98835.33333333333	344.0	0.0	0.0	0.0	0.0	1.3333333333333333	-8.0	52367.555555555555	0.0	-0.7225244442621866	-19.90859678056505	0.0	2068.0	2044.0	2577.3333333333335	70.0	70.0	70.0	70.0	204472811.66666666
2020-06-30 07:29:35.650	7.0	65.0	28.6	8.0	-84.2	98834.9	344.0	0.0	0.0	0.0	0.0	3.5	-20.8	52366.3	0.0	-0.21852837055921553	-8.095528030395508	0.0	2068.0	2040.0	2576.0	70.0	70.0	70.0	70.0	204523937.6
2020-06-30 07:29:35.700	7.0	65.0	29.0	7.4	-88.0	98832.8	344.0	0.0	0.0	0.0	0.0	8.5	-31.6	52363.5	0.0	-0.12759963274002076	-2.4051573634147645	0.0	2068.0	2043.6	2576.0	70.0	70.0	70.0	70.0	204574004.6
2020-06-30 07:29:35.750	7.0	65.0	30.444444444444443	8.222222222222221	-86.66666666666667	98835.33333333333	344.44444444444446	0.0	0.0	0.0	0.0	11.555555555555555	-32.888888888888886	52361.22222222222	0.0	-0.07865956839587954	-1.2513596879111395	0.0	2068.0	2044.0	2576.8888888888887	70.0	70.0	70.0	70.0	204621520.55555555
2020-06-30 07:29:35.800	7.0	65.0	28.8	6.6	-84.2	98833.9	344.5	0.0	0.0	0.0	0.0	14.1	-40.3	52360.9	0.0	-0.1096267744898796	-0.21905796453356743	0.0	2068.0	2041.6	2576.0	70.0	70.0	70.0	70.0	204677688.1
2020-06-30 07:29:35.850	7.0	65.0	28.5	8.25	-86.5	98830.5	344.0	0.0	0.0	0.0	0.0	17.625	-45.625	52360.5	0.0	-0.12352147232741117	-0.3638259842991829	0.0	2068.0	2044.0	2576.5	70.0	70.0	70.0	70.0	204724708.0
2020-06-30 07:29:35.900	7.0	65.0	27.90909090909091	8.454545454545455	-84.63636363636364	98834.81818181818	344.6363636363636	0.0	0.0	0.0	0.0	18.90909090909091	-47.18181818181818	52360.181818181816	0.0	-0.12392287769100883	-0.6360566724430431	0.0	2068.0	2044.0	2576.0	70.0	70.0	70.0	70.0	204776699.54545453
2020-06-30 07:29:35.950	7.0	65.0	29.6	8.4	-88.0	98829.5	344.6	0.0	0.0	0.0	0.0	19.2	-50.4	52357.6	0.0	-0.14187577962875367	-0.509198796749115	0.0	2068.0	2043.2	2576.4	70.0	70.0	70.0	70.0	204829226.1
2020-06-30 07:29:36.000	7.0	65.0	35.0	9.5	-87.0	98827.0	345.0	0.0	0.0	0.0	0.0	21.375	-52.5	52354.25	0.0	-0.17439761944115162	-0.5164579637348652	0.0	2067.5	2043.5	2576.0	70.0	70.0	70.0	70.0	204874251.875
2020-06-30 07:29:36.050	7.0	65.0	32.1	8.3	-88.9	98832.8	345.0	0.0	0.0	0.0	0.0	35.8	-34.2	52328.8	0.0	-0.0164030522108078	-0.427610932290554	0.0	2070.4	2045.2	2576.8	70.0	70.0	70.0	70.0	204924300.6
2020-06-30 07:29:36.100	7.0	65.0	38.166666666666664	20.833333333333332	-91.16666666666667	98831.83333333333	345.0	0.0	0.0	0.0	0.0	48.333333333333336	-14.166666666666666	52299.0	0.0	0.802566001812617	-0.38355673019153375	0.0	2068.6666666666665	2034.6666666666667	2578.0	70.0	70.0	70.0	70.0	204976073.66666666
2020-06-30 07:29:36.150	7.0	65.0	24.2	9.0	-87.0	98833.4	345.0	0.0	0.0	0.0	0.0	50.3	-42.5	52307.0	0.0	1.0689882516860962	0.2467761043459177	0.0	2072.0	2041.2	2580.8	70.0	70.0	70.0	70.0	205024358.7
2020-06-30 07:29:36.200	7.0	65.0	30.0	9.6	-88.4	98835.5	345.0	0.0	0.0	0.0	0.0	64.0	-54.1	52288.6	0.0	0.942652302980423	-0.43508106749504805	0.0	2072.0	2044.4	2577.6	70.0	70.0	70.0	70.0	205074480.8
2020-06-30 07:29:36.250	7.0	65.0	32.3	10.3	-85.9	98831.3	345.0	0.0	0.0	0.0	0.0	73.3	-55.1	52285.8	0.0	0.8942424595355988	-0.15361962243914604	0.0	2071.2	2042.8	2579.6	70.0	70.0	70.0	70.0	205124419.7
2020-06-30 07:29:36.300	7.0	65.0	33.90909090909091	8.090909090909092	-90.63636363636364	98835.90909090909	345.0	0.0	0.0	0.0	0.0	77.54545454545455	-62.0	52286.0	0.0	0.17029131948947906	-0.4613987722180106	0.0	2069.818181818182	2043.6363636363637	2577.4545454545455	70.0	70.0	70.0	70.0	205177112.36363637
2020-06-30 07:29:36.350	7.0	65.0	28.0	13.6	-76.8	98832.0	345.0	0.0	0.0	0.0	0.0	80.0	-64.0	52288.7	0.0	-0.13095127940177917	-0.7107977986335754	0.0	2070.0	2044.0	2576.4	70.0	70.0	70.0	70.0	205229525.3
2020-06-30 07:29:36.400	7.0	65.0	27.444444444444443	17.666666666666668	-85.88888888888889	98834.66666666667	345.0	0.0	0.0	0.0	0.0	84.11111111111111	-63.888888888888886	52289.11111111111	0.0	-0.08494811018721925	-0.7124227351612515	0.0	2071.1111111111113	2042.6666666666667	2578.222222222222	70.22222222222223	70.22222222222223	70.22222222222223	70.22222222222223	205277231.33333334
2020-06-30 07:29:36.450	7.0	65.0	30.333333333333332	9.222222222222221	-88.77777777777777	98833.0	345.0	0.0	0.0	0.0	0.0	88.0	-67.44444444444444	52289.88888888889	0.0	-0.033573698769840926	-0.27949748034006916	0.0	2070.222222222222	2042.2222222222222	2577.777777777778	72.0	72.0	72.0	72.0	205322709.33333334
2020-06-30 07:29:36.500	7.0	65.0	31.875	7.125	-90.125	98834.0	345.0	0.0	0.0	0.0	0.0	90.75	-74.0	52281.5	0.0	-0.15674499608576298	-0.2133457539603114	0.0	2070.5	2042.5	2578.0	72.0	72.0	72.0	72.0	205378459.375
2020-06-30 07:29:36.550	7.0	65.0	33.81818181818182	10.909090909090908	-84.0	98836.72727272728	345.0	0.0	0.0	0.0	0.0	95.45454545454545	-84.45454545454545	52289.09090909091	0.0	-0.2365794229236516	-0.4139647673476826	0.0	2070.5454545454545	2041.4545454545455	2574.5454545454545	72.0	72.0	72.0	72.0	205427201.1818182
2020-06-30 07:29:36.600	7.0	65.0	32.5	11.0	-88.0	98838.5	345.0	0.0	0.0	0.0	0.0	103.875	-115.875	52304.125	0.0	-0.4429869055747986	-0.23525040037930012	0.0	2071.5	2044.5	2572.0	72.0	72.0	72.0	72.0	205479861.625
2020-06-30 07:29:36.650	7.0	65.0	33.54545454545455	9.727272727272727	-85.36363636363636	98839.18181818182	345.0	0.0	0.0	0.0	0.0	105.27272727272727	-130.72727272727272	52323.0	0.0	-0.7085363675247539	-0.04111225124109875	0.0	2068.0	2043.6363636363637	2578.181818181818	72.0	72.0	72.0	72.0	205527379.1818182
2020-06-30 07:29:36.700	7.0	65.0	34.5	8.5	-88.5	98837.75	345.0	0.0	0.0	0.0	0.0	94.25	-124.875	52330.5	0.0	-1.1295278817415237	-1.1004295982420444	0.0	2069.0	2033.0	2577.0	72.0	72.0	72.0	72.0	205574881.875
2020-06-30 07:29:36.750	7.0	65.0	33.6	10.4	-88.0	98838.2	345.0	0.0	0.0	0.0	0.0	99.6	-138.0	52327.7	0.0	-1.0371808350086211	-0.41207132637500765	0.0	2071.2	2040.0	2578.4	72.0	72.0	72.0	72.0	205619866.3
2020-06-30 07:29:36.800	7.0	65.0	34.5	12.5	-85.16666666666667	98838.0	345.0	0.0	0.0	0.0	0.0	100.16666666666667	-129.5	52340.5	0.0	-0.5391486237446467	-0.7690091778834661	0.0	2070.6666666666665	2031.3333333333333	2578.6666666666665	72.0	72.0	72.0	72.0	205671661.0
2020-06-30 07:29:36.850	7.0	65.0	29.125	13.875	-88.625	98837.375	345.0	0.0	0.0	0.0	0.0	94.5	-126.25	52343.0	0.0	-1.2935195043683052	-0.897566775791347	0.0	2068.0	2038.0	2578.5	72.0	72.0	72.0	72.0	205729362.0
2020-06-30 07:29:36.900	7.0	65.0	30.1	11.1	-87.3	98839.7	345.0	0.0	0.0	0.0	0.0	88.6	-147.2	52336.0	0.0	-1.620058500766754	-0.5414147764444353	0.0	2067.2	2044.0	2576.8	72.0	72.0	72.0	72.0	205775106.2
2020-06-30 07:29:36.950	7.0	65.0	30.11111111111111	9.444444444444445	-88.55555555555556	98838.33333333333	345.0	0.0	0.0	0.0	0.0	79.44444444444444	-141.0	52327.22222222222	0.0	-1.411029252741072	-0.053072902891370996	0.0	2068.0	2046.2222222222222	2576.0	72.0	72.0	72.0	72.0	205822563.55555555
2020-06-30 07:29:37.000	7.0	65.0	34.36363636363637	8.909090909090908	-86.36363636363636	98836.45454545454	345.0	0.0	0.0	0.0	0.0	79.45454545454545	-143.8181818181818	52323.27272727273	0.0	-0.9485968134619973	-0.6254149837927385	0.0	2069.4545454545455	2041.4545454545455	2576.7272727272725	72.0	72.0	72.0	72.0	205872674.63636363
2020-06-30 07:29:37.050	7.0	65.0	34.5	11.5	-86.5	98838.8	345.0	0.0	0.0	0.0	0.0	81.7	-153.6	52311.9	0.0	-0.8180488884449005	-0.7893227458000183	0.0	2069.6	2041.2	2576.8	72.0	72.0	72.0	72.0	205925191.7
2020-06-30 07:29:37.100	7.0	65.0	33.1	11.3	-87.3	98837.0	345.0	0.0	0.0	0.0	0.0	83.1	-148.7	52324.4	0.0	-0.4232529181987047	-1.2619093669578434	0.0	2072.0	2038.8	2577.2	72.0	72.0	72.0	72.0	205975265.1
2020-06-30 07:29:37.150	7.0	65.0	31.5	10.5	-86.5	98838.8	345.0	0.0	0.0	0.0	0.0	91.1	-159.6	52322.2	0.0	-0.003364302217960352	-1.2552543997764587	0.0	2071.6	2039.6	2578.8	72.4	72.4	72.4	72.4	206025225.2
2020-06-30 07:29:37.200	7.0	65.0	31.7	10.5	-87.1	98841.2	345.0	0.0	0.0	0.0	0.0	92.9	-159.1	52325.2	0.0	-0.1684885781025514	-0.9014991916716099	0.0	2070.8	2040.4	2578.8	75.9	75.4	75.9	76.5	206075344.2
2020-06-30 07:29:37.250	7.0	65.0	30.88888888888889	8.444444444444445	-85.33333333333333	98836.33333333333	345.0	0.0	0.0	0.0	0.0	90.33333333333333	-171.33333333333334	52310.11111111111	0.0	-0.01647234780506955	-0.5738507575458951	0.0	2070.6666666666665	2047.5555555555557	2578.222222222222	78.88888888888889	79.88888888888889	78.33333333333333	81.0	206122822.44444445
2020-06-30 07:29:37.300	7.0	65.0	30.90909090909091	11.272727272727273	-87.81818181818181	98837.54545454546	345.0	0.0	0.0	0.0	0.0	86.54545454545455	-147.1818181818182	52305.09090909091	0.0	-0.0811515182934024	-0.5237868966704066	0.0	2071.6363636363635	2036.3636363636363	2579.2727272727275	83.63636363636364	83.63636363636364	83.72727272727273	84.27272727272727	206172898.1818182
2020-06-30 07:29:37.350	7.0	65.0	33.0	10.6	-85.6	98840.6	345.0	0.0	0.0	0.0	0.0	77.8	-141.7	52325.8	0.0	0.335323202246218	-0.2422657161951065	0.0	2074.0	2041.6	2579.2	88.6	86.8	88.5	87.6	206225405.5
2020-06-30 07:29:37.400	7.0	65.0	33.4	11.0	-86.2	98838.2	345.0	0.0	0.0	0.0	0.0	83.6	-134.4	52319.5	0.0	0.40955463498830796	-0.6393353253602981	0.0	2070.4	2040.8	2578.0	91.2	92.4	90.8	93.4	206275509.1
2020-06-30 07:29:37.450	7.0	65.0	31.9	11.1	-85.7	98837.3	345.0	0.0	0.0	0.0	0.0	86.3	-155.6	52322.0	0.0	0.2889242023229599	-1.020777228474617	0.0	2073.6	2042.4	2578.4	96.5	95.0	95.7	96.3	206325509.1
2020-06-30 07:29:37.500	7.0	65.0	31.1	10.9	-85.1	98838.4	345.0	0.0	0.0	0.0	0.0	92.2	-162.7	52342.6	0.0	0.6066439613699913	-0.6539969339966774	0.0	2073.6	2040.8	2578.0	100.2	99.1	99.9	100.3	206375521.5
2020-06-30 07:29:37.550	7.0	65.0	29.9	7.3	-89.7	98843.9	345.0	0.0	0.0	0.0	0.0	106.4	-166.5	52408.6	0.0	0.6176244974136352	-0.32500311653129754	0.0	2071.2	2041.6	2581.2	107.7	99.6	107.6	100.8	206425609.9
2020-06-30 07:29:37.600	7.0	65.0	31.0	9.4	-88.8	98834.3	345.0	0.0	0.0	0.0	0.0	104.8	-172.8	52625.2	0.0	-1.3172040075063705	-0.727093118429184	0.0	2064.4	2042.4	2573.2	117.8	97.6	117.4	98.9	206475625.1
2020-06-30 07:29:37.650	7.0	65.0	29.7	12.1	-87.5	98836.1	345.0	0.0	0.0	0.0	0.0	107.6	-154.7	52766.8	0.0	-2.0147468209266663	-2.9155600666999817	0.0	2070.0	2046.8	2573.6	116.2	106.8	116.4	108.1	206525731.9
2020-06-30 07:29:37.700	7.0	65.0	30.444444444444443	10.88888888888889	-86.0	98840.33333333333	345.0	0.0	0.0	0.0	0.0	129.77777777777777	-143.0	52738.22222222222	0.0	-0.5478779955042733	-2.0746075577206082	0.0	2075.1111111111113	2040.0	2577.777777777778	116.66666666666667	113.77777777777777	116.44444444444444	115.11111111111111	206573262.1111111
2020-06-30 07:29:37.750	7.0	65.0	32.9	9.7	-84.1	98841.8	345.0	0.0	0.0	0.0	0.0	95.6	-166.6	52779.3	0.0	-0.324159381352365	-0.4297619670629501	0.0	2068.8	2035.2	2583.2	123.5	116.1	122.7	117.1	206621273.3
2020-06-30 07:29:37.800	7.0	65.0	33.714285714285715	12.285714285714286	-82.28571428571429	98844.71428571429	345.0	0.0	0.0	0.0	0.0	113.42857142857143	-196.28571428571428	52947.857142857145	0.0	-1.0220553960118974	1.3152722035135542	0.0	2071.4285714285716	2036.0	2577.1428571428573	133.0	114.71428571428571	132.28571428571428	116.28571428571429	206680471.7142857
2020-06-30 07:29:37.850	7.0	65.0	30.875	13.125	-87.125	98841.875	345.0	0.0	0.0	0.0	0.0	101.75	-247.875	53147.5	0.0	-1.6148565113544464	-0.9145194557495415	0.0	2072.0	2055.0	2580.0	140.25	115.375	138.875	117.375	206728377.875
2020-06-30 07:29:37.900	7.0	65.0	31.333333333333332	12.666666666666666	-84.88888888888889	98838.66666666667	345.0	0.0	0.0	0.0	0.0	109.88888888888889	-242.22222222222223	53267.77777777778	0.0	0.39553895095984143	-2.841140243742201	0.0	2076.4444444444443	2040.888888888889	2579.1111111111113	139.55555555555554	124.0	139.0	125.22222222222223	206775603.66666666
2020-06-30 07:29:37.950	7.0	65.0	32.111111111111114	12.555555555555555	-86.55555555555556	98839.33333333333	345.0	0.0	0.0	0.0	0.0	149.55555555555554	-284.77777777777777	53373.444444444445	0.0	1.0148231552706823	-2.8176645967695446	0.0	2072.0	2037.3333333333333	2572.0	145.88888888888889	125.44444444444444	144.66666666666666	127.88888888888889	206824028.44444445
2020-06-30 07:29:38.000	7.0	65.0	33.111111111111114	10.0	-86.22222222222223	98842.0	345.0	0.0	0.0	0.0	0.0	184.77777777777777	-377.44444444444446	53585.0	0.0	-1.6967561062839296	-2.3383633295694985	0.0	2061.3333333333335	2042.6666666666667	2577.3333333333335	154.11111111111111	124.11111111111111	153.66666666666666	127.66666666666667	206875711.55555555
2020-06-30 07:29:38.050	7.0	65.0	31.11111111111111	11.333333333333334	-85.77777777777777	98841.0	345.0	0.0	0.0	0.0	0.0	157.66666666666666	-361.0	53675.22222222222	0.0	-4.1747843689388695	-1.8191898531383939	0.0	2063.5555555555557	2031.111111111111	2576.8888888888887	152.77777777777777	134.66666666666666	151.11111111111111	137.44444444444446	206925801.0
2020-06-30 07:29:38.100	7.0	65.0	29.2	12.0	-86.4	98847.2	345.0	0.0	0.0	0.0	0.0	200.3	-368.4	53849.8	0.0	-2.9004695892333983	-2.3481005907058714	0.0	2073.6	2041.6	2596.0	160.8	134.0	160.8	136.1	206976061.6
2020-06-30 07:29:38.150	7.0	65.0	31.666666666666668	13.0	-86.77777777777777	98844.66666666667	345.0	0.0	0.0	0.0	0.0	228.33333333333334	-396.77777777777777	54023.333333333336	0.0	-2.5441307889090643	-2.120975719557868	0.0	2065.777777777778	2041.7777777777778	2572.4444444444443	169.88888888888889	132.0	170.0	135.88888888888889	207025902.1111111
2020-06-30 07:29:38.200	7.0	65.0	30.3	11.9	-85.1	98841.5	345.0	0.0	0.0	0.0	0.0	242.5	-380.9	54220.9	0.0	-4.045874238014221	-4.293687129020691	0.0	2059.2	2050.4	2582.8	169.2	142.4	167.3	144.6	207076253.6
2020-06-30 07:29:38.250	7.0	65.0	31.5	10.9	-85.9	98845.7	345.4	0.0	0.0	0.0	0.0	179.7	-515.3	54318.8	0.0	-2.4161099195480347	-7.394837141036987	0.0	2076.8	2060.0	2572.0	174.5	143.8	171.9	149.4	207126247.7
2020-06-30 07:29:38.300	7.0	65.0	33.375	11.375	-86.125	98845.25	345.25	0.0	0.0	0.0	0.0	333.5	-506.75	54471.75	0.0	-2.339801147580147	-9.900840044021606	0.0	2069.0	2050.5	2600.0	179.625	146.75	178.125	152.0	207176940.5
2020-06-30 07:29:38.350	7.0	65.0	32.625	10.375	-87.875	98847.5	345.625	0.0	0.0	0.0	0.0	263.5	-746.375	54385.625	0.0	-3.3672679662704468	-10.898224592208862	0.0	2066.5	2068.0	2596.5	175.0	159.125	168.125	168.0	207223235.5
2020-06-30 07:29:38.400	7.0	65.0	33.0	10.25	-86.75	98849.25	345.625	0.0	0.0	0.0	0.0	158.125	-1031.75	54182.875	0.0	-3.4773092567920685	-13.476606726646423	0.0	2069.5	2055.5	2611.5	176.75	167.25	168.125	173.75	207268279.5
2020-06-30 07:29:38.450	7.0	65.0	33.285714285714285	9.571428571428571	-86.14285714285714	98838.71428571429	345.57142857142856	0.0	0.0	0.0	0.0	-147.0	-1490.857142857143	53848.28571428572	0.0	-0.8434673111353602	-14.754056658063616	0.0	2033.142857142857	2058.8571428571427	2638.285714285714	182.85714285714286	174.42857142857142	168.57142857142858	178.71428571428572	207329654.7142857
2020-06-30 07:29:38.500	7.0	65.0	35.875	8.875	-85.125	98844.75	345.875	0.0	0.0	0.0	0.0	-731.125	-1555.25	53525.0	0.0	2.1113416999578476	-16.27343261241913	0.0	2097.5	2059.5	2650.5	180.125	188.875	165.125	184.375	207377753.75
2020-06-30 07:29:38.550	7.0	65.0	35.2	6.0	-85.2	98834.6	345.8	0.0	0.0	0.0	0.0	-1271.2	-1242.7	53323.3	0.0	5.380542731285095	-12.205663394927978	0.0	2072.4	2035.6	2654.0	185.7	185.0	173.8	177.8	207426537.6
2020-06-30 07:29:38.600	7.0	65.0	31.8	5.0	-86.8	98829.5	346.0	0.0	0.0	0.0	0.0	-1518.5	-811.1	53291.5	0.0	8.43109426498413	-4.003289710357786	0.0	2071.2	2026.4	2626.0	191.1	180.4	183.8	171.2	207476574.1
2020-06-30 07:29:38.650	7.0	65.0	34.75	6.0	-85.75	98831.75	345.75	0.0	0.0	0.0	0.0	-1705.875	-641.375	53323.625	0.0	11.674105405807495	-0.221556281670928	0.0	2062.0	2027.5	2610.5	193.625	181.125	183.0	172.125	207521621.25
2020-06-30 07:29:38.700	7.0	65.0	32.09090909090909	2.090909090909091	-84.0909090909091	98833.36363636363	346.0	0.0	0.0	0.0	0.0	-1885.1818181818182	-433.54545454545456	53325.90909090909	0.0	16.057287909767844	1.637750043110414	0.0	2079.2727272727275	2030.1818181818182	2604.7272727272725	192.54545454545453	184.0909090909091	181.72727272727272	175.72727272727272	207573757.54545453
2020-06-30 07:29:38.750	7.0	65.0	33.7	3.1	-86.3	98834.9	346.0	0.0	0.0	0.0	0.0	-2072.6	-461.7	53323.3	0.0	17.54908676147461	-0.07043453622609377	0.0	2072.4	2031.6	2588.4	197.4	183.9	183.7	173.4	207626696.3
2020-06-30 07:29:38.800	7.0	65.0	33.6	3.2	-83.8	98830.8	346.0	0.0	0.0	0.0	0.0	-2381.7	-586.5	53330.3	0.0	21.17886390686035	0.5714135356247425	0.0	2084.8	2032.0	2597.2	199.3	186.2	179.4	177.6	207676793.9
2020-06-30 07:29:38.850	7.0	65.0	38.7	1.3	-85.5	98833.8	346.0	0.0	0.0	0.0	0.0	-2534.6	-909.0	53285.1	0.0	24.46654987335205	-3.816495251655579	0.0	2078.0	2041.6	2598.8	198.9	185.8	181.5	180.1	207726809.2
2020-06-30 07:29:38.900	7.0	65.0	36.25	0.5	-84.75	98827.375	346.0	0.0	0.0	0.0	0.0	-2287.5	-1098.875	53327.375	0.0	22.373637676239014	-4.9967575669288635	0.0	2072.0	2035.0	2593.5	201.375	180.625	187.75	180.75	207777522.625
2020-06-30 07:29:38.950	7.0	65.0	36.888888888888886	2.6666666666666665	-84.0	98830.44444444444	346.0	0.0	0.0	0.0	0.0	-1897.6666666666667	-1386.3333333333333	53388.666666666664	0.0	20.050957997639973	-6.797355757819282	0.0	2078.222222222222	2034.2222222222222	2592.4444444444443	203.0	177.88888888888889	189.55555555555554	183.66666666666666	207824404.66666666
2020-06-30 07:29:39.000	7.0	65.0	39.2	2.4	-82.0	98828.6	346.0	0.0	0.0	0.0	0.0	-1496.9	-1685.1	53450.0	0.0	16.623516082763672	-10.426509666442872	0.0	2071.2	2042.4	2584.8	202.9	178.9	190.5	185.3	207872018.0
2020-06-30 07:29:39.050	7.0	65.0	38.333333333333336	4.333333333333333	-83.44444444444444	98829.55555555556	346.0	0.0	0.0	0.0	0.0	-947.0	-1687.3333333333333	53536.22222222222	0.0	11.593876838684082	-11.838186581929525	0.0	2074.222222222222	2037.3333333333333	2565.3333333333335	204.11111111111111	175.44444444444446	198.77777777777777	183.66666666666666	207924488.7777778
2020-06-30 07:29:39.100	7.0	65.0	37.111111111111114	3.5555555555555554	-82.88888888888889	98825.11111111111	346.0	0.0	0.0	0.0	0.0	-398.44444444444446	-1631.7777777777778	53580.0	0.0	6.762297524346246	-12.670893139309353	0.0	2085.3333333333335	2036.4444444444443	2574.6666666666665	199.22222222222223	180.0	197.11111111111111	190.22222222222223	207973425.44444445
2020-06-30 07:29:39.150	7.0	65.0	34.22222222222222	4.888888888888889	-84.66666666666667	98825.44444444444	346.0	4.900661386070876e-05	-82.08513556586371	0.0	0.0	227.55555555555554	-1435.4444444444443	86589.77777777778	0.0	1.8755311883158154	-11.846642600165474	0.0	2064.4444444444443	2036.4444444444443	2570.6666666666665	199.33333333333334	180.11111111111111	199.11111111111111	191.55555555555554	208024616.8888889
2020-06-30 07:29:39.200	7.0	65.0	36.54545454545455	4.909090909090909	-82.18181818181819	98828.54545454546	346.0	0.00021539701794443482	-36.707545193758875	0.0	0.0	264.27272727272725	-1359.5454545454545	113049.09090909091	213.45454545454547	21.143721374598417	-33.546376661820844	0.0	2077.4545454545455	2036.0	2581.818181818182	218.1818181818182	193.0909090909091	209.27272727272728	196.72727272727272	208074701.0
2020-06-30 07:29:39.250	7.0	65.0	38.44444444444444	2.4444444444444446	-82.22222222222223	98826.11111111111	346.0	0.0005515997731385545	107.08744812011719	0.0	0.0	-85.55555555555556	-1197.7777777777778	113108.44444444444	271.77777777777777	126.44863976372613	-133.90142907036676	0.0	2075.1111111111113	2033.7777777777778	2702.222222222222	250.66666666666666	222.0	228.77777777777777	223.0	208124840.2222222
2020-06-30 07:29:39.300	7.0	65.0	36.2	-1.0	-81.0	98822.3	346.0	0.0006561087298905477	107.35258331298829	0.0	0.0	-30.5	-834.1	113160.5	286.1	158.26481018066406	-186.56736602783204	0.0	2072.0	2036.4	2739.2	251.7	225.6	232.2	229.1	208172304.8
2020-06-30 07:29:39.350	7.0	65.0	36.0	1.0	-82.66666666666667	98830.33333333333	346.0	0.0016497198278860499	77.13018544514973	0.0	0.0	1203.1666666666667	896.3333333333334	113341.33333333333	357.6666666666667	121.16473770141602	-250.75118509928384	0.0	2080.6666666666665	2026.6666666666667	2677.3333333333335	229.5	203.33333333333334	224.33333333333334	210.5	208284850.66666666
2020-06-30 07:29:39.400	7.0	65.0	36.0	1.0	-82.66666666666667	98830.33333333333	346.0	0.0016497198278860499	77.13018544514973	0.0	0.0	1203.1666666666667	896.3333333333334	113341.33333333333	357.6666666666667	121.16473770141602	-250.75118509928384	0.0	2080.6666666666665	2026.6666666666667	2677.3333333333335	229.5	203.33333333333334	224.33333333333334	210.5	208284850.66666666
2020-06-30 07:29:39.450	7.0	65.0	36.0	1.0	-82.66666666666667	98830.33333333333	346.0	0.0016497198278860499	77.13018544514973	0.0	0.0	1203.1666666666667	896.3333333333334	113341.33333333333	357.6666666666667	121.16473770141602	-250.75118509928384	0.0	2080.6666666666665	2026.6666666666667	2677.3333333333335	229.5	203.33333333333334	224.33333333333334	210.5	208284850.66666666
2020-06-30 07:29:39.500	7.0	65.0	27.0	9.0	-85.0	98828.0	346.0	0.0021014207741245627	81.40615463256836	0.0	0.0	1970.5	1939.5	113540.0	409.0	96.34744262695312	-245.53267669677734	0.0	2080.0	2034.0	2616.0	221.5	187.5	222.0	196.0	208352569.0
2020-06-30 07:29:39.550	7.0	65.0	33.333333333333336	6.666666666666667	-85.66666666666667	98824.0	346.0	0.0037852312282969556	94.1938247680664	0.0	0.0	2278.0	2429.1666666666665	113614.5	508.8333333333333	180.16218948364258	-185.88133748372397	0.0	2073.3333333333335	2032.0	2569.3333333333335	209.5	185.16666666666666	204.0	186.83333333333334	208452595.66666666
2020-06-30 07:29:39.600	7.0	65.0	33.333333333333336	6.666666666666667	-85.66666666666667	98824.0	346.0	0.0037852312282969556	94.1938247680664	0.0	0.0	2278.0	2429.1666666666665	113614.5	508.8333333333333	180.16218948364258	-185.88133748372397	0.0	2073.3333333333335	2032.0	2569.3333333333335	209.5	185.16666666666666	204.0	186.83333333333334	208452595.66666666
2020-06-30 07:29:39.650	7.0	65.0	35.0	3.0	-87.0	98826.0	346.0	0.00420336751267314	99.26290130615234	0.0	0.0	2481.0	2610.0	113685.0	559.0	216.88487243652344	-150.7351531982422	0.0	2100.0	2020.0	2532.0	208.0	184.0	203.0	184.0	208505401.0
2020-06-30 07:29:39.700	7.0	65.0	38.57142857142857	8.571428571428571	-86.85714285714286	98825.85714285714	346.0	0.004604505108935493	104.93562425885882	0.0	0.0	3528.5714285714284	1811.4285714285713	113747.57142857143	654.0	157.66439165387834	-95.05593981061664	0.0	2061.714285714286	2046.2857142857142	2425.1428571428573	157.42857142857142	133.0	155.28571428571428	143.85714285714286	208615334.0
2020-06-30 07:29:39.750	7.0	65.0	38.57142857142857	8.571428571428571	-86.85714285714286	98825.85714285714	346.0	0.004604505108935493	104.93562425885882	0.0	0.0	3528.5714285714284	1811.4285714285713	113747.57142857143	654.0	157.66439165387834	-95.05593981061664	0.0	2061.714285714286	2046.2857142857142	2425.1428571428573	157.42857142857142	133.0	155.28571428571428	143.85714285714286	208615334.0
2020-06-30 07:29:39.800	7.0	65.0	39.0	11.0	-83.0	98817.0	346.0	0.0047934348694980145	110.6801986694336	0.0	0.0	3823.5	1562.0	113756.0	684.5	150.13607788085938	-72.78472518920898	0.0	2048.0	2006.0	2378.0	145.5	119.5	146.5	133.0	208652648.5
2020-06-30 07:29:39.850	7.0	65.0	32.0	12.0	-84.0	98826.0	346.0	0.004618801642209292	110.57585906982422	0.0	0.0	3867.0	1480.0	113769.0	689.0	150.68910217285156	-62.21239852905274	0.0	2088.0	2032.0	2392.0	153.0	123.0	150.0	135.0	208665527.0
2020-06-30 07:29:39.900	7.0	65.0	32.0	12.0	-84.0	98826.0	346.0	0.004618801642209292	110.57585906982422	0.0	0.0	3867.0	1480.0	113769.0	689.0	150.68910217285156	-62.21239852905274	0.0	2088.0	2032.0	2392.0	153.0	123.0	150.0	135.0	208665527.0
2020-06-30 07:29:39.950	7.0	65.0	36.0	8.0	-84.0	98823.0	346.0	0.0045798495411872855	110.98175048828124	0.0	0.0	3855.0	1459.0	113740.0	692.0	148.06919860839844	-60.298423767089844	0.0	2044.0	1988.0	2388.0	150.0	128.0	147.0	135.0	208670166.0
2020-06-30 07:29:40.000	7.0	65.0	39.5	8.25	-86.75	98819.875	346.0	0.00447887578047812	147.93167114257812	0.0	0.0	2900.0	-119.25	113547.625	742.875	47.466190814971924	52.49020767211914	0.0	2041.0	2044.0	2472.5	177.25	153.125	168.125	161.5	208862960.25
2020-06-30 07:29:40.050	7.0	65.0	39.5	8.25	-86.75	98819.875	346.0	0.00447887578047812	147.93167114257812	0.0	0.0	2900.0	-119.25	113547.625	742.875	47.466190814971924	52.49020767211914	0.0	2041.0	2044.0	2472.5	177.25	153.125	168.125	161.5	208862960.25
2020-06-30 07:29:40.100	7.0	65.0	39.5	8.25	-86.75	98819.875	346.0	0.00447887578047812	147.93167114257812	0.0	0.0	2900.0	-119.25	113547.625	742.875	47.466190814971924	52.49020767211914	0.0	2041.0	2044.0	2472.5	177.25	153.125	168.125	161.5	208862960.25
2020-06-30 07:29:40.150	7.0	65.0	39.5	8.25	-86.75	98819.875	346.0	0.00447887578047812	147.93167114257812	0.0	0.0	2900.0	-119.25	113547.625	742.875	47.466190814971924	52.49020767211914	0.0	2041.0	2044.0	2472.5	177.25	153.125	168.125	161.5	208862960.25
2020-06-30 07:29:40.200	7.0	65.0	39.5	8.25	-86.75	98819.875	346.0	0.00447887578047812	147.93167114257812	0.0	0.0	2900.0	-119.25	113547.625	742.875	47.466190814971924	52.49020767211914	0.0	2041.0	2044.0	2472.5	177.25	153.125	168.125	161.5	208862960.25
2020-06-30 07:29:40.250	7.0	65.0	47.0	3.0	-87.0	98826.0	346.0	0.006614357233047485	167.10601806640625	0.0	0.0	793.0	-2128.0	113405.0	734.0	-6.454139709472656	79.41978454589844	0.0	1972.0	2028.0	2564.0	205.0	181.0	183.0	186.0	209085632.0
2020-06-30 07:29:40.300	7.0	65.0	47.0	3.0	-87.0	98826.0	346.0	0.006614357233047485	167.10601806640625	0.0	0.0	793.0	-2128.0	113405.0	734.0	-6.454139709472656	79.41978454589844	0.0	1972.0	2028.0	2564.0	205.0	181.0	183.0	186.0	209085632.0
2020-06-30 07:29:40.350	7.0	65.0	43.75	0.75	-84.25	98824.25	346.0	0.008259550901129842	165.11022567749023	0.0	0.0	200.5	-2522.75	113417.0	712.5	-14.433124303817749	56.97056293487549	0.0	2108.0	2022.0	2597.0	210.75	185.75	189.75	192.5	209210876.0
2020-06-30 07:29:40.400	7.0	65.0	44.8	2.0	-83.6	98819.8	346.0	0.008846105448901654	161.6521484375	0.0	0.0	25.4	-2508.2	113414.4	704.4	-6.2233348965644835	27.30766010284424	0.0	2072.0	2036.8	2605.6	214.4	186.0	194.0	192.2	209256762.0
2020-06-30 07:29:40.450	7.0	65.0	44.125	0.375	-85.625	98822.125	346.0	0.009398505673743784	161.84451293945312	0.0	0.0	29.5	-2158.0	113441.625	697.375	-13.006205379962921	1.1337109208106995	0.0	2075.0	2050.0	2602.0	212.5	183.75	196.0	190.0	209325317.0
2020-06-30 07:29:40.500	7.0	65.0	42.90909090909091	2.1818181818181817	-85.63636363636364	98820.54545454546	346.0	0.009923423640429974	159.9048808704723	0.0	0.0	2.3636363636363638	-1744.090909090909	113506.36363636363	695.5454545454545	-7.860700019381263	-14.331766128540039	0.0	2075.6363636363635	2039.2727272727273	2598.909090909091	212.72727272727272	179.45454545454547	198.9090909090909	182.36363636363637	209375953.9090909
2020-06-30 07:29:40.550	7.0	65.0	41.333333333333336	1.7777777777777777	-83.77777777777777	98817.33333333333	346.0	0.010883597760564752	160.90597534179688	0.0	0.0	169.0	-1287.111111111111	113566.33333333333	692.3333333333334	-0.6781465998954244	-12.637806150648329	0.0	2081.777777777778	2039.111111111111	2602.6666666666665	208.22222222222223	182.88888888888889	196.88888888888889	186.66666666666666	209425923.33333334
2020-06-30 07:29:40.600	7.0	65.0	42.0	1.5555555555555556	-85.11111111111111	98814.0	346.0	0.011216436409287982	161.00220574273004	0.0	0.0	249.11111111111111	-1082.2222222222222	113450.55555555556	689.1111111111111	-4.204184108310276	-14.901144875420464	0.0	2070.6666666666665	2033.7777777777778	2600.8888888888887	206.22222222222223	186.88888888888889	192.11111111111111	191.33333333333334	209478223.44444445
2020-06-30 07:29:40.650	7.0	65.0	42.111111111111114	1.0	-84.11111111111111	98820.66666666667	346.0	0.011431012820038531	160.8787638346354	0.0	0.0	165.11111111111111	-965.7777777777778	113440.33333333333	685.1111111111111	-1.2351976500617132	-31.729969660441082	0.0	2071.5555555555557	2035.111111111111	2591.5555555555557	211.66666666666666	185.11111111111111	195.55555555555554	188.11111111111111	209526078.44444445
2020-06-30 07:29:40.700	7.0	65.0	40.125	2.375	-84.625	98823.75	346.0	0.011915473849512637	159.60211181640625	0.0	0.0	100.0	-843.0	113396.625	684.0	13.632334113121033	-45.98720932006836	0.0	2072.0	2039.5	2595.0	209.5	186.0	192.625	188.625	209572337.75
2020-06-30 07:29:40.750	7.0	65.0	42.2	2.2	-84.2	98823.3	346.0	0.012547804974019527	155.61368255615236	0.0	0.0	118.5	-694.6	113314.7	683.7	26.822361564636232	-73.19254684448242	0.0	2085.6	2037.2	2598.8	207.1	186.0	189.6	189.9	209623641.4
2020-06-30 07:29:40.800	7.0	65.0	42.22222222222222	2.2222222222222223	-84.22222222222223	98815.22222222222	346.0	0.013489030715492036	154.7120564778646	0.0	0.0	183.66666666666666	-358.44444444444446	113270.66666666667	684.6666666666666	31.684623294406467	-80.94377899169922	0.0	2070.222222222222	2033.3333333333333	2586.6666666666665	206.44444444444446	184.22222222222223	191.77777777777777	184.88888888888889	209677811.7777778
2020-06-30 07:29:40.850	7.0	65.0	42.22222222222222	2.2222222222222223	-83.11111111111111	98814.55555555556	346.0	0.014513278483516641	153.36023457845053	0.0	0.0	326.1111111111111	-55.22222222222222	113275.33333333333	686.6666666666666	36.66755294799805	-71.24586402045355	0.0	2084.8888888888887	2036.888888888889	2590.6666666666665	204.22222222222223	181.33333333333334	191.66666666666666	184.11111111111111	209726229.7777778
2020-06-30 07:29:40.900	7.0	65.0	40.77777777777778	1.4444444444444444	-84.11111111111111	98815.66666666667	346.3333333333333	0.014888959833317332	150.4042273627387	0.0	0.0	662.1111111111111	151.66666666666666	113265.11111111111	689.6666666666666	35.06463962131076	-81.07878706190321	0.0	2089.3333333333335	2035.5555555555557	2578.222222222222	201.77777777777777	178.66666666666666	191.88888888888889	183.66666666666666	209775339.44444445
2020-06-30 07:29:40.950	7.0	65.0	40.333333333333336	2.111111111111111	-87.0	98820.0	346.1111111111111	0.01544601283967495	148.79002380371094	0.0	0.0	853.0	338.22222222222223	113257.88888888889	691.7777777777778	31.73519304063585	-87.94537099202473	0.0	2084.4444444444443	2043.111111111111	2572.8888888888887	201.55555555555554	179.33333333333334	190.22222222222223	183.55555555555554	209821882.1111111
2020-06-30 07:29:41.000	7.0	65.0	40.0	2.3636363636363638	-86.72727272727273	98822.90909090909	346.54545454545456	0.017013018442825836	148.7108514959162	0.0	0.0	1014.2727272727273	582.2727272727273	113279.36363636363	696.0	40.515948208895594	-67.3506754094904	0.0	2083.6363636363635	2041.4545454545455	2578.909090909091	199.0909090909091	178.72727272727272	190.36363636363637	180.0909090909091	209876328.36363637
2020-06-30 07:29:41.050	7.0	65.0	38.857142857142854	2.2857142857142856	-86.0	98818.28571428571	346.2857142857143	0.018288081511855125	149.27081516810827	0.0	0.0	1088.4285714285713	589.4285714285714	113231.85714285714	695.7142857142857	35.102669852120535	-31.344519751412527	0.0	2071.4285714285716	2034.2857142857142	2574.8571428571427	200.71428571428572	181.71428571428572	189.0	185.14285714285714	209923574.85714287
2020-06-30 07:29:41.100	7.0	65.0	38.54545454545455	4.7272727272727275	-86.9090909090909	98821.0	346.6363636363636	0.01881380413066257	146.05128617720172	0.0	0.0	1050.8181818181818	385.3636363636364	113185.09090909091	696.3636363636364	36.63194274902344	-38.85737609863281	0.0	2085.4545454545455	2036.7272727272727	2585.090909090909	202.72727272727272	181.0909090909091	189.45454545454547	184.72727272727272	209976009.9090909
2020-06-30 07:29:41.150	7.0	65.0	39.22222222222222	3.2222222222222223	-86.77777777777777	98820.33333333333	346.44444444444446	0.020180432953768306	146.68139817979602	0.0	0.0	1095.4444444444443	214.11111111111111	113127.33333333333	696.5555555555555	41.42236794365777	-22.372023900349934	0.0	2085.3333333333335	2040.4444444444443	2582.222222222222	201.77777777777777	182.88888888888889	188.44444444444446	187.11111111111111	210026498.8888889
2020-06-30 07:29:41.200	7.0	65.0	38.888888888888886	2.6666666666666665	-86.22222222222223	98821.66666666667	346.3333333333333	0.021185244330101542	144.2381117078993	0.0	0.0	1030.7777777777778	93.0	113100.55555555556	697.0	38.96335686577691	-26.21558994717068	0.0	2096.0	2038.6666666666667	2588.8888888888887	201.77777777777777	183.66666666666666	188.33333333333334	186.0	210075354.2222222
2020-06-30 07:29:41.250	7.0	65.0	40.2	3.6	-83.4	98821.2	346.8	0.022262115590274335	143.7197067260742	0.0	0.0	999.6	182.7	113021.0	698.7	30.146074295043945	-24.278517532348634	0.0	2081.6	2038.8	2581.2	199.6	184.5	187.7	184.5	210129134.6
2020-06-30 07:29:41.300	7.0	65.0	40.44444444444444	3.5555555555555554	-86.22222222222223	98820.55555555556	347.0	0.02370511843926377	143.05588955349393	0.0	0.0	721.0	290.0	112990.33333333333	700.3333333333334	36.01083331637912	-21.39824718899197	0.0	2074.6666666666665	2037.3333333333333	2584.4444444444443	201.33333333333334	184.88888888888889	186.88888888888889	181.66666666666666	210180470.33333334
2020-06-30 07:29:41.350	7.0	65.0	40.44444444444444	2.6666666666666665	-86.0	98818.22222222222	347.0	0.025236097681853507	142.37089369032117	0.0	0.0	693.6666666666666	369.1111111111111	112931.77777777778	700.4444444444445	45.90304056803385	-15.873933262295193	0.0	2093.3333333333335	2037.3333333333333	2586.222222222222	200.22222222222223	185.44444444444446	188.55555555555554	183.66666666666666	210226707.8888889
2020-06-30 07:29:41.400	7.0	65.0	39.4	2.6	-85.4	98821.0	347.0	0.026395766250789165	142.6067855834961	0.0	0.0	761.1	505.0	112928.7	701.6	41.434115982055665	-6.116323718428612	0.0	2075.6	2042.4	2583.6	198.3	185.6	188.2	183.9	210274197.0
2020-06-30 07:29:41.450	7.0	65.0	38.77777777777778	1.0	-86.77777777777777	98821.33333333333	347.0	0.027396036311984062	142.09389411078558	0.0	0.0	907.3333333333334	513.5555555555555	112854.44444444444	703.4444444444445	42.628265380859375	3.164430777231852	0.0	2090.222222222222	2028.4444444444443	2580.4444444444443	197.66666666666666	184.0	188.55555555555554	183.11111111111111	210323960.55555555
2020-06-30 07:29:41.500	7.0	65.0	37.8	1.4	-86.2	98822.2	347.0	0.028970655426383017	141.92698516845704	0.0	0.0	1001.5	456.8	112900.6	704.1	46.449383926391604	8.171070313453674	0.0	2086.4	2033.2	2585.2	201.4	181.3	190.2	181.7	210374288.5
2020-06-30 07:29:41.550	7.0	65.0	39.0	6.2	-84.6	98817.0	347.0	0.030045567266643047	141.03997497558595	0.0	0.0	1093.2	225.5	112900.0	704.0	43.16894416809082	9.24328155517578	0.0	2088.0	2040.8	2578.8	201.3	182.8	189.5	184.3	210424383.1
2020-06-30 07:29:41.600	7.0	65.0	41.875	5.375	-87.125	98817.375	347.0	0.03128836979158223	140.8697052001953	0.0	0.0	1267.625	125.0	112884.0	704.5	41.07210969924927	12.25280910730362	0.0	2081.5	2042.5	2578.0	199.875	181.5	190.25	185.875	210473773.5
2020-06-30 07:29:41.650	7.0	65.0	40.8	5.6	-84.4	98821.0	347.0	0.03162971064448357	140.63955078125	0.0	0.0	1381.6	-95.7	112865.5	706.8	24.603753089904785	16.564677810668947	0.0	2076.8	2047.6	2569.2	198.6	181.8	186.6	185.2	210524438.1
2020-06-30 07:29:41.700	7.0	65.0	41.0	5.0	-85.8	98817.9	347.0	0.03315881863236427	138.99282684326172	0.0	0.0	1370.6	-60.3	112796.2	708.8	42.337303924560544	12.439872360229492	0.0	2082.0	2042.4	2580.0	194.1	184.3	185.2	186.5	210574465.5
2020-06-30 07:29:41.750	7.0	65.0	37.77777777777778	5.555555555555555	-83.77777777777777	98819.0	347.0	0.03395822271704674	139.10396999782986	0.0	0.0	1561.3333333333333	-31.88888888888889	112749.0	710.2222222222222	32.746381759643555	14.442656517028809	0.0	2072.4444444444443	2035.5555555555557	2572.0	197.33333333333334	179.55555555555554	191.0	182.22222222222223	210624731.66666666
2020-06-30 07:29:41.800	7.0	65.0	37.2	4.8	-84.4	98821.3	347.0	0.0349316194653511	138.91131896972655	0.0	0.0	1674.4	118.9	112715.9	711.0	24.38135471343994	13.653470611572265	0.0	2079.2	2042.4	2575.6	192.3	185.3	185.7	188.3	210674682.1
2020-06-30 07:29:41.850	7.0	65.0	40.333333333333336	3.6666666666666665	-86.77777777777777	98818.55555555556	347.0	0.03537328541278839	138.1030748155382	0.0	0.0	1583.3333333333333	73.55555555555556	112624.33333333333	713.0	12.55395073360867	10.103831066025627	0.0	2084.8888888888887	2037.3333333333333	2575.5555555555557	195.33333333333334	183.44444444444446	184.77777777777777	185.0	210723242.33333334
2020-06-30 07:29:41.900	7.0	65.0	38.6	6.6	-83.8	98816.9	347.0	0.03683271892368793	138.04100189208984	0.0	0.0	1326.7	117.2	112722.5	713.9	13.20384111404419	-5.300048232078552	0.0	2087.2	2038.4	2577.6	202.4	177.8	192.3	177.2	210774740.1
2020-06-30 07:29:41.950	7.0	65.0	40.25	6.5	-83.0	98820.375	347.0	0.037921955808997154	139.83168601989746	0.0	0.0	1193.75	190.125	112746.0	715.125	2.9000378288328648	20.861145853996277	0.0	2081.0	2042.5	2572.5	195.875	184.0	185.625	183.5	210820994.875
2020-06-30 07:29:42.000	7.0	65.0	39.63636363636363	5.454545454545454	-85.27272727272727	98821.45454545454	347.0	0.03895431045781483	139.66137279163706	0.0	0.0	1092.0	7.7272727272727275	112713.09090909091	715.5454545454545	-3.027561282569712	27.716720581054688	0.0	2074.5454545454545	2037.090909090909	2572.3636363636365	198.45454545454547	180.45454545454547	188.0	184.0909090909091	210877232.72727272
2020-06-30 07:29:42.050	7.0	65.0	42.375	0.875	-86.125	98821.25	347.0	0.039411571342498064	139.71596908569336	0.0	0.0	1166.5	-243.375	112675.375	716.125	-13.22936224937439	27.319037675857544	0.0	2080.5	2040.0	2571.5	194.875	182.375	185.625	188.125	210925433.625
2020-06-30 07:29:42.100	7.0	65.0	41.18181818181818	6.090909090909091	-88.0909090909091	98819.18181818182	347.0	0.040806902064518494	140.1307997270064	0.0	0.0	1222.4545454545455	-425.09090909090907	112570.72727272728	716.5454545454545	-14.296903610229492	34.84526374123313	0.0	2091.6363636363635	2037.8181818181818	2576.3636363636365	194.36363636363637	183.45454545454547	184.72727272727272	189.54545454545453	210977358.1818182
2020-06-30 07:29:42.150	6.142857142857143	65.0	40.714285714285715	5.0	-84.14285714285714	98820.14285714286	347.0	0.04140752553939819	139.63326590401786	0.0	0.0	1239.0	-503.57142857142856	112569.57142857143	715.4285714285714	-17.235110964093888	30.228705542428152	0.0	2074.285714285714	2046.2857142857142	2577.714285714286	196.14285714285714	179.71428571428572	188.14285714285714	183.0	211022386.14285713
2020-06-30 07:29:42.200	3.1	65.0	42.2	5.8	-83.4	98823.0	347.0	0.04266585409641266	140.11845855712892	0.0	0.0	1117.0	-382.9	112643.7	714.6	-17.957692623138428	27.831148147583008	0.0	2081.6	2034.0	2581.2	156.7	206.3	157.7	210.9	211073937.5
2020-06-30 07:29:42.250	3.0	65.0	41.6	7.6	-84.0	98826.3	347.0	0.0430289626121521	140.34578552246094	0.0	0.0	915.1	-543.5	113377.0	716.4	-39.23507232666016	19.194187021255495	0.0	2077.2	2034.0	2574.4	170.5	193.7	166.7	200.8	211125026.9
2020-06-30 07:29:42.300	3.0	65.0	39.333333333333336	0.8888888888888888	-87.11111111111111	98824.22222222222	347.0	0.04458333096570439	140.1929236518012	0.0	0.0	562.1111111111111	-778.8888888888889	114270.33333333333	716.6666666666666	-31.428781297471787	9.879611439175076	0.0	2083.1111111111113	2041.3333333333333	2560.0	179.0	188.55555555555554	171.88888888888889	194.11111111111111	211172481.55555555
2020-06-30 07:29:42.350	3.0	65.0	41.45454545454545	4.545454545454546	-86.36363636363636	98823.36363636363	347.0	0.04612505334344777	140.17379067160866	0.0	0.0	131.63636363636363	-1087.6363636363637	115268.18181818182	716.4545454545455	-14.398589025844228	13.201502366499467	0.0	2092.7272727272725	2042.5454545454545	2572.0	182.63636363636363	188.63636363636363	170.72727272727272	193.72727272727272	211222597.45454547
2020-06-30 07:29:42.400	3.0	65.0	42.2	5.4	-83.0	98820.3	347.0	0.047494306415319446	139.20850524902343	0.0	0.0	-95.9	-1367.6	116434.6	715.4	-3.078074502944946	0.6275901198387146	0.0	2084.0	2044.0	2574.4	185.7	184.7	175.3	192.4	211275103.1
2020-06-30 07:29:42.450	3.0	65.0	42.6	5.4	-87.4	98827.0	347.0	0.04741011299192906	138.73834381103515	0.0	0.0	-257.1	-1554.6	117564.5	712.9	-16.46208267211914	-16.11279411315918	0.0	2074.4	2036.8	2562.4	188.4	185.1	175.8	191.8	211325133.8
2020-06-30 07:29:42.500	3.0	65.0	41.0	7.0	-84.2	98821.2	347.0	0.0479106605052948	138.44776153564453	0.0	0.0	-560.3	-1578.3	118789.5	711.5	-13.944770765304565	-42.51204643249512	0.0	2087.2	2039.6	2572.8	189.9	186.8	176.0	189.7	211375145.9
2020-06-30 07:29:42.550	3.0	65.0	43.8	8.6	-86.2	98822.3	347.0	0.04901014193892479	137.97877655029296	0.0	0.0	-719.6	-1684.5	119929.2	709.5	2.725138396024704	-53.55621070861817	0.0	2085.2	2037.6	2572.4	192.1	183.9	178.4	189.9	211425222.2
2020-06-30 07:29:42.600	3.0	65.0	42.6	8.6	-83.4	98822.0	347.0	0.0498220756649971	138.95394439697264	0.0	0.0	-738.0	-1639.3	121128.0	706.8	2.683362638950348	-62.18064956665039	0.0	2080.0	2041.2	2572.8	190.1	186.4	178.5	191.1	211475274.3
2020-06-30 07:29:42.650	3.0	65.0	43.2	9.2	-86.0	98820.4	347.0	0.05099457912147045	139.45884552001954	0.0	0.0	-760.5	-1515.9	122360.7	704.7	9.085973739624023	-59.52719841003418	0.0	2080.8	2039.6	2575.6	192.6	185.0	181.0	188.3	211525350.4
2020-06-30 07:29:42.700	3.0	65.0	40.25	10.25	-85.75	98822.75	347.0	0.05190330417826772	138.8457794189453	0.0	0.0	-709.375	-1410.625	123561.625	701.875	16.74523091316223	-67.45093488693237	0.0	2094.5	2032.0	2578.0	191.375	185.5	180.75	191.25	211575362.625
2020-06-30 07:29:42.750	3.0	65.0	39.888888888888886	11.666666666666666	-86.77777777777777	98816.0	347.0	0.05256804865267542	138.9427235921224	0.0	0.0	-500.77777777777777	-1290.6666666666667	124725.88888888889	699.1111111111111	19.135208659701878	-70.70349205864801	0.0	2091.1111111111113	2031.111111111111	2578.6666666666665	190.11111111111111	185.0	183.11111111111111	191.88888888888889	211624039.8888889
2020-06-30 07:29:42.800	3.0	65.0	38.0	13.555555555555555	-86.0	98824.11111111111	347.0	0.05338566046622065	139.97410413953992	0.0	0.0	-298.6666666666667	-1238.0	125959.88888888889	695.6666666666666	15.050121837192112	-64.77931933932834	0.0	2080.4444444444443	2037.7777777777778	2580.0	194.33333333333334	182.33333333333334	184.88888888888889	190.44444444444446	211672942.44444445
2020-06-30 07:29:42.850	3.0	65.0	38.1	15.9	-86.5	98820.1	347.0	0.05509058646857738	138.85536193847656	0.0	0.0	-150.7	-1238.3	127128.1	692.6	29.998752403259278	-75.23213043212891	0.0	2087.6	2042.8	2592.4	191.5	184.5	184.0	193.7	211720629.4
2020-06-30 07:29:42.900	3.0	65.0	39.111111111111114	16.88888888888889	-87.33333333333333	98818.77777777778	347.0	0.055626323653592005	139.29287719726562	0.0	0.0	92.55555555555556	-1134.4444444444443	128343.77777777778	689.2222222222222	28.86550627814399	-77.55145263671875	0.0	2085.777777777778	2038.2222222222222	2587.1111111111113	193.55555555555554	182.66666666666666	188.0	190.88888888888889	211769215.44444445
2020-06-30 07:29:42.950	3.0	65.0	37.09090909090909	18.363636363636363	-86.0	98821.45454545454	347.0	0.056617586450143295	139.6655842174183	0.0	0.0	49.90909090909091	-853.7272727272727	129786.0	685.0	27.381845994429156	-78.70875479958274	0.0	2079.6363636363635	2043.6363636363637	2587.6363636363635	195.36363636363637	185.1818181818182	189.1818181818182	188.0909090909091	211823078.0
2020-06-30 07:29:43.000	3.0	65.0	32.666666666666664	16.0	-87.11111111111111	98822.88888888889	347.0	0.05833957840998968	139.28746371799045	0.0	0.0	2.5555555555555554	-545.2222222222222	131174.77777777778	681.4444444444445	37.43329323662652	-68.9289173550076	0.0	2096.0	2042.6666666666667	2587.5555555555557	192.33333333333334	187.22222222222223	187.22222222222223	191.55555555555554	211878722.66666666
2020-06-30 07:29:43.050	3.0	65.0	32.75	20.75	-86.75	98823.25	347.0	0.05930550489574671	138.78400421142578	0.0	0.0	-14.0	-466.375	132442.75	679.0	36.93969774246216	-66.62605094909668	0.0	2076.5	2036.5	2592.0	194.0	186.625	187.125	190.75	211930064.5
2020-06-30 07:29:43.100	3.0	65.0	31.75	18.25	-84.75	98814.75	347.0	0.060950605664402246	138.4747085571289	0.0	0.0	-80.625	-371.125	133717.875	677.25	47.53256940841675	-75.03121852874756	0.0	2084.5	2043.5	2593.0	195.0	185.125	189.5	188.375	211978271.0
2020-06-30 07:29:43.150	3.0	65.0	29.0	19.75	-89.0	98818.125	347.0	0.062290484085679054	138.9070053100586	0.0	0.0	-77.25	-203.625	134950.375	676.125	53.403178691864014	-66.65570259094238	0.0	2092.5	2044.0	2585.0	195.125	184.5	191.375	186.375	212024562.25
2020-06-30 07:29:43.200	3.0	65.0	30.6	22.0	-88.8	98815.5	347.0	0.06316674984991551	139.4862030029297	0.0	0.0	-225.6	-90.7	136198.3	676.4	51.3765365600586	-45.035495376586915	0.0	2072.0	2043.6	2582.0	194.8	186.7	187.1	187.0	212072320.0
2020-06-30 07:29:43.250	3.0	65.0	31.428571428571427	21.714285714285715	-87.42857142857143	98824.57142857143	347.0	0.06480525540454048	139.22141592843192	0.0	0.0	-415.2857142857143	-143.42857142857142	137663.42857142858	676.0	66.27208873203823	-29.94288090297154	0.0	2064.0	2046.2857142857142	2586.8571428571427	196.85714285714286	184.57142857142858	187.57142857142858	186.85714285714286	212127680.7142857
2020-06-30 07:29:43.300	3.0	65.0	31.555555555555557	24.22222222222222	-85.33333333333333	98822.11111111111	347.0	0.06700361933973101	139.41315714518228	0.0	0.0	-344.22222222222223	-274.1111111111111	138865.77777777778	675.7777777777778	91.86213090684679	-18.474873860677082	0.0	2086.6666666666665	2045.3333333333333	2599.1111111111113	195.22222222222223	182.44444444444446	188.44444444444446	189.77777777777777	212173447.8888889
2020-06-30 07:29:43.350	3.0	65.0	29.0	24.25	-87.5	98820.75	347.0	0.06765943206846714	139.46234703063965	0.0	0.0	-35.25	-462.625	140052.125	675.375	92.78738307952881	-10.883174061775208	0.0	2088.0	2042.5	2594.0	196.75	178.5	190.625	189.75	212217235.0
2020-06-30 07:29:43.400	3.0	65.0	28.8	25.6	-87.8	98824.4	347.2	0.06834772378206252	139.07850799560546	0.0	0.0	228.4	-721.5	141478.2	676.0	78.3436897277832	-11.402966403961182	0.0	2070.0	2048.8	2580.0	196.1	180.1	187.6	191.4	212271010.7
2020-06-30 07:29:43.450	3.0	65.0	24.8	25.8	-87.2	98820.9	347.0	0.07087643966078758	138.6725830078125	0.0	0.0	182.5	-813.0	142926.1	677.9	104.72225418090821	-22.363142585754396	0.0	2092.4	2044.4	2588.4	198.0	178.9	189.7	186.8	212323641.4
2020-06-30 07:29:43.500	3.0	65.0	27.0	27.75	-84.0	98820.0	347.0	0.07195428293198347	139.56957626342773	0.0	0.0	301.875	-792.625	144285.75	678.875	109.62410640716553	-16.644188404083252	0.0	2077.0	2045.0	2583.0	195.875	178.5	189.5	188.875	212373012.0
2020-06-30 07:29:43.550	3.0	65.0	29.0	27.0	-88.14285714285714	98817.85714285714	347.14285714285717	0.07258014913116183	139.66613987513952	0.0	0.0	289.85714285714283	-757.2857142857143	145687.85714285713	680.5714285714286	99.01494816371373	-14.176647594996862	0.0	2086.8571428571427	2048.5714285714284	2579.4285714285716	197.28571428571428	178.42857142857142	189.71428571428572	186.57142857142858	212423631.42857143
2020-06-30 07:29:43.600	3.0	65.0	24.22222222222222	32.0	-86.88888888888889	98822.44444444444	348.0	0.07364810092581643	140.047610812717	0.0	0.0	298.8888888888889	-649.0	147049.22222222222	682.6666666666666	107.42254214816623	-6.855525347921583	0.0	2080.0	2048.8888888888887	2579.1111111111113	193.88888888888889	180.11111111111111	189.0	188.11111111111111	212473713.7777778
2020-06-30 07:29:43.650	3.0	65.0	22.666666666666668	31.11111111111111	-90.22222222222223	98823.44444444444	348.0	0.07422339253955418	140.48411899142795	0.0	0.0	354.8888888888889	-501.55555555555554	148328.44444444444	684.0	105.99385070800781	6.591302845213148	0.0	2092.8888888888887	2041.3333333333333	2580.0	194.0	179.66666666666666	189.88888888888889	187.77777777777777	212521514.44444445
2020-06-30 07:29:43.700	3.0	65.0	20.714285714285715	29.571428571428573	-85.57142857142857	98821.85714285714	347.7142857142857	0.0753661457981382	140.867431640625	0.0	0.0	348.2857142857143	-317.14285714285717	149626.85714285713	685.0	110.14070783342633	14.981999942234584	0.0	2077.714285714286	2052.5714285714284	2584.5714285714284	194.14285714285714	180.85714285714286	190.14285714285714	186.57142857142858	212568829.7142857
2020-06-30 07:29:43.750	3.0	65.0	22.8	32.2	-87.4	98821.0	347.9	0.07674734368920326	141.4167938232422	0.0	0.0	337.3	-212.2	151011.0	686.4	118.93020858764649	24.560643005371094	0.0	2076.0	2043.6	2581.2	193.6	181.0	189.1	188.2	212620348.7
2020-06-30 07:29:43.800	3.0	65.0	20.5	32.25	-89.0	98818.75	348.0	0.07848704420030117	141.84685516357422	0.0	0.0	229.5	-269.375	152365.25	687.75	125.00049114227295	31.339831829071045	0.0	2089.5	2061.5	2584.5	194.375	181.375	187.0	188.75	212672057.75
2020-06-30 07:29:43.850	3.0	65.0	20.181818181818183	34.54545454545455	-86.9090909090909	98817.36363636363	348.0	0.08000822026621211	142.2534609707919	0.0	0.0	320.90909090909093	-300.45454545454544	153768.63636363635	689.8181818181819	135.80036093971947	38.526059584184125	0.0	2073.818181818182	2044.7272727272727	2577.4545454545455	194.27272727272728	178.27272727272728	190.27272727272728	188.27272727272728	212723965.1818182
2020-06-30 07:29:43.900	3.0	65.0	17.333333333333332	32.22222222222222	-88.66666666666667	98818.66666666667	347.77777777777777	0.08055435452196333	142.43585883246527	0.0	0.0	410.8888888888889	-272.8888888888889	155109.22222222222	692.3333333333334	131.2224409315321	44.71925947401259	0.0	2076.0	2052.8888888888887	2573.777777777778	193.33333333333334	179.44444444444446	190.0	187.22222222222223	212773999.7777778
2020-06-30 07:29:43.950	3.0	65.0	15.818181818181818	36.0	-88.0	98824.45454545454	348.0	0.08142046156254681	143.68635697798297	0.0	0.0	391.54545454545456	-116.0909090909091	156454.81818181818	694.2727272727273	140.76171597567472	66.07826926491477	0.0	2083.6363636363635	2048.3636363636365	2571.6363636363635	192.1818181818182	181.1818181818182	188.27272727272728	188.0	212824015.72727272
2020-06-30 07:29:44.000	3.0	65.0	14.0	39.0	-89.5	98821.75	348.0	0.0834503211081028	143.17683792114258	0.0	0.0	258.75	-113.25	157761.125	696.125	154.07655715942383	65.81066465377808	0.0	2067.5	2052.0	2575.5	192.0	183.125	186.375	188.5	212875464.75
2020-06-30 07:29:44.050	3.0	65.0	12.88888888888889	36.44444444444444	-90.22222222222223	98820.11111111111	348.0	0.08502189897828633	144.1209750705295	0.0	0.0	202.22222222222223	158.55555555555554	159051.88888888888	697.7777777777778	183.6114705403646	68.97247060139973	0.0	2078.222222222222	2048.8888888888887	2586.6666666666665	190.66666666666666	182.33333333333334	191.22222222222223	185.11111111111111	212924098.8888889
2020-06-30 07:29:44.100	3.0	65.0	12.714285714285714	35.857142857142854	-90.71428571428571	98825.42857142857	348.0	0.0844738238624164	145.10202026367188	0.0	0.0	220.57142857142858	348.42857142857144	160194.85714285713	699.2857142857143	171.4004124232701	98.61864362444196	0.0	2076.5714285714284	2057.1428571428573	2588.5714285714284	188.57142857142858	184.85714285714286	186.42857142857142	190.14285714285714	212969918.0
2020-06-30 07:29:44.150	3.0	65.0	12.1	37.3	-90.7	98822.8	348.0	0.08566658422350884	144.5045959472656	0.0	0.0	98.9	284.5	161541.0	702.3	169.74679718017578	91.61492156982422	0.0	2074.8	2047.2	2572.0	192.0	182.4	186.4	186.9	213022240.8
2020-06-30 07:29:44.200	3.0	65.0	11.666666666666666	37.888888888888886	-94.33333333333333	98825.66666666667	348.0	0.08681983831855986	146.38778686523438	0.0	0.0	12.333333333333334	147.77777777777777	162791.66666666666	706.1111111111111	199.63749016655817	124.62957339816623	0.0	2077.777777777778	2052.0	2583.5555555555557	187.44444444444446	184.22222222222223	181.77777777777777	191.88888888888889	213074289.33333334
2020-06-30 07:29:44.250	3.0	65.0	8.090909090909092	37.90909090909091	-91.72727272727273	98822.09090909091	348.0	0.08731205558234995	146.1654191450639	0.0	0.0	164.0	-63.27272727272727	164023.0909090909	706.5454545454545	196.59056368741122	128.14111744273794	0.0	2080.0	2055.6363636363635	2577.090909090909	190.1818181818182	181.0909090909091	185.54545454545453	191.1818181818182	213124394.8181818
2020-06-30 07:29:44.300	3.0	65.0	10.6	38.2	-89.4	98820.7	348.0	0.08821978569030761	146.63019561767578	0.0	0.0	283.3	-114.8	165317.9	707.8	196.40687713623046	134.1636474609375	0.0	2069.6	2056.8	2576.0	188.3	183.4	185.0	191.8	213176836.7
2020-06-30 07:29:44.350	3.0	65.0	8.88888888888889	40.22222222222222	-92.88888888888889	98822.11111111111	348.0	0.08953940123319626	147.48621453179254	0.0	0.0	463.44444444444446	-147.22222222222223	166527.0	711.4444444444445	218.26487731933594	151.5336388481988	0.0	2073.777777777778	2053.3333333333335	2584.0	186.77777777777777	181.22222222222223	185.11111111111111	193.22222222222223	213227097.7777778
